STKdata/stk_90fov_6leo/Satellite-MEO_Satellite10006-To-Satellite-LEO_Satellite20000 AER.csv

"Time (UTCG)","Azimuth (deg)","Elevation (deg)","Range (km)"
1 Jan 2020 00:00:00.000,15.273,-76.143,25925.377606
1 Jan 2020 00:00:30.000,13.947,-76.040,26046.924467
1 Jan 2020 00:01:00.000,12.651,-75.941,26170.885112
1 Jan 2020 00:01:30.000,11.382,-75.846,26297.161755
1 Jan 2020 00:02:00.000,10.140,-75.757,26425.656078
1 Jan 2020 00:02:30.000,8.923,-75.672,26556.269356
1 Jan 2020 00:03:00.000,7.731,-75.592,26688.902576
1 Jan 2020 00:03:30.000,6.561,-75.518,26823.456552
1 Jan 2020 00:04:00.000,5.413,-75.449,26959.832028
1 Jan 2020 00:04:30.000,4.286,-75.386,27097.929785
1 Jan 2020 00:05:00.000,3.180,-75.328,27237.650733
1 Jan 2020 00:05:30.000,2.091,-75.276,27378.896006
1 Jan 2020 00:06:00.000,1.021,-75.230,27521.567043
1 Jan 2020 00:06:30.000,359.968,-75.189,27665.565671
1 Jan 2020 00:07:00.000,358.931,-75.155,27810.794179
1 Jan 2020 00:07:30.000,357.909,-75.126,27957.155385
1 Jan 2020 00:08:00.000,356.902,-75.103,28104.552704
1 Jan 2020 00:08:30.000,355.908,-75.087,28252.890206
1 Jan 2020 00:09:00.000,354.927,-75.076,28402.072670
1 Jan 2020 00:09:30.000,353.959,-75.071,28552.005638
1 Jan 2020 00:09:38.699,353.680,-75.071,28595.607696
1 Jan 2020 01:25:29.003,143.087,-75.066,28593.030590
1 Jan 2020 01:25:59.000,142.536,-75.071,28412.545154
1 Jan 2020 01:26:29.000,141.983,-75.084,28232.018251
1 Jan 2020 01:26:59.000,141.428,-75.106,28051.585509
1 Jan 2020 01:27:29.000,140.871,-75.137,27871.367783
1 Jan 2020 01:27:59.000,140.311,-75.178,27691.488464
1 Jan 2020 01:28:29.000,139.747,-75.228,27512.073465
1 Jan 2020 01:28:59.000,139.178,-75.287,27333.251202
1 Jan 2020 01:29:29.000,138.605,-75.356,27155.152570
1 Jan 2020 01:29:59.000,138.025,-75.435,26977.910912
1 Jan 2020 01:30:29.000,137.438,-75.524,26801.661975
1 Jan 2020 01:30:59.000,136.843,-75.624,26626.543863
1 Jan 2020 01:31:29.000,136.239,-75.733,26452.696975
1 Jan 2020 01:31:59.000,135.624,-75.853,26280.263932
1 Jan 2020 01:32:29.000,134.999,-75.983,26109.389502
1 Jan 2020 01:32:59.000,134.360,-76.124,25940.220496
1 Jan 2020 01:33:29.000,133.708,-76.276,25772.905666
1 Jan 2020 01:33:59.000,133.040,-76.438,25607.595584
1 Jan 2020 01:34:29.000,132.355,-76.611,25444.442499
1 Jan 2020 01:34:59.000,131.650,-76.794,25283.600194
1 Jan 2020 01:35:29.000,130.924,-76.988,25125.223810
1 Jan 2020 01:35:59.000,130.175,-77.193,24969.469359
1 Jan 2020 01:36:29.000,129.400,-77.408,24816.494753
1 Jan 2020 01:36:59.000,128.596,-77.634,24666.457724
1 Jan 2020 01:37:29.000,127.761,-77.870,24519.516832
1 Jan 2020 01:37:59.000,126.890,-78.116,24375.830892
1 Jan 2020 01:38:29.000,125.980,-78.372,24235.558702
1 Jan 2020 01:38:59.000,125.026,-78.638,24098.858739
1 Jan 2020 01:39:29.000,124.024,-78.913,23965.888856
1 Jan 2020 01:39:59.000,122.969,-79.197,23836.805709
1 Jan 2020 01:40:29.000,121.852,-79.489,23711.765342
1 Jan 2020 01:40:59.000,120.669,-79.789,23590.921413
1 Jan 2020 01:41:29.000,119.409,-80.097,23474.425753
1 Jan 2020 01:41:59.000,118.065,-80.412,23362.427732
1 Jan 2020 01:42:29.000,116.625,-80.732,23255.073850
1 Jan 2020 01:42:59.000,115.077,-81.057,23152.507310
1 Jan 2020 01:43:29.000,113.407,-81.387,23054.867402
1 Jan 2020 01:43:59.000,111.598,-81.719,22962.289835
1 Jan 2020 01:44:29.000,109.633,-82.053,22874.905119
1 Jan 2020 01:44:59.000,107.490,-82.386,22792.838918
1 Jan 2020 01:45:29.000,105.144,-82.718,22716.211408
1 Jan 2020 01:45:59.000,102.570,-83.045,22645.136840
1 Jan 2020 01:46:29.000,99.736,-83.366,22579.722991
1 Jan 2020 01:46:59.000,96.612,-83.677,22520.071248
1 Jan 2020 01:47:29.000,93.162,-83.975,22466.275441
1 Jan 2020 01:47:59.000,89.356,-84.257,22418.421990
1 Jan 2020 01:48:29.000,85.163,-84.518,22376.589407
1 Jan 2020 01:48:59.000,80.564,-84.753,22340.847919
1 Jan 2020 01:49:29.000,75.555,-84.958,22311.259383
1 Jan 2020 01:49:59.000,70.153,-85.126,22287.876672
1 Jan 2020 01:50:29.000,64.407,-85.254,22270.743682
1 Jan 2020 01:50:59.000,58.393,-85.338,22259.895076
1 Jan 2020 01:51:29.000,52.222,-85.373,22255.356131
1 Jan 2020 01:51:59.000,46.022,-85.359,22257.142614
1 Jan 2020 01:52:29.000,39.925,-85.296,22265.260711
1 Jan 2020 01:52:59.000,34.050,-85.187,22279.707011
1 Jan 2020 01:53:29.000,28.492,-85.035,22300.468517
1 Jan 2020 01:53:59.000,23.313,-84.844,22327.522773
1 Jan 2020 01:54:29.000,18.544,-84.620,22360.837705
1 Jan 2020 01:54:59.000,14.190,-84.368,22400.372141
1 Jan 2020 01:55:29.000,10.238,-84.092,22446.075758
1 Jan 2020 01:55:59.000,6.662,-83.797,22497.889358
1 Jan 2020 01:56:29.000,3.433,-83.488,22555.745254
1 Jan 2020 01:56:59.000,0.515,-83.168,22619.567073
1 Jan 2020 01:57:29.000,357.876,-82.839,22689.270786
1 Jan 2020 01:57:59.000,355.485,-82.505,22764.764595
1 Jan 2020 01:58:29.000,353.314,-82.168,22845.949411
1 Jan 2020 01:58:59.000,351.337,-81.829,22932.719249
1 Jan 2020 01:59:29.000,349.532,-81.492,23024.961831
1 Jan 2020 01:59:59.000,347.879,-81.156,23122.558204
1 Jan 2020 02:00:29.000,346.361,-80.824,23225.384353
1 Jan 2020 02:00:59.000,344.962,-80.496,23333.310854
1 Jan 2020 02:01:29.000,343.670,-80.174,23446.203496
1 Jan 2020 02:01:59.000,342.473,-79.859,23563.923720
1 Jan 2020 02:02:29.000,341.361,-79.550,23686.329044
1 Jan 2020 02:02:59.000,340.325,-79.250,23813.273759
1 Jan 2020 02:03:29.000,339.359,-78.958,23944.608279
1 Jan 2020 02:03:59.000,338.455,-78.675,24080.181126
1 Jan 2020 02:04:29.000,337.608,-78.401,24219.838277
1 Jan 2020 02:04:59.000,336.812,-78.138,24363.423804
1 Jan 2020 02:05:29.000,336.062,-77.884,24510.780233
1 Jan 2020 02:05:59.000,335.356,-77.641,24661.748892
1 Jan 2020 02:06:29.000,334.688,-77.408,24816.170241
1 Jan 2020 02:06:59.000,334.057,-77.187,24973.884181
1 Jan 2020 02:07:29.000,333.458,-76.976,25134.730661
1 Jan 2020 02:07:59.000,332.890,-76.776,25298.548716
1 Jan 2020 02:08:29.000,332.351,-76.588,25465.178565
1 Jan 2020 02:08:59.000,331.837,-76.410,25634.460633
1 Jan 2020 02:09:29.000,331.348,-76.244,25806.236069
1 Jan 2020 02:09:59.000,330.882,-76.089,25980.346951
1 Jan 2020 02:10:29.000,330.437,-75.946,26156.636476
1 Jan 2020 02:10:59.000,330.011,-75.813,26334.949125
1 Jan 2020 02:11:29.000,329.605,-75.692,26515.130820
1 Jan 2020 02:11:59.000,329.215,-75.582,26697.029061
1 Jan 2020 02:12:29.000,328.842,-75.483,26880.493051
1 Jan 2020 02:12:59.000,328.485,-75.395,27065.373810
1 Jan 2020 02:13:29.000,328.142,-75.317,27251.524268
1 Jan 2020 02:13:59.000,327.813,-75.250,27438.799355
1 Jan 2020 02:14:29.000,327.497,-75.194,27627.056077
1 Jan 2020 02:14:59.000,327.193,-75.148,27816.153576
1 Jan 2020 02:15:29.000,326.901,-75.113,28005.953190
1 Jan 2020 02:15:59.000,326.621,-75.087,28196.318495
1 Jan 2020 02:16:29.000,326.351,-75.072,28387.115345
1 Jan 2020 02:16:59.000,326.091,-75.066,28578.211904
1 Jan 2020 02:17:01.341,326.071,-75.066,28593.133667
1 Jan 2020 03:29:18.911,147.834,-75.071,28595.925034
1 Jan 2020 03:29:48.000,148.187,-75.075,28413.295672
1 Jan 2020 03:30:18.000,148.563,-75.089,28225.308738
1 Jan 2020 03:30:48.000,148.950,-75.113,28037.819426
1 Jan 2020 03:31:18.000,149.350,-75.146,27850.959809
1 Jan 2020 03:31:48.000,149.763,-75.189,27664.864048
1 Jan 2020 03:32:18.000,150.189,-75.242,27479.668348
1 Jan 2020 03:32:48.000,150.631,-75.306,27295.510908
1 Jan 2020 03:33:18.000,151.088,-75.379,27112.531854
1 Jan 2020 03:33:48.000,151.562,-75.463,26930.873174
1 Jan 2020 03:34:18.000,152.053,-75.558,26750.678633
1 Jan 2020 03:34:48.000,152.563,-75.662,26572.093685
1 Jan 2020 03:35:18.000,153.092,-75.777,26395.265364
1 Jan 2020 03:35:48.000,153.643,-75.903,26220.342175
1 Jan 2020 03:36:18.000,154.217,-76.040,26047.473962
1 Jan 2020 03:36:48.000,154.814,-76.186,25876.811764
1 Jan 2020 03:37:18.000,155.438,-76.344,25708.507666
1 Jan 2020 03:37:48.000,156.089,-76.512,25542.714619
1 Jan 2020 03:38:18.000,156.770,-76.690,25379.585932
1 Jan 2020 03:38:48.000,157.483,-76.878,25219.276387
1 Jan 2020 03:39:18.000,158.230,-77.077,25061.940034
1 Jan 2020 03:39:48.000,159.015,-77.286,24907.731286
1 Jan 2020 03:40:18.000,159.840,-77.504,24756.804335
1 Jan 2020 03:40:48.000,160.709,-77.732,24609.312883
1 Jan 2020 03:41:18.000,161.625,-77.969,24465.409863
1 Jan 2020 03:41:48.000,162.592,-78.215,24325.247130
1 Jan 2020 03:42:18.000,163.616,-78.470,24188.974891
1 Jan 2020 03:42:48.000,164.701,-78.732,24056.742428
1 Jan 2020 03:43:18.000,165.853,-79.002,23928.696156
1 Jan 2020 03:43:48.000,167.079,-79.279,23804.980336
1 Jan 2020 03:44:18.000,168.385,-79.562,23685.736438
1 Jan 2020 03:44:48.000,169.780,-79.851,23571.102757
1 Jan 2020 03:45:18.000,171.272,-80.144,23461.214030
1 Jan 2020 03:45:48.000,172.872,-80.441,23356.200809
1 Jan 2020 03:46:18.000,174.589,-80.741,23256.189982
1 Jan 2020 03:46:48.000,176.438,-81.041,23161.302979
1 Jan 2020 03:47:18.000,178.430,-81.342,23071.656311
1 Jan 2020 03:47:48.000,180.580,-81.641,22987.360936
1 Jan 2020 03:48:18.000,182.903,-81.936,22908.521868
1 Jan 2020 03:48:48.000,185.417,-82.226,22835.237642
1 Jan 2020 03:49:18.000,188.138,-82.508,22767.600588
1 Jan 2020 03:49:48.000,191.083,-82.781,22705.695493
1 Jan 2020 03:50:18.000,194.266,-83.040,22649.599943
1 Jan 2020 03:50:48.000,197.702,-83.284,22599.383839
1 Jan 2020 03:51:18.000,201.398,-83.510,22555.109112
1 Jan 2020 03:51:48.000,205.358,-83.713,22516.829374
1 Jan 2020 03:52:18.000,209.575,-83.891,22484.590078
1 Jan 2020 03:52:48.000,214.032,-84.040,22458.427726
1 Jan 2020 03:53:18.000,218.699,-84.157,22438.370124
1 Jan 2020 03:53:48.000,223.535,-84.240,22424.436155
1 Jan 2020 03:54:18.000,228.484,-84.288,22416.635673
1 Jan 2020 03:54:48.000,233.484,-84.298,22414.969558
1 Jan 2020 03:55:18.000,238.468,-84.270,22419.429550
1 Jan 2020 03:55:48.000,243.371,-84.206,22429.998404
1 Jan 2020 03:56:18.000,248.134,-84.107,22446.649935
1 Jan 2020 03:56:48.000,252.709,-83.976,22469.349165
1 Jan 2020 03:57:18.000,257.061,-83.814,22498.052342
1 Jan 2020 03:57:48.000,261.167,-83.626,22532.707315
1 Jan 2020 03:58:18.000,265.015,-83.414,22573.253645
1 Jan 2020 03:58:48.000,268.606,-83.183,22619.622877
1 Jan 2020 03:59:18.000,271.945,-82.935,22671.738833
1 Jan 2020 03:59:48.000,275.043,-82.672,22729.518034
1 Jan 2020 04:00:18.000,277.915,-82.399,22792.869575
1 Jan 2020 04:00:48.000,280.577,-82.117,22861.696154
1 Jan 2020 04:01:18.000,283.047,-81.829,22935.894002
1 Jan 2020 04:01:48.000,285.340,-81.537,23015.353382
1 Jan 2020 04:02:18.000,287.474,-81.242,23099.958980
1 Jan 2020 04:02:48.000,289.462,-80.947,23189.590480
1 Jan 2020 04:03:18.000,291.318,-80.652,23284.122315
1 Jan 2020 04:03:48.000,293.056,-80.360,23383.425050
1 Jan 2020 04:04:18.000,294.687,-80.070,23487.365153
1 Jan 2020 04:04:48.000,296.221,-79.785,23595.805560
1 Jan 2020 04:05:18.000,297.668,-79.504,23708.606077
1 Jan 2020 04:05:48.000,299.035,-79.229,23825.623772
1 Jan 2020 04:06:18.000,300.332,-78.960,23946.713357
1 Jan 2020 04:06:48.000,301.563,-78.699,24071.727814
1 Jan 2020 04:07:18.000,302.737,-78.444,24200.517746
1 Jan 2020 04:07:48.000,303.857,-78.198,24332.933219
1 Jan 2020 04:08:18.000,304.928,-77.960,24468.823100
1 Jan 2020 04:08:48.000,305.956,-77.731,24608.035613
1 Jan 2020 04:09:18.000,306.944,-77.510,24750.418640
1 Jan 2020 04:09:48.000,307.896,-77.299,24895.819994
1 Jan 2020 04:10:18.000,308.815,-77.097,25044.087682
1 Jan 2020 04:10:48.000,309.704,-76.904,25195.070151
1 Jan 2020 04:11:18.000,310.566,-76.721,25348.616514
1 Jan 2020 04:11:48.000,311.402,-76.548,25504.576760
1 Jan 2020 04:12:18.000,312.216,-76.385,25662.801948
1 Jan 2020 04:12:48.000,313.009,-76.231,25823.144687
1 Jan 2020 04:13:18.000,313.783,-76.088,25985.458088
1 Jan 2020 04:13:48.000,314.540,-75.954,26149.597720
1 Jan 2020 04:14:18.000,315.281,-75.829,26315.420542
1 Jan 2020 04:14:48.000,316.009,-75.715,26482.785317
1 Jan 2020 04:15:18.000,316.723,-75.610,26651.552722
1 Jan 2020 04:15:48.000,317.426,-75.515,26821.585439
1 Jan 2020 04:16:18.000,318.119,-75.429,26992.748235
1 Jan 2020 04:16:48.000,318.802,-75.353,27164.908037
1 Jan 2020 04:17:18.000,319.477,-75.286,27337.933987
1 Jan 2020 04:17:48.000,320.145,-75.228,27511.697500
1 Jan 2020 04:18:18.000,320.806,-75.179,27686.072298
1 Jan 2020 04:18:48.000,321.462,-75.139,27860.934454
1 Jan 2020 04:19:18.000,322.113,-75.108,28036.162408
1 Jan 2020 04:19:48.000,322.760,-75.086,28211.636997
1 Jan 2020 04:20:18.000,323.404,-75.071,28387.241463
1 Jan 2020 04:20:48.000,324.045,-75.066,28562.861462
1 Jan 2020 04:20:53.993,324.173,-75.066,28597.937543
1 Jan 2020 05:37:30.488,178.490,-75.075,28604.025309
1 Jan 2020 05:38:00.000,179.474,-75.078,28460.044183
1 Jan 2020 05:38:30.000,180.486,-75.086,28314.361252
1 Jan 2020 05:39:00.000,181.509,-75.100,28169.452501
1 Jan 2020 05:39:30.000,182.545,-75.120,28025.408642
1 Jan 2020 05:40:00.000,183.594,-75.146,27882.321110
1 Jan 2020 05:40:30.000,184.657,-75.177,27740.282014
1 Jan 2020 05:41:00.000,185.735,-75.213,27599.384087
1 Jan 2020 05:41:30.000,186.829,-75.255,27459.720627
1 Jan 2020 05:42:00.000,187.940,-75.303,27321.385436
1 Jan 2020 05:42:30.000,189.069,-75.356,27184.472756
1 Jan 2020 05:43:00.000,190.216,-75.415,27049.077197
1 Jan 2020 05:43:30.000,191.382,-75.478,26915.293660
1 Jan 2020 05:44:00.000,192.569,-75.547,26783.217260
1 Jan 2020 05:44:30.000,193.778,-75.621,26652.943237
1 Jan 2020 05:45:00.000,195.009,-75.700,26524.566865
1 Jan 2020 05:45:30.000,196.263,-75.784,26398.183359
1 Jan 2020 05:46:00.000,197.543,-75.872,26273.887768
1 Jan 2020 05:46:30.000,198.848,-75.965,26151.774875
1 Jan 2020 05:47:00.000,200.181,-76.061,26031.938819
1 Jan 2020 05:47:30.000,201.541,-76.162,25914.474021
1 Jan 2020 05:48:00.000,202.931,-76.267,25799.473495
1 Jan 2020 05:48:30.000,204.352,-76.374,25687.029767
1 Jan 2020 05:49:00.000,205.805,-76.485,25577.234483
1 Jan 2020 05:49:30.000,207.292,-76.599,25470.178267
1 Jan 2020 05:50:00.000,208.812,-76.716,25365.950583
1 Jan 2020 05:50:30.000,210.369,-76.834,25264.639590
1 Jan 2020 05:51:00.000,211.962,-76.954,25166.331992
1 Jan 2020 05:51:30.000,213.594,-77.076,25071.112883
1 Jan 2020 05:52:00.000,215.265,-77.199,24979.065409
1 Jan 2020 05:52:30.000,216.976,-77.322,24890.271372
1 Jan 2020 05:53:00.000,218.729,-77.445,24804.809913
1 Jan 2020 05:53:30.000,220.524,-77.567,24722.758133
1 Jan 2020 05:54:00.000,222.362,-77.689,24644.190736
1 Jan 2020 05:54:30.000,224.244,-77.809,24569.179869
1 Jan 2020 05:55:00.000,226.169,-77.927,24497.794964
1 Jan 2020 05:55:30.000,228.140,-78.042,24430.102581
1 Jan 2020 05:56:00.000,230.154,-78.155,24366.166129
1 Jan 2020 05:56:30.000,232.213,-78.263,24306.046230
1 Jan 2020 05:57:00.000,234.315,-78.367,24249.799786
1 Jan 2020 05:57:30.000,236.459,-78.467,24197.480373
1 Jan 2020 05:58:00.000,238.645,-78.561,24149.137970
1 Jan 2020 05:58:30.000,240.871,-78.649,24104.818829
1 Jan 2020 05:59:00.000,243.135,-78.730,24064.565359
1 Jan 2020 05:59:30.000,245.434,-78.804,24028.416011
1 Jan 2020 06:00:00.000,247.767,-78.871,23996.405106
1 Jan 2020 06:00:30.000,250.129,-78.930,23968.563032
1 Jan 2020 06:01:00.000,252.517,-78.981,23944.915713
1 Jan 2020 06:01:30.000,254.928,-79.023,23925.484849
1 Jan 2020 06:02:00.000,257.357,-79.056,23910.287772
1 Jan 2020 06:02:30.000,259.800,-79.080,23899.337402
1 Jan 2020 06:03:00.000,262.253,-79.095,23892.642212
1 Jan 2020 06:03:30.000,264.711,-79.100,23890.206203
1 Jan 2020 06:04:00.000,267.169,-79.096,23892.028902
1 Jan 2020 06:04:30.000,269.623,-79.083,23898.105353
1 Jan 2020 06:05:00.000,272.067,-79.060,23908.426136
1 Jan 2020 06:05:30.000,274.498,-79.028,23922.977401
1 Jan 2020 06:06:00.000,276.910,-78.987,23941.740910
1 Jan 2020 06:06:30.000,279.301,-78.937,23964.694089
1 Jan 2020 06:07:00.000,281.666,-78.879,23991.810090
1 Jan 2020 06:07:30.000,284.002,-78.814,24023.057873
1 Jan 2020 06:08:00.000,286.305,-78.741,24058.402372
1 Jan 2020 06:08:30.000,288.574,-78.660,24097.804282
1 Jan 2020 06:09:00.000,290.805,-78.574,24141.220620
1 Jan 2020 06:09:30.000,292.997,-78.481,24188.604551
1 Jan 2020 06:10:00.000,295.148,-78.383,24239.905583
1 Jan 2020 06:10:30.000,297.257,-78.280,24295.069697
1 Jan 2020 06:11:00.000,299.324,-78.173,24354.039492
1 Jan 2020 06:11:30.000,301.347,-78.062,24416.754323
1 Jan 2020 06:12:00.000,303.326,-77.948,24483.150457
1 Jan 2020 06:12:30.000,305.262,-77.831,24553.161383
1 Jan 2020 06:13:00.000,307.155,-77.713,24626.717343
1 Jan 2020 06:13:30.000,309.005,-77.592,24703.746418
1 Jan 2020 06:14:00.000,310.812,-77.471,24784.174080
1 Jan 2020 06:14:30.000,312.578,-77.349,24867.923506
1 Jan 2020 06:15:00.000,314.304,-77.227,24954.915735
1 Jan 2020 06:15:30.000,315.990,-77.106,25045.069837
1 Jan 2020 06:16:00.000,317.637,-76.985,25138.303065
1 Jan 2020 06:16:30.000,319.247,-76.866,25234.531021
1 Jan 2020 06:17:00.000,320.821,-76.748,25333.667805
1 Jan 2020 06:17:30.000,322.360,-76.632,25435.626172
1 Jan 2020 06:18:00.000,323.866,-76.519,25540.317902
1 Jan 2020 06:18:30.000,325.339,-76.408,25647.653061
1 Jan 2020 06:19:00.000,326.781,-76.301,25757.541461
1 Jan 2020 06:19:30.000,328.193,-76.196,25869.891923
1 Jan 2020 06:20:00.000,329.576,-76.096,25984.612628
1 Jan 2020 06:20:30.000,330.932,-75.999,26101.611239
1 Jan 2020 06:21:00.000,332.261,-75.906,26220.795027
1 Jan 2020 06:21:30.000,333.566,-75.817,26342.070983
1 Jan 2020 06:22:00.000,334.846,-75.733,26465.345933
1 Jan 2020 06:22:30.000,336.104,-75.653,26590.526641
1 Jan 2020 06:23:00.000,337.340,-75.578,26717.519908
1 Jan 2020 06:23:30.000,338.555,-75.507,26846.232670
1 Jan 2020 06:24:00.000,339.751,-75.442,26976.572081
1 Jan 2020 06:24:30.000,340.928,-75.382,27108.445600
1 Jan 2020 06:25:00.000,342.087,-75.327,27241.761072
1 Jan 2020 06:25:30.000,343.229,-75.277,27376.426793
1 Jan 2020 06:26:00.000,344.355,-75.232,27512.351586
1 Jan 2020 06:26:30.000,345.467,-75.193,27649.444858
1 Jan 2020 06:27:00.000,346.564,-75.159,27787.616665
1 Jan 2020 06:27:30.000,347.648,-75.130,27926.777757
1 Jan 2020 06:28:00.000,348.719,-75.107,28066.839636
1 Jan 2020 06:28:30.000,349.778,-75.089,28207.714593
1 Jan 2020 06:29:00.000,350.827,-75.077,28349.315758
1 Jan 2020 06:29:30.000,351.865,-75.070,28491.557130
1 Jan 2020 06:29:54.092,352.691,-75.068,28606.193367
1 Jan 2020 07:47:48.812,212.866,-75.075,28610.366279
1 Jan 2020 07:48:18.000,213.627,-75.078,28448.791104
1 Jan 2020 07:48:48.000,214.414,-75.089,28282.773139
1 Jan 2020 07:49:18.000,215.205,-75.107,28116.914620
1 Jan 2020 07:49:48.000,216.002,-75.133,27951.323117
1 Jan 2020 07:50:18.000,216.807,-75.166,27786.108320
1 Jan 2020 07:50:48.000,217.618,-75.208,27621.382023
1 Jan 2020 07:51:18.000,218.439,-75.257,27457.258097
1 Jan 2020 07:51:48.000,219.269,-75.314,27293.852469
1 Jan 2020 07:52:18.000,220.109,-75.380,27131.283081
1 Jan 2020 07:52:48.000,220.961,-75.453,26969.669851
1 Jan 2020 07:53:18.000,221.826,-75.535,26809.134624
1 Jan 2020 07:53:48.000,222.705,-75.625,26649.801114
1 Jan 2020 07:54:18.000,223.599,-75.724,26491.794835
1 Jan 2020 07:54:48.000,224.510,-75.830,26335.243031
1 Jan 2020 07:55:18.000,225.439,-75.945,26180.274589
1 Jan 2020 07:55:48.000,226.388,-76.069,26027.019938
1 Jan 2020 07:56:18.000,227.358,-76.200,25875.610953
1 Jan 2020 07:56:48.000,228.352,-76.340,25726.180828
1 Jan 2020 07:57:18.000,229.371,-76.488,25578.863950
1 Jan 2020 07:57:48.000,230.417,-76.644,25433.795759
1 Jan 2020 07:58:18.000,231.493,-76.807,25291.112323
1 Jan 2020 07:58:48.000,232.601,-76.979,25150.951240
1 Jan 2020 07:59:18.000,233.743,-77.158,25013.449848
1 Jan 2020 07:59:48.000,234.924,-77.344,24878.746104
1 Jan 2020 08:00:18.000,236.145,-77.537,24746.978109
1 Jan 2020 08:00:48.000,237.410,-77.736,24618.283879
1 Jan 2020 08:01:18.000,238.722,-77.942,24492.801113
1 Jan 2020 08:01:48.000,240.087,-78.154,24370.666937
1 Jan 2020 08:02:18.000,241.507,-78.371,24252.017645
1 Jan 2020 08:02:48.000,242.987,-78.593,24136.988205
1 Jan 2020 08:03:18.000,244.533,-78.819,24025.712829
1 Jan 2020 08:03:48.000,246.149,-79.049,23918.323373
1 Jan 2020 08:04:18.000,247.841,-79.281,23814.949897
1 Jan 2020 08:04:48.000,249.615,-79.516,23715.720128
1 Jan 2020 08:05:18.000,251.477,-79.751,23620.759124
1 Jan 2020 08:05:48.000,253.433,-79.986,23530.188942
1 Jan 2020 08:06:18.000,255.490,-80.221,23444.128143
1 Jan 2020 08:06:48.000,257.655,-80.453,23362.692065
1 Jan 2020 08:07:18.000,259.934,-80.681,23285.991537
1 Jan 2020 08:07:48.000,262.335,-80.904,23214.133167
1 Jan 2020 08:08:18.000,264.861,-81.121,23147.218843
1 Jan 2020 08:08:48.000,267.519,-81.330,23085.345391
1 Jan 2020 08:09:18.000,270.313,-81.529,23028.604159
1 Jan 2020 08:09:48.000,273.244,-81.716,22977.081070
1 Jan 2020 08:10:18.000,276.313,-81.889,22930.855739
1 Jan 2020 08:10:48.000,279.517,-82.047,22890.001574
1 Jan 2020 08:11:18.000,282.850,-82.188,22854.585408
1 Jan 2020 08:11:48.000,286.304,-82.310,22824.667237
1 Jan 2020 08:12:18.000,289.864,-82.412,22800.299967
1 Jan 2020 08:12:48.000,293.515,-82.492,22781.529333
1 Jan 2020 08:13:18.000,297.236,-82.548,22768.393504
1 Jan 2020 08:13:48.000,301.004,-82.580,22760.923084
1 Jan 2020 08:14:18.000,304.794,-82.588,22759.140953
1 Jan 2020 08:14:48.000,308.579,-82.571,22763.062163
1 Jan 2020 08:15:18.000,312.334,-82.529,22772.693928
1 Jan 2020 08:15:48.000,316.032,-82.464,22788.035433
1 Jan 2020 08:16:18.000,319.652,-82.375,22809.078052
1 Jan 2020 08:16:48.000,323.174,-82.264,22835.805249
1 Jan 2020 08:17:18.000,326.581,-82.133,22868.192676
1 Jan 2020 08:17:48.000,329.862,-81.984,22906.208270
1 Jan 2020 08:18:18.000,333.008,-81.817,22949.812487
1 Jan 2020 08:18:48.000,336.014,-81.635,22998.958023
1 Jan 2020 08:19:18.000,338.878,-81.440,23053.590633
1 Jan 2020 08:19:48.000,341.599,-81.233,23113.648924
1 Jan 2020 08:20:18.000,344.182,-81.016,23179.064684
1 Jan 2020 08:20:48.000,346.629,-80.792,23249.763137
1 Jan 2020 08:21:18.000,348.946,-80.561,23325.663375
1 Jan 2020 08:21:48.000,351.139,-80.326,23406.677993
1 Jan 2020 08:22:18.000,353.214,-80.087,23492.714352
1 Jan 2020 08:22:48.000,355.178,-79.846,23583.674261
1 Jan 2020 08:23:18.000,357.038,-79.604,23679.454454
1 Jan 2020 08:23:48.000,358.799,-79.362,23779.946912
1 Jan 2020 08:24:18.000,0.470,-79.122,23885.039202
1 Jan 2020 08:24:48.000,2.054,-78.884,23994.615043
1 Jan 2020 08:25:18.000,3.560,-78.649,24108.553711
1 Jan 2020 08:25:48.000,4.991,-78.418,24226.731751
1 Jan 2020 08:26:18.000,6.353,-78.192,24349.022398
1 Jan 2020 08:26:48.000,7.651,-77.971,24475.296122
1 Jan 2020 08:27:18.000,8.889,-77.756,24605.420947
1 Jan 2020 08:27:48.000,10.071,-77.548,24739.262757
1 Jan 2020 08:28:18.000,11.201,-77.346,24876.685597
1 Jan 2020 08:28:48.000,12.283,-77.151,25017.551959
1 Jan 2020 08:29:18.000,13.320,-76.964,25161.723354
1 Jan 2020 08:29:48.000,14.314,-76.785,25309.059405
1 Jan 2020 08:30:18.000,15.270,-76.614,25459.419849
1 Jan 2020 08:30:48.000,16.188,-76.452,25612.663619
1 Jan 2020 08:31:18.000,17.072,-76.298,25768.649352
1 Jan 2020 08:31:48.000,17.924,-76.153,25927.235611
1 Jan 2020 08:32:18.000,18.746,-76.017,26088.281080
1 Jan 2020 08:32:48.000,19.539,-75.890,26251.644751
1 Jan 2020 08:33:18.000,20.306,-75.772,26417.186102
1 Jan 2020 08:33:48.000,21.048,-75.663,26584.765255
1 Jan 2020 08:34:18.000,21.767,-75.564,26754.243127
1 Jan 2020 08:34:48.000,22.463,-75.474,26925.481568
1 Jan 2020 08:35:18.000,23.139,-75.393,27098.343486
1 Jan 2020 08:35:48.000,23.795,-75.321,27272.692958
1 Jan 2020 08:36:18.000,24.433,-75.259,27448.395343
1 Jan 2020 08:36:48.000,25.054,-75.205,27625.317369
1 Jan 2020 08:37:18.000,25.658,-75.161,27803.327218
1 Jan 2020 08:37:48.000,26.247,-75.126,27982.294606
1 Jan 2020 08:38:18.000,26.821,-75.100,28162.090847
1 Jan 2020 08:38:48.000,27.382,-75.083,28342.588911
1 Jan 2020 08:39:18.000,27.929,-75.074,28523.663481
1 Jan 2020 08:39:32.444,28.188,-75.073,28611.015972
1 Jan 2020 09:52:03.161,216.282,-75.072,28609.824818
1 Jan 2020 09:52:33.000,216.217,-75.076,28417.176450
1 Jan 2020 09:53:03.000,216.145,-75.091,28223.641446
1 Jan 2020 09:53:33.000,216.064,-75.116,28030.394836
1 Jan 2020 09:54:03.000,215.974,-75.152,27837.571503
1 Jan 2020 09:54:33.000,215.877,-75.198,27645.308852
1 Jan 2020 09:55:03.000,215.770,-75.255,27453.746785
1 Jan 2020 09:55:33.000,215.655,-75.323,27263.027670
1 Jan 2020 09:56:03.000,215.529,-75.402,27073.296297
1 Jan 2020 09:56:33.000,215.394,-75.492,26884.699830
1 Jan 2020 09:57:03.000,215.249,-75.594,26697.387743
1 Jan 2020 09:57:33.000,215.092,-75.707,26511.511749
1 Jan 2020 09:58:03.000,214.924,-75.832,26327.225715
1 Jan 2020 09:58:33.000,214.744,-75.969,26144.685567
1 Jan 2020 09:59:03.000,214.551,-76.118,25964.049176
1 Jan 2020 09:59:33.000,214.345,-76.280,25785.476232
1 Jan 2020 10:00:03.000,214.124,-76.453,25609.128106
1 Jan 2020 10:00:33.000,213.887,-76.638,25435.167689
1 Jan 2020 10:01:03.000,213.634,-76.836,25263.759217
1 Jan 2020 10:01:33.000,213.363,-77.046,25095.067742
1 Jan 2020 10:02:03.000,213.073,-77.269,24929.260275
1 Jan 2020 10:02:33.000,212.762,-77.503,24766.503508
1 Jan 2020 10:03:03.000,212.428,-77.751,24606.964939
1 Jan 2020 10:03:33.000,212.070,-78.010,24450.812246
1 Jan 2020 10:04:03.000,211.685,-78.281,24298.213002
1 Jan 2020 10:04:33.000,211.270,-78.564,24149.334360
1 Jan 2020 10:05:03.000,210.823,-78.860,24004.342719
1 Jan 2020 10:05:33.000,210.339,-79.166,23863.403094
1 Jan 2020 10:06:03.000,209.816,-79.485,23726.679851
1 Jan 2020 10:06:33.000,209.247,-79.814,23594.334644
1 Jan 2020 10:07:03.000,208.627,-80.154,23466.527124
1 Jan 2020 10:07:33.000,207.950,-80.504,23343.414233
1 Jan 2020 10:08:03.000,207.208,-80.864,23225.149764
1 Jan 2020 10:08:33.000,206.391,-81.234,23111.883694
1 Jan 2020 10:09:03.000,205.488,-81.612,23003.762573
1 Jan 2020 10:09:33.000,204.486,-81.999,22900.927765
1 Jan 2020 10:10:03.000,203.366,-82.392,22803.515837
1 Jan 2020 10:10:33.000,202.109,-82.792,22711.657869
1 Jan 2020 10:11:03.000,200.689,-83.198,22625.478971
1 Jan 2020 10:11:33.000,199.073,-83.607,22545.097648
1 Jan 2020 10:12:03.000,197.219,-84.018,22470.626037
1 Jan 2020 10:12:33.000,195.076,-84.430,22402.168394
1 Jan 2020 10:13:03.000,192.574,-84.840,22339.821388
1 Jan 2020 10:13:33.000,189.627,-85.245,22283.673511
1 Jan 2020 10:14:03.000,186.120,-85.641,22233.804602
1 Jan 2020 10:14:33.000,181.909,-86.023,22190.285890
1 Jan 2020 10:15:03.000,176.814,-86.383,22153.179063
1 Jan 2020 10:15:33.000,170.628,-86.714,22122.536405
1 Jan 2020 10:16:03.000,163.147,-87.001,22098.400453
1 Jan 2020 10:16:33.000,154.246,-87.230,22080.803755
1 Jan 2020 10:17:03.000,144.016,-87.385,22069.768872
1 Jan 2020 10:17:33.000,132.887,-87.450,22065.308024
1 Jan 2020 10:18:03.000,121.607,-87.419,22067.423206
1 Jan 2020 10:18:33.000,110.983,-87.295,22076.106132
1 Jan 2020 10:19:03.000,101.574,-87.092,22091.338305
1 Jan 2020 10:19:33.000,93.579,-86.824,22113.090986
1 Jan 2020 10:20:03.000,86.934,-86.509,22141.325488
1 Jan 2020 10:20:33.000,81.451,-86.159,22175.993260
1 Jan 2020 10:21:03.000,76.917,-85.785,22217.036137
1 Jan 2020 10:21:33.000,73.142,-85.396,22264.386694
1 Jan 2020 10:22:03.000,69.969,-84.995,22317.968193
1 Jan 2020 10:22:33.000,67.274,-84.589,22377.695445
1 Jan 2020 10:23:03.000,64.960,-84.179,22443.474845
1 Jan 2020 10:23:33.000,62.954,-83.770,22515.204851
1 Jan 2020 10:24:03.000,61.196,-83.362,22592.776408
1 Jan 2020 10:24:33.000,59.643,-82.958,22676.073570
1 Jan 2020 10:25:03.000,58.259,-82.559,22764.973255
1 Jan 2020 10:25:33.000,57.015,-82.165,22859.346749
1 Jan 2020 10:26:03.000,55.890,-81.779,22959.059510
1 Jan 2020 10:26:33.000,54.865,-81.400,23063.971813
1 Jan 2020 10:27:03.000,53.925,-81.030,23173.939232
1 Jan 2020 10:27:33.000,53.058,-80.670,23288.813118
1 Jan 2020 10:28:03.000,52.254,-80.318,23408.441328
1 Jan 2020 10:28:33.000,51.505,-79.977,23532.667680
1 Jan 2020 10:29:03.000,50.803,-79.647,23661.333899
1 Jan 2020 10:29:33.000,50.142,-79.327,23794.279073
1 Jan 2020 10:30:03.000,49.517,-79.018,23931.340312
1 Jan 2020 10:30:33.000,48.925,-78.721,24072.353161
1 Jan 2020 10:31:03.000,48.360,-78.435,24217.151980
1 Jan 2020 10:31:33.000,47.820,-78.162,24365.570317
1 Jan 2020 10:32:03.000,47.303,-77.900,24517.441251
1 Jan 2020 10:32:33.000,46.804,-77.649,24672.598026
1 Jan 2020 10:33:03.000,46.323,-77.411,24830.873133
1 Jan 2020 10:33:33.000,45.857,-77.185,24992.100423
1 Jan 2020 10:34:03.000,45.405,-76.971,25156.114152
1 Jan 2020 10:34:33.000,44.964,-76.769,25322.749536
1 Jan 2020 10:35:03.000,44.534,-76.579,25491.842963
1 Jan 2020 10:35:33.000,44.114,-76.401,25663.232204
1 Jan 2020 10:36:03.000,43.701,-76.235,25836.756594
1 Jan 2020 10:36:33.000,43.296,-76.080,26012.257199
1 Jan 2020 10:37:03.000,42.897,-75.938,26189.576967
1 Jan 2020 10:37:33.000,42.504,-75.806,26368.560859
1 Jan 2020 10:38:03.000,42.115,-75.686,26549.055968
1 Jan 2020 10:38:33.000,41.730,-75.578,26730.911623
1 Jan 2020 10:39:03.000,41.348,-75.480,26913.979476
1 Jan 2020 10:39:33.000,40.968,-75.394,27098.113581
1 Jan 2020 10:40:03.000,40.591,-75.318,27283.170457
1 Jan 2020 10:40:33.000,40.215,-75.253,27469.009146
1 Jan 2020 10:41:03.000,39.840,-75.199,27655.491252
1 Jan 2020 10:41:33.000,39.465,-75.154,27842.480980
1 Jan 2020 10:42:03.000,39.090,-75.120,28029.845161
1 Jan 2020 10:42:33.000,38.715,-75.095,28217.453269
1 Jan 2020 10:43:03.000,38.338,-75.081,28405.177437
1 Jan 2020 10:43:33.000,37.961,-75.075,28592.892458
1 Jan 2020 10:43:35.464,37.930,-75.075,28608.303677
1 Jan 2020 11:58:04.089,194.315,-75.066,28602.851688
1 Jan 2020 11:58:34.000,193.445,-75.070,28444.316896
1 Jan 2020 11:59:04.000,192.560,-75.080,28286.039332
1 Jan 2020 11:59:34.000,191.662,-75.096,28128.597776
1 Jan 2020 12:00:04.000,190.749,-75.120,27972.096629
1 Jan 2020 12:00:34.000,189.821,-75.150,27816.641159
1 Jan 2020 12:01:04.000,188.877,-75.187,27662.337440
1 Jan 2020 12:01:34.000,187.915,-75.230,27509.292287
1 Jan 2020 12:02:04.000,186.936,-75.281,27357.613183
1 Jan 2020 12:02:34.000,185.937,-75.337,27207.408198
1 Jan 2020 12:03:04.000,184.918,-75.401,27058.785913
1 Jan 2020 12:03:34.000,183.878,-75.471,26911.855321
1 Jan 2020 12:04:04.000,182.816,-75.547,26766.725735
1 Jan 2020 12:04:34.000,181.730,-75.629,26623.506685
1 Jan 2020 12:05:04.000,180.620,-75.718,26482.307803
1 Jan 2020 12:05:34.000,179.483,-75.812,26343.238711
1 Jan 2020 12:06:04.000,178.319,-75.913,26206.408895
1 Jan 2020 12:06:34.000,177.125,-76.019,26071.927303
1 Jan 2020 12:07:04.000,175.902,-76.130,25939.903285
1 Jan 2020 12:07:34.000,174.647,-76.246,25810.444827
1 Jan 2020 12:08:04.000,173.358,-76.368,25683.659485
1 Jan 2020 12:08:34.000,172.035,-76.494,25559.653948
1 Jan 2020 12:09:04.000,170.674,-76.624,25438.533881
1 Jan 2020 12:09:34.000,169.275,-76.758,25320.403745
1 Jan 2020 12:10:04.000,167.836,-76.896,25205.366624
1 Jan 2020 12:10:34.000,166.355,-77.037,25093.524043
1 Jan 2020 12:11:04.000,164.831,-77.180,24984.975778
1 Jan 2020 12:11:34.000,163.260,-77.326,24879.819431
1 Jan 2020 12:12:04.000,161.643,-77.474,24778.151173
1 Jan 2020 12:12:34.000,159.976,-77.623,24680.064129
1 Jan 2020 12:13:04.000,158.258,-77.772,24585.649128
1 Jan 2020 12:13:34.000,156.488,-77.921,24494.994261
1 Jan 2020 12:14:04.000,154.663,-78.070,24408.184678
1 Jan 2020 12:14:34.000,152.784,-78.218,24325.302389
1 Jan 2020 12:15:04.000,150.847,-78.363,24246.426062
1 Jan 2020 12:15:34.000,148.853,-78.506,24171.630660
1 Jan 2020 12:16:04.000,146.801,-78.646,24100.987919
1 Jan 2020 12:16:34.000,144.691,-78.782,24034.565144
1 Jan 2020 12:17:04.000,142.522,-78.912,23972.425707
1 Jan 2020 12:17:34.000,140.295,-79.037,23914.628709
1 Jan 2020 12:18:04.000,138.011,-79.156,23861.228807
1 Jan 2020 12:18:34.000,135.672,-79.267,23812.276060
1 Jan 2020 12:19:04.000,133.279,-79.371,23767.815686
1 Jan 2020 12:19:34.000,130.837,-79.466,23727.888335
1 Jan 2020 12:20:04.000,128.347,-79.551,23692.529344
1 Jan 2020 12:20:34.000,125.814,-79.627,23661.769061
1 Jan 2020 12:21:04.000,123.243,-79.692,23635.632638
1 Jan 2020 12:21:34.000,120.639,-79.747,23614.139960
1 Jan 2020 12:22:04.000,118.008,-79.790,23597.305588
1 Jan 2020 12:22:34.000,115.355,-79.821,23585.138675
1 Jan 2020 12:23:04.000,112.689,-79.841,23577.643091
1 Jan 2020 12:23:34.000,110.015,-79.848,23574.817182
1 Jan 2020 12:24:04.000,107.340,-79.844,23576.653942
1 Jan 2020 12:24:34.000,104.672,-79.827,23583.140996
1 Jan 2020 12:25:04.000,102.017,-79.798,23594.260643
1 Jan 2020 12:25:34.000,99.382,-79.758,23609.989920
1 Jan 2020 12:26:04.000,96.772,-79.707,23630.300711
1 Jan 2020 12:26:34.000,94.194,-79.645,23655.159705
1 Jan 2020 12:27:04.000,91.653,-79.573,23684.528695
1 Jan 2020 12:27:34.000,89.153,-79.491,23718.364585
1 Jan 2020 12:28:04.000,86.697,-79.399,23756.619547
1 Jan 2020 12:28:34.000,84.291,-79.300,23799.241175
1 Jan 2020 12:29:04.000,81.935,-79.192,23846.172644
1 Jan 2020 12:29:34.000,79.632,-79.078,23897.352974
1 Jan 2020 12:30:04.000,77.383,-78.958,23952.716837
1 Jan 2020 12:30:34.000,75.190,-78.831,24012.195292
1 Jan 2020 12:31:04.000,73.053,-78.701,24075.715624
1 Jan 2020 12:31:34.000,70.971,-78.566,24143.201629
1 Jan 2020 12:32:04.000,68.944,-78.428,24214.573820
1 Jan 2020 12:32:34.000,66.972,-78.287,24289.749633
1 Jan 2020 12:33:04.000,65.053,-78.144,24368.643638
1 Jan 2020 12:33:34.000,63.186,-78.000,24451.167749
1 Jan 2020 12:34:04.000,61.371,-77.855,24537.231617
1 Jan 2020 12:34:34.000,59.604,-77.711,24626.742117
1 Jan 2020 12:35:04.000,57.885,-77.566,24719.604625
1 Jan 2020 12:35:34.000,56.212,-77.423,24815.722520
1 Jan 2020 12:36:04.000,54.583,-77.282,24914.997557
1 Jan 2020 12:36:34.000,52.996,-77.142,25017.330059
1 Jan 2020 12:37:04.000,51.450,-77.005,25122.619117
1 Jan 2020 12:37:34.000,49.943,-76.870,25230.762768
1 Jan 2020 12:38:04.000,48.472,-76.739,25341.658176
1 Jan 2020 12:38:34.000,47.036,-76.611,25455.201808
1 Jan 2020 12:39:04.000,45.634,-76.487,25571.289596
1 Jan 2020 12:39:34.000,44.263,-76.367,25689.817096
1 Jan 2020 12:40:04.000,42.923,-76.252,25810.679886
1 Jan 2020 12:40:34.000,41.610,-76.141,25933.772738
1 Jan 2020 12:41:04.000,40.325,-76.035,26058.991200
1 Jan 2020 12:41:34.000,39.066,-75.934,26186.230769
1 Jan 2020 12:42:04.000,37.831,-75.838,26315.387246
1 Jan 2020 12:42:34.000,36.618,-75.748,26446.356855
1 Jan 2020 12:43:04.000,35.427,-75.663,26579.036342
1 Jan 2020 12:43:34.000,34.256,-75.583,26713.323081
1 Jan 2020 12:44:04.000,33.105,-75.509,26849.115160
1 Jan 2020 12:44:34.000,31.971,-75.441,26986.311469
1 Jan 2020 12:45:04.000,30.854,-75.378,27124.811777
1 Jan 2020 12:45:34.000,29.753,-75.322,27264.516803
1 Jan 2020 12:46:04.000,28.667,-75.271,27405.328282
1 Jan 2020 12:46:34.000,27.594,-75.226,27547.149024
1 Jan 2020 12:47:04.000,26.535,-75.187,27689.882967
1 Jan 2020 12:47:34.000,25.487,-75.153,27833.435225
1 Jan 2020 12:48:04.000,24.451,-75.126,27977.712132
1 Jan 2020 12:48:34.000,23.425,-75.104,28122.621280
1 Jan 2020 12:49:04.000,22.408,-75.088,28268.071549
1 Jan 2020 12:49:34.000,21.400,-75.078,28413.973141
1 Jan 2020 12:50:04.000,20.401,-75.074,28560.237603
1 Jan 2020 12:50:12.254,20.127,-75.074,28600.533386
1 Jan 2020 14:09:23.839,154.752,-75.065,28595.075339
1 Jan 2020 14:09:53.000,153.832,-75.068,28447.738034
1 Jan 2020 14:10:23.000,152.879,-75.077,28296.382808
1 Jan 2020 14:10:53.000,151.918,-75.092,28145.346203
1 Jan 2020 14:11:23.000,150.949,-75.114,27994.722393
1 Jan 2020 14:11:53.000,149.971,-75.142,27844.607152
1 Jan 2020 14:12:23.000,148.983,-75.176,27695.097834
1 Jan 2020 14:12:53.000,147.984,-75.217,27546.293347
1 Jan 2020 14:13:23.000,146.973,-75.264,27398.294116
1 Jan 2020 14:13:53.000,145.950,-75.317,27251.202045
1 Jan 2020 14:14:23.000,144.912,-75.377,27105.120477
1 Jan 2020 14:14:53.000,143.859,-75.443,26960.154140
1 Jan 2020 14:15:23.000,142.791,-75.516,26816.409092
1 Jan 2020 14:15:53.000,141.705,-75.595,26673.992657
1 Jan 2020 14:16:23.000,140.601,-75.681,26533.013357
1 Jan 2020 14:16:53.000,139.477,-75.773,26393.580831
1 Jan 2020 14:17:23.000,138.332,-75.871,26255.805752
1 Jan 2020 14:17:53.000,137.165,-75.975,26119.799734
1 Jan 2020 14:18:23.000,135.974,-76.085,25985.675226
1 Jan 2020 14:18:53.000,134.756,-76.201,25853.545408
1 Jan 2020 14:19:23.000,133.512,-76.323,25723.524064
1 Jan 2020 14:19:53.000,132.239,-76.451,25595.725218
1 Jan 2020 14:20:23.000,130.935,-76.583,25470.263966
1 Jan 2020 14:20:53.000,129.598,-76.721,25347.254863
1 Jan 2020 14:21:23.000,128.226,-76.863,25226.812747
1 Jan 2020 14:21:53.000,126.817,-77.010,25109.052330
1 Jan 2020 14:22:23.000,125.369,-77.161,24994.088019
1 Jan 2020 14:22:53.000,123.880,-77.316,24882.033733
1 Jan 2020 14:23:23.000,122.348,-77.474,24773.002712
1 Jan 2020 14:23:53.000,120.769,-77.634,24667.107311
1 Jan 2020 14:24:23.000,119.141,-77.798,24564.458789
1 Jan 2020 14:24:53.000,117.463,-77.963,24465.166903
1 Jan 2020 14:25:23.000,115.731,-78.129,24369.340455
1 Jan 2020 14:25:53.000,113.942,-78.297,24277.085887
1 Jan 2020 14:26:23.000,112.096,-78.464,24188.507833
1 Jan 2020 14:26:53.000,110.188,-78.630,24103.708675
1 Jan 2020 14:27:23.000,108.217,-78.795,24022.788303
1 Jan 2020 14:27:53.000,106.180,-78.958,23945.843859
1 Jan 2020 14:28:23.000,104.077,-79.118,23872.969491
1 Jan 2020 14:28:53.000,101.905,-79.274,23804.255972
1 Jan 2020 14:29:23.000,99.664,-79.425,23739.790976
1 Jan 2020 14:29:53.000,97.352,-79.570,23679.658028
1 Jan 2020 14:30:23.000,94.971,-79.709,23623.936806
1 Jan 2020 14:30:53.000,92.520,-79.840,23572.702768
1 Jan 2020 14:31:23.000,90.002,-79.962,23526.026915
1 Jan 2020 14:31:53.000,87.418,-80.075,23483.975575
1 Jan 2020 14:32:23.000,84.773,-80.177,23446.610130
1 Jan 2020 14:32:53.000,82.071,-80.268,23413.987066
1 Jan 2020 14:33:23.000,79.316,-80.347,23386.157395
1 Jan 2020 14:33:53.000,76.517,-80.414,23363.166756
1 Jan 2020 14:34:23.000,73.679,-80.466,23345.055187
1 Jan 2020 14:34:53.000,70.811,-80.505,23331.856986
1 Jan 2020 14:35:23.000,67.923,-80.530,23323.600592
1 Jan 2020 14:35:53.000,65.023,-80.539,23320.308494
1 Jan 2020 14:36:23.000,62.120,-80.534,23321.997109
1 Jan 2020 14:36:53.000,59.226,-80.515,23328.676768
1 Jan 2020 14:37:23.000,56.349,-80.480,23340.351657
1 Jan 2020 14:37:53.000,53.499,-80.432,23357.019797
1 Jan 2020 14:38:23.000,50.685,-80.369,23378.673052
1 Jan 2020 14:38:53.000,47.914,-80.293,23405.297150
1 Jan 2020 14:39:23.000,45.193,-80.205,23436.871821
1 Jan 2020 14:39:53.000,42.530,-80.104,23473.370511
1 Jan 2020 14:40:23.000,39.928,-79.993,23514.760979
1 Jan 2020 14:40:53.000,37.393,-79.871,23561.005075
1 Jan 2020 14:41:23.000,34.927,-79.740,23612.058942
1 Jan 2020 14:41:53.000,32.533,-79.600,23667.873157
1 Jan 2020 14:42:23.000,30.211,-79.453,23728.392891
1 Jan 2020 14:42:53.000,27.963,-79.300,23793.558231
1 Jan 2020 14:43:23.000,25.789,-79.141,23863.303764
1 Jan 2020 14:43:53.000,23.688,-78.978,23937.559667
1 Jan 2020 14:44:23.000,21.658,-78.811,24016.251328
1 Jan 2020 14:44:53.000,19.699,-78.641,24099.299712
1 Jan 2020 14:45:23.000,17.808,-78.469,24186.621579
1 Jan 2020 14:45:53.000,15.983,-78.297,24278.129720
1 Jan 2020 14:46:23.000,14.222,-78.124,24373.733189
1 Jan 2020 14:46:53.000,12.523,-77.951,24473.337767
1 Jan 2020 14:47:23.000,10.883,-77.780,24576.845316
1 Jan 2020 14:47:53.000,9.300,-77.610,24684.155335
1 Jan 2020 14:48:23.000,7.771,-77.443,24795.164330
1 Jan 2020 14:48:53.000,6.293,-77.279,24909.766268
1 Jan 2020 14:49:23.000,4.864,-77.118,25027.852809
1 Jan 2020 14:49:53.000,3.483,-76.961,25149.313540
1 Jan 2020 14:50:23.000,2.145,-76.809,25274.036196
1 Jan 2020 14:50:53.000,0.851,-76.661,25401.906881
1 Jan 2020 14:51:23.000,359.596,-76.518,25532.810283
1 Jan 2020 14:51:53.000,358.379,-76.381,25666.630152
1 Jan 2020 14:52:23.000,357.198,-76.250,25803.248407
1 Jan 2020 14:52:53.000,356.051,-76.125,25942.546956
1 Jan 2020 14:53:23.000,354.937,-76.006,26084.406800
1 Jan 2020 14:53:53.000,353.854,-75.894,26228.708471
1 Jan 2020 14:54:23.000,352.799,-75.788,26375.332201
1 Jan 2020 14:54:53.000,351.772,-75.689,26524.158079
1 Jan 2020 14:55:23.000,350.771,-75.598,26675.066194
1 Jan 2020 14:55:53.000,349.795,-75.513,26827.936780
1 Jan 2020 14:56:23.000,348.842,-75.436,26982.650342
1 Jan 2020 14:56:53.000,347.911,-75.365,27139.087782
1 Jan 2020 14:57:23.000,347.001,-75.303,27297.130509
1 Jan 2020 14:57:53.000,346.111,-75.247,27456.660549
1 Jan 2020 14:58:23.000,345.239,-75.199,27617.560640
1 Jan 2020 14:58:53.000,344.386,-75.159,27779.714321
1 Jan 2020 14:59:23.000,343.548,-75.126,27943.006022
1 Jan 2020 14:59:53.000,342.727,-75.101,28107.321132
1 Jan 2020 15:00:23.000,341.920,-75.083,28272.546075
1 Jan 2020 15:00:53.000,341.127,-75.072,28438.568370
1 Jan 2020 15:01:20.935,340.401,-75.069,28593.782815
1 Jan 2020 16:15:01.949,142.020,-75.068,28593.260100
1 Jan 2020 16:15:31.000,141.791,-75.072,28407.844416
1 Jan 2020 16:16:01.000,141.559,-75.087,28216.385249
1 Jan 2020 16:16:31.000,141.329,-75.111,28025.064357
1 Jan 2020 16:17:01.000,141.103,-75.146,27834.013200
1 Jan 2020 16:17:31.000,140.880,-75.192,27643.365938
1 Jan 2020 16:18:01.000,140.660,-75.247,27453.259427
1 Jan 2020 16:18:31.000,140.442,-75.314,27263.833189
1 Jan 2020 16:19:01.000,140.226,-75.392,27075.229392
1 Jan 2020 16:19:31.000,140.011,-75.481,26887.592807
1 Jan 2020 16:20:01.000,139.799,-75.581,26701.070766
1 Jan 2020 16:20:31.000,139.588,-75.693,26515.813101
1 Jan 2020 16:21:01.000,139.378,-75.817,26331.972075
1 Jan 2020 16:21:31.000,139.168,-75.953,26149.702305
1 Jan 2020 16:22:01.000,138.959,-76.101,25969.160664
1 Jan 2020 16:22:31.000,138.750,-76.261,25790.506170
1 Jan 2020 16:23:01.000,138.541,-76.433,25613.899869
1 Jan 2020 16:23:31.000,138.331,-76.617,25439.504687
1 Jan 2020 16:24:01.000,138.119,-76.815,25267.485275
1 Jan 2020 16:24:31.000,137.906,-77.024,25098.007836
1 Jan 2020 16:25:01.000,137.691,-77.247,24931.239598
1 Jan 2020 16:25:31.000,137.473,-77.482,24767.349923
1 Jan 2020 16:26:01.000,137.251,-77.730,24606.508079
1 Jan 2020 16:26:31.000,137.025,-77.991,24448.884320
1 Jan 2020 16:27:01.000,136.794,-78.264,24294.649270
1 Jan 2020 16:27:31.000,136.557,-78.550,24143.973629
1 Jan 2020 16:28:01.000,136.312,-78.849,23997.027846
1 Jan 2020 16:28:31.000,136.059,-79.160,23853.981781
1 Jan 2020 16:29:01.000,135.796,-79.483,23715.004074
1 Jan 2020 16:29:31.000,135.521,-79.819,23580.262822
1 Jan 2020 16:30:01.000,135.232,-80.166,23449.923568
1 Jan 2020 16:30:31.000,134.926,-80.526,23324.149955
1 Jan 2020 16:31:01.000,134.601,-80.896,23203.103009
1 Jan 2020 16:31:31.000,134.253,-81.279,23086.940686
1 Jan 2020 16:32:01.000,133.878,-81.672,22975.817192
1 Jan 2020 16:32:31.000,133.471,-82.075,22869.883318
1 Jan 2020 16:33:01.000,133.023,-82.488,22769.284712
1 Jan 2020 16:33:31.000,132.528,-82.912,22674.162211
1 Jan 2020 16:34:01.000,131.974,-83.344,22584.651135
1 Jan 2020 16:34:31.000,131.347,-83.784,22500.880783
1 Jan 2020 16:35:01.000,130.627,-84.233,22422.973786
1 Jan 2020 16:35:31.000,129.789,-84.688,22351.046269
1 Jan 2020 16:36:01.000,128.796,-85.150,22285.206389
1 Jan 2020 16:36:31.000,127.596,-85.617,22225.554555
1 Jan 2020 16:37:01.000,126.112,-86.088,22172.182833
1 Jan 2020 16:37:31.000,124.222,-86.561,22125.174448
1 Jan 2020 16:38:01.000,121.730,-87.034,22084.603771
1 Jan 2020 16:38:31.000,118.295,-87.504,22050.535431
1 Jan 2020 16:39:01.000,113.285,-87.965,22023.024394
1 Jan 2020 16:39:31.000,105.433,-88.404,22002.115606
1 Jan 2020 16:40:01.000,92.099,-88.794,21987.843760
1 Jan 2020 16:40:31.000,68.870,-89.066,21980.233228
1 Jan 2020 16:41:01.000,36.739,-89.105,21979.297775
1 Jan 2020 16:41:31.000,10.286,-88.885,21985.040621
1 Jan 2020 16:42:01.000,354.690,-88.519,21997.454388
1 Jan 2020 16:42:31.000,345.679,-88.089,22016.521185
1 Jan 2020 16:43:01.000,340.068,-87.633,22042.212517
1 Jan 2020 16:43:31.000,336.303,-87.164,22074.489669
1 Jan 2020 16:44:01.000,333.622,-86.691,22113.303743
1 Jan 2020 16:44:31.000,331.624,-86.216,22158.595917
1 Jan 2020 16:45:01.000,330.082,-85.744,22210.297839
1 Jan 2020 16:45:31.000,328.857,-85.275,22268.331504
1 Jan 2020 16:46:01.000,327.863,-84.811,22332.610239
1 Jan 2020 16:46:31.000,327.042,-84.353,22403.038679
1 Jan 2020 16:47:01.000,326.353,-83.902,22479.513279
1 Jan 2020 16:47:31.000,325.768,-83.458,22561.922754
1 Jan 2020 16:48:01.000,325.266,-83.022,22650.148737
1 Jan 2020 16:48:31.000,324.833,-82.596,22744.065468
1 Jan 2020 16:49:01.000,324.455,-82.179,22843.541439
1 Jan 2020 16:49:31.000,324.124,-81.771,22948.439132
1 Jan 2020 16:50:01.000,323.833,-81.374,23058.615698
1 Jan 2020 16:50:31.000,323.576,-80.988,23173.923461
1 Jan 2020 16:51:01.000,323.349,-80.613,23294.210637
1 Jan 2020 16:51:31.000,323.147,-80.250,23419.320912
1 Jan 2020 16:52:01.000,322.969,-79.898,23549.095275
1 Jan 2020 16:52:31.000,322.810,-79.558,23683.371587
1 Jan 2020 16:53:01.000,322.670,-79.230,23821.985252
1 Jan 2020 16:53:31.000,322.546,-78.915,23964.769653
1 Jan 2020 16:54:01.000,322.437,-78.612,24111.556568
1 Jan 2020 16:54:31.000,322.341,-78.322,24262.176561
1 Jan 2020 16:55:01.000,322.258,-78.045,24416.459664
1 Jan 2020 16:55:31.000,322.186,-77.780,24574.234535
1 Jan 2020 16:56:01.000,322.125,-77.528,24735.330571
1 Jan 2020 16:56:31.000,322.074,-77.289,24899.577035
1 Jan 2020 16:57:01.000,322.032,-77.063,25066.803647
1 Jan 2020 16:57:31.000,321.999,-76.850,25236.840845
1 Jan 2020 16:58:01.000,321.974,-76.649,25409.520031
1 Jan 2020 16:58:31.000,321.958,-76.461,25584.673802
1 Jan 2020 16:59:01.000,321.949,-76.285,25762.136150
1 Jan 2020 16:59:31.000,321.947,-76.122,25941.742651
1 Jan 2020 17:00:01.000,321.952,-75.972,26123.330632
1 Jan 2020 17:00:31.000,321.964,-75.833,26306.739322
1 Jan 2020 17:01:01.000,321.983,-75.707,26491.809985
1 Jan 2020 17:01:31.000,322.008,-75.592,26678.386036
1 Jan 2020 17:02:01.000,322.039,-75.490,26866.313146
1 Jan 2020 17:02:31.000,322.076,-75.399,27055.439331
1 Jan 2020 17:03:01.000,322.119,-75.319,27245.615027
1 Jan 2020 17:03:31.000,322.169,-75.251,27436.693157
1 Jan 2020 17:04:01.000,322.224,-75.193,27628.529179
1 Jan 2020 17:04:31.000,322.285,-75.147,27820.981135
1 Jan 2020 17:05:01.000,322.352,-75.111,28013.909681
1 Jan 2020 17:05:31.000,322.424,-75.086,28207.178113
1 Jan 2020 17:06:01.000,322.502,-75.070,28400.652389
1 Jan 2020 17:06:30.990,322.586,-75.065,28594.137582
1 Jan 2020 18:19:31.313,155.674,-75.073,28598.522127
1 Jan 2020 18:20:01.000,156.334,-75.077,28425.863517
1 Jan 2020 18:20:31.000,157.014,-75.089,28251.995079
1 Jan 2020 18:21:01.000,157.707,-75.109,28078.860665
1 Jan 2020 18:21:31.000,158.416,-75.137,27906.580479
1 Jan 2020 18:22:01.000,159.140,-75.174,27735.276111
1 Jan 2020 18:22:31.000,159.881,-75.219,27565.070468
1 Jan 2020 18:23:01.000,160.640,-75.273,27396.087711
1 Jan 2020 18:23:31.000,161.417,-75.334,27228.453174
1 Jan 2020 18:24:01.000,162.215,-75.404,27062.293285
1 Jan 2020 18:24:31.000,163.033,-75.483,26897.735466
1 Jan 2020 18:25:01.000,163.874,-75.569,26734.908038
1 Jan 2020 18:25:31.000,164.738,-75.664,26573.940105
1 Jan 2020 18:26:01.000,165.627,-75.767,26414.961436
1 Jan 2020 18:26:31.000,166.543,-75.878,26258.102335
1 Jan 2020 18:27:01.000,167.487,-75.998,26103.493499
1 Jan 2020 18:27:31.000,168.461,-76.124,25951.265870
1 Jan 2020 18:28:01.000,169.467,-76.259,25801.550170
1 Jan 2020 18:28:31.000,170.506,-76.401,25654.477931
1 Jan 2020 18:29:01.000,171.582,-76.550,25510.179509
1 Jan 2020 18:29:31.000,172.695,-76.706,25368.785092
1 Jan 2020 18:30:01.000,173.849,-76.869,25230.424196
1 Jan 2020 18:30:31.000,175.046,-77.038,25095.225451
1 Jan 2020 18:31:01.000,176.288,-77.213,24963.316373
1 Jan 2020 18:31:31.000,177.579,-77.394,24834.823127
1 Jan 2020 18:32:01.000,178.921,-77.580,24709.870287
1 Jan 2020 18:32:31.000,180.318,-77.770,24588.580324
1 Jan 2020 18:33:01.000,181.774,-77.965,24471.074372
1 Jan 2020 18:33:31.000,183.290,-78.162,24357.470409
1 Jan 2020 18:34:01.000,184.872,-78.363,24247.884020
1 Jan 2020 18:34:31.000,186.522,-78.566,24142.427862
1 Jan 2020 18:35:01.000,188.246,-78.770,24041.211372
1 Jan 2020 18:35:31.000,190.046,-78.974,23944.340488
1 Jan 2020 18:36:01.000,191.926,-79.178,23851.917167
1 Jan 2020 18:36:31.000,193.891,-79.381,23764.039879
1 Jan 2020 18:37:01.000,195.943,-79.581,23680.802141
1 Jan 2020 18:37:31.000,198.088,-79.777,23602.293038
1 Jan 2020 18:38:01.000,200.326,-79.969,23528.596747
1 Jan 2020 18:38:31.000,202.661,-80.155,23459.792274
1 Jan 2020 18:39:01.000,205.095,-80.334,23395.953068
1 Jan 2020 18:39:31.000,207.628,-80.504,23337.147315
1 Jan 2020 18:40:01.000,210.260,-80.664,23283.436893
1 Jan 2020 18:40:31.000,212.989,-80.814,23234.877717
1 Jan 2020 18:41:01.000,215.813,-80.951,23191.519400
1 Jan 2020 18:41:31.000,218.726,-81.074,23153.405082
1 Jan 2020 18:42:01.000,221.721,-81.183,23120.571199
1 Jan 2020 18:42:31.000,224.792,-81.276,23093.047667
1 Jan 2020 18:43:01.000,227.926,-81.352,23070.857289
1 Jan 2020 18:43:31.000,231.113,-81.410,23054.016002
1 Jan 2020 18:44:01.000,234.338,-81.450,23042.532741
1 Jan 2020 18:44:31.000,237.589,-81.472,23036.409403
1 Jan 2020 18:45:01.000,240.848,-81.474,23035.640834
1 Jan 2020 18:45:31.000,244.102,-81.458,23040.214904
1 Jan 2020 18:46:01.000,247.335,-81.423,23050.112459
1 Jan 2020 18:46:31.000,250.532,-81.370,23065.307471
1 Jan 2020 18:47:01.000,253.681,-81.300,23085.767118
1 Jan 2020 18:47:31.000,256.769,-81.212,23111.451904
1 Jan 2020 18:48:01.000,259.787,-81.109,23142.315867
1 Jan 2020 18:48:31.000,262.725,-80.992,23178.306543
1 Jan 2020 18:49:01.000,265.578,-80.860,23219.365445
1 Jan 2020 18:49:31.000,268.341,-80.717,23265.428093
1 Jan 2020 18:50:01.000,271.011,-80.563,23316.424285
1 Jan 2020 18:50:31.000,273.585,-80.399,23372.278340
1 Jan 2020 18:51:01.000,276.064,-80.227,23432.909353
1 Jan 2020 18:51:31.000,278.449,-80.047,23498.231599
1 Jan 2020 18:52:01.000,280.741,-79.862,23568.154292
1 Jan 2020 18:52:31.000,282.944,-79.672,23642.582634
1 Jan 2020 18:53:01.000,285.059,-79.479,23721.417605
1 Jan 2020 18:53:31.000,287.090,-79.283,23804.556388
1 Jan 2020 18:54:01.000,289.042,-79.085,23891.892660
1 Jan 2020 18:54:31.000,290.917,-78.887,23983.316893
1 Jan 2020 18:55:01.000,292.720,-78.689,24078.716649
1 Jan 2020 18:55:31.000,294.454,-78.492,24177.977074
1 Jan 2020 18:56:01.000,296.124,-78.297,24280.980403
1 Jan 2020 18:56:31.000,297.734,-78.105,24387.607400
1 Jan 2020 18:57:01.000,299.286,-77.915,24497.736876
1 Jan 2020 18:57:31.000,300.785,-77.729,24611.246141
1 Jan 2020 18:58:01.000,302.233,-77.548,24728.011266
1 Jan 2020 18:58:31.000,303.635,-77.371,24847.907333
1 Jan 2020 18:59:01.000,304.992,-77.198,24970.808672
1 Jan 2020 18:59:31.000,306.308,-77.032,25096.589091
1 Jan 2020 19:00:01.000,307.586,-76.871,25225.122097
1 Jan 2020 19:00:31.000,308.828,-76.716,25356.281097
1 Jan 2020 19:01:01.000,310.037,-76.567,25489.939854
1 Jan 2020 19:01:31.000,311.214,-76.425,25625.971640
1 Jan 2020 19:02:01.000,312.362,-76.289,25764.250945
1 Jan 2020 19:02:31.000,313.483,-76.160,25904.652617
1 Jan 2020 19:03:01.000,314.579,-76.038,26047.052263
1 Jan 2020 19:03:31.000,315.652,-75.923,26191.326387
1 Jan 2020 19:04:01.000,316.702,-75.816,26337.352520
1 Jan 2020 19:04:31.000,317.733,-75.715,26485.009330
1 Jan 2020 19:05:01.000,318.744,-75.622,26634.176734
1 Jan 2020 19:05:31.000,319.739,-75.536,26784.735989
1 Jan 2020 19:06:01.000,320.717,-75.458,26936.569782
1 Jan 2020 19:06:31.000,321.680,-75.386,27089.562310
1 Jan 2020 19:07:01.000,322.630,-75.323,27243.599343
1 Jan 2020 19:07:31.000,323.567,-75.266,27398.568292
1 Jan 2020 19:08:01.000,324.492,-75.216,27554.358262
1 Jan 2020 19:08:31.000,325.407,-75.174,27710.860093
1 Jan 2020 19:09:01.000,326.312,-75.139,27867.966411
1 Jan 2020 19:09:31.000,327.209,-75.111,28025.571650
1 Jan 2020 19:10:01.000,328.098,-75.089,28183.572091
1 Jan 2020 19:10:31.000,328.980,-75.075,28341.865878
1 Jan 2020 19:11:01.000,329.856,-75.067,28500.353039
1 Jan 2020 19:11:20.005,330.408,-75.066,28600.812526
1 Jan 2020 20:30:03.486,193.929,-75.076,28606.943989
1 Jan 2020 20:30:33.000,194.939,-75.078,28466.137438
1 Jan 2020 20:31:03.000,195.975,-75.086,28323.467698
1 Jan 2020 20:31:33.000,197.020,-75.100,28181.341884
1 Jan 2020 20:32:03.000,198.075,-75.119,28039.846396
1 Jan 2020 20:32:33.000,199.141,-75.143,27899.068696
1 Jan 2020 20:33:03.000,200.219,-75.173,27759.097280
1 Jan 2020 20:33:33.000,201.310,-75.208,27620.021640
1 Jan 2020 20:34:03.000,202.414,-75.249,27481.932223
1 Jan 2020 20:34:33.000,203.532,-75.295,27344.920385
1 Jan 2020 20:35:03.000,204.666,-75.347,27209.078342
1 Jan 2020 20:35:33.000,205.815,-75.404,27074.499117
1 Jan 2020 20:36:03.000,206.982,-75.467,26941.276479
1 Jan 2020 20:36:33.000,208.167,-75.534,26809.504878
1 Jan 2020 20:37:03.000,209.371,-75.607,26679.279375
1 Jan 2020 20:37:33.000,210.595,-75.685,26550.695567
1 Jan 2020 20:38:03.000,211.841,-75.768,26423.849504
1 Jan 2020 20:38:33.000,213.109,-75.855,26298.837601
1 Jan 2020 20:39:03.000,214.400,-75.947,26175.756547
1 Jan 2020 20:39:33.000,215.717,-76.044,26054.703203
1 Jan 2020 20:40:03.000,217.059,-76.145,25935.774264
1 Jan 2020 20:40:33.000,218.430,-76.250,25819.067081
1 Jan 2020 20:41:03.000,219.829,-76.359,25704.678135
1 Jan 2020 20:41:33.000,221.258,-76.471,25592.703853
1 Jan 2020 20:42:03.000,222.718,-76.587,25483.240244
1 Jan 2020 20:42:33.000,224.212,-76.706,25376.382759
1 Jan 2020 20:43:03.000,225.740,-76.827,25272.226151
1 Jan 2020 20:43:33.000,227.303,-76.951,25170.864324
1 Jan 2020 20:44:03.000,228.904,-77.077,25072.390180
1 Jan 2020 20:44:33.000,230.544,-77.204,24976.895462
1 Jan 2020 20:45:03.000,232.224,-77.332,24884.470588
1 Jan 2020 20:45:33.000,233.944,-77.461,24795.204299
1 Jan 2020 20:46:03.000,235.708,-77.591,24709.184243
1 Jan 2020 20:46:33.000,237.515,-77.720,24626.495657
1 Jan 2020 20:47:03.000,239.367,-77.848,24547.221957
1 Jan 2020 20:47:33.000,241.265,-77.975,24471.444370
1 Jan 2020 20:48:03.000,243.209,-78.099,24399.241753
1 Jan 2020 20:48:33.000,245.200,-78.222,24330.690414
1 Jan 2020 20:49:03.000,247.238,-78.341,24265.863931
1 Jan 2020 20:49:33.000,249.323,-78.456,24204.832867
1 Jan 2020 20:50:03.000,251.455,-78.567,24147.665046
1 Jan 2020 20:50:33.000,253.634,-78.673,24094.424692
1 Jan 2020 20:51:03.000,255.857,-78.774,24045.172726
1 Jan 2020 20:51:33.000,258.125,-78.868,23999.966493
1 Jan 2020 20:52:03.000,260.434,-78.955,23958.859597
1 Jan 2020 20:52:33.000,262.782,-79.035,23921.901763
1 Jan 2020 20:53:03.000,265.167,-79.107,23889.138687
1 Jan 2020 20:53:33.000,267.586,-79.171,23860.611861
1 Jan 2020 20:54:03.000,270.034,-79.226,23836.358665
1 Jan 2020 20:54:33.000,272.508,-79.272,23816.411916
1 Jan 2020 20:55:03.000,275.002,-79.308,23800.800012
1 Jan 2020 20:55:33.000,277.513,-79.334,23789.546774
1 Jan 2020 20:56:03.000,280.035,-79.350,23782.671381
1 Jan 2020 20:56:33.000,282.563,-79.355,23780.188307
1 Jan 2020 20:57:03.000,285.092,-79.351,23782.107288
1 Jan 2020 20:57:33.000,287.615,-79.336,23788.433238
1 Jan 2020 20:58:03.000,290.128,-79.311,23799.166299
1 Jan 2020 20:58:33.000,292.626,-79.276,23814.301797
1 Jan 2020 20:59:03.000,295.103,-79.231,23833.830267
1 Jan 2020 20:59:33.000,297.555,-79.177,23857.737471
1 Jan 2020 21:00:03.000,299.978,-79.113,23886.004440
1 Jan 2020 21:00:33.000,302.368,-79.041,23918.607604
1 Jan 2020 21:01:03.000,304.720,-78.961,23955.518559
1 Jan 2020 21:01:33.000,307.033,-78.873,23996.704583
1 Jan 2020 21:02:03.000,309.303,-78.778,24042.128442
1 Jan 2020 21:02:33.000,311.528,-78.677,24091.748566
1 Jan 2020 21:03:03.000,313.707,-78.569,24145.519159
1 Jan 2020 21:03:33.000,315.839,-78.457,24203.390326
1 Jan 2020 21:04:03.000,317.922,-78.339,24265.308203
1 Jan 2020 21:04:33.000,319.956,-78.218,24331.215252
1 Jan 2020 21:05:03.000,321.941,-78.093,24401.049812
1 Jan 2020 21:05:33.000,323.878,-77.966,24474.747138
1 Jan 2020 21:06:03.000,325.765,-77.837,24552.238977
1 Jan 2020 21:06:33.000,327.605,-77.706,24633.453884
1 Jan 2020 21:07:03.000,329.397,-77.574,24718.317382
1 Jan 2020 21:07:33.000,331.144,-77.441,24806.752139
1 Jan 2020 21:08:03.000,332.845,-77.309,24898.678140
1 Jan 2020 21:08:33.000,334.502,-77.177,24994.012860
1 Jan 2020 21:09:03.000,336.117,-77.047,25092.671645
1 Jan 2020 21:09:33.000,337.690,-76.918,25194.567064
1 Jan 2020 21:10:03.000,339.224,-76.791,25299.610304
1 Jan 2020 21:10:33.000,340.719,-76.667,25407.710531
1 Jan 2020 21:11:03.000,342.178,-76.545,25518.775257
1 Jan 2020 21:11:33.000,343.600,-76.427,25632.710505
1 Jan 2020 21:12:03.000,344.989,-76.312,25749.420968
1 Jan 2020 21:12:33.000,346.345,-76.200,25868.810165
1 Jan 2020 21:13:03.000,347.669,-76.093,25990.780592
1 Jan 2020 21:13:33.000,348.963,-75.991,26115.233868
1 Jan 2020 21:14:03.000,350.229,-75.893,26242.070877
1 Jan 2020 21:14:33.000,351.467,-75.799,26371.191902
1 Jan 2020 21:15:03.000,352.679,-75.711,26502.496757
1 Jan 2020 21:15:33.000,353.866,-75.628,26635.885180
1 Jan 2020 21:16:03.000,355.029,-75.550,26771.255873
1 Jan 2020 21:16:33.000,356.170,-75.478,26908.508226
1 Jan 2020 21:17:03.000,357.289,-75.412,27047.541356
1 Jan 2020 21:17:33.000,358.387,-75.351,27188.254470
1 Jan 2020 21:18:03.000,359.466,-75.296,27330.546963
1 Jan 2020 21:18:33.000,0.527,-75.246,27474.318505
1 Jan 2020 21:19:03.000,1.569,-75.203,27619.469128
1 Jan 2020 21:19:33.000,2.595,-75.166,27765.899301
1 Jan 2020 21:20:03.000,3.606,-75.135,27913.510004
1 Jan 2020 21:20:33.000,4.601,-75.110,28062.202797
1 Jan 2020 21:21:03.000,5.582,-75.091,28211.879880
1 Jan 2020 21:21:33.000,6.551,-75.078,28362.444154
1 Jan 2020 21:22:03.000,7.506,-75.071,28513.799274
1 Jan 2020 21:22:21.747,8.097,-75.070,28608.739445
1 Jan 2020 22:37:51.369,217.216,-75.074,28611.028724
1 Jan 2020 22:38:21.000,217.726,-75.078,28431.104579
1 Jan 2020 22:38:51.000,218.244,-75.091,28248.910754
1 Jan 2020 22:39:21.000,218.763,-75.113,28066.808880
1 Jan 2020 22:39:51.000,219.283,-75.145,27884.921208
1 Jan 2020 22:40:21.000,219.806,-75.185,27703.372543
1 Jan 2020 22:40:51.000,220.332,-75.236,27522.290233
1 Jan 2020 22:41:21.000,220.862,-75.296,27341.804147
1 Jan 2020 22:41:51.000,221.396,-75.366,27162.046655
1 Jan 2020 22:42:21.000,221.936,-75.446,26983.152594
1 Jan 2020 22:42:51.000,222.482,-75.537,26805.259227
1 Jan 2020 22:43:21.000,223.035,-75.637,26628.506193
1 Jan 2020 22:43:51.000,223.596,-75.749,26453.035445
1 Jan 2020 22:44:21.000,224.166,-75.870,26278.991182
1 Jan 2020 22:44:51.000,224.747,-76.003,26106.519765
1 Jan 2020 22:45:21.000,225.339,-76.146,25935.769619
1 Jan 2020 22:45:51.000,225.943,-76.300,25766.891129
1 Jan 2020 22:46:21.000,226.562,-76.465,25600.036515
1 Jan 2020 22:46:51.000,227.197,-76.642,25435.359691
1 Jan 2020 22:47:21.000,227.849,-76.829,25273.016118
1 Jan 2020 22:47:51.000,228.521,-77.027,25113.162630
1 Jan 2020 22:48:21.000,229.214,-77.236,24955.956935
1 Jan 2020 22:48:51.000,229.932,-77.455,24801.558664
1 Jan 2020 22:49:21.000,230.676,-77.686,24650.127260
1 Jan 2020 22:49:51.000,231.450,-77.927,24501.822998
1 Jan 2020 22:50:21.000,232.257,-78.179,24356.806410
1 Jan 2020 22:50:51.000,233.100,-78.441,24215.237999
1 Jan 2020 22:51:21.000,233.985,-78.713,24077.277945
1 Jan 2020 22:51:51.000,234.915,-78.995,23943.085782
1 Jan 2020 22:52:21.000,235.897,-79.286,23812.819827
1 Jan 2020 22:52:51.000,236.936,-79.587,23686.637771
1 Jan 2020 22:53:21.000,238.040,-79.896,23564.694873
1 Jan 2020 22:53:51.000,239.216,-80.213,23447.144533
1 Jan 2020 22:54:21.000,240.475,-80.537,23334.137644
1 Jan 2020 22:54:51.000,241.827,-80.868,23225.822178
1 Jan 2020 22:55:21.000,243.285,-81.205,23122.342750
1 Jan 2020 22:55:51.000,244.863,-81.546,23023.839992
1 Jan 2020 22:56:21.000,246.580,-81.892,22930.450893
1 Jan 2020 22:56:51.000,248.454,-82.239,22842.307148
1 Jan 2020 22:57:21.000,250.509,-82.588,22759.535524
1 Jan 2020 22:57:51.000,252.773,-82.935,22682.257197
1 Jan 2020 22:58:21.000,255.276,-83.279,22610.587320
1 Jan 2020 22:58:51.000,258.054,-83.618,22544.634453
1 Jan 2020 22:59:21.000,261.146,-83.949,22484.500660
1 Jan 2020 22:59:51.000,264.597,-84.267,22430.280313
1 Jan 2020 23:00:21.000,268.451,-84.569,22382.060246
1 Jan 2020 23:00:51.000,272.752,-84.851,22339.919254
1 Jan 2020 23:01:21.000,277.534,-85.107,22303.927703
1 Jan 2020 23:01:51.000,282.818,-85.330,22274.147455
1 Jan 2020 23:02:21.000,288.595,-85.516,22250.631232
1 Jan 2020 23:02:51.000,294.816,-85.658,22233.422643
1 Jan 2020 23:03:21.000,301.386,-85.750,22222.555909
1 Jan 2020 23:03:51.000,308.165,-85.789,22218.055725
1 Jan 2020 23:04:21.000,314.981,-85.773,22219.937130
1 Jan 2020 23:04:51.000,321.658,-85.702,22228.205440
1 Jan 2020 23:05:21.000,328.037,-85.580,22242.856236
1 Jan 2020 23:05:51.000,334.003,-85.411,22263.875379
1 Jan 2020 23:06:21.000,339.488,-85.201,22291.239145
1 Jan 2020 23:06:51.000,344.466,-84.956,22324.914071
1 Jan 2020 23:07:21.000,348.947,-84.683,22364.857481
1 Jan 2020 23:07:51.000,352.958,-84.386,22411.017445
1 Jan 2020 23:08:21.000,356.541,-84.071,22463.333059
