STKdata/stk_90fov_6leo/Satellite-MEO_Satellite10005-To-Satellite-LEO_Satellite20000 AER.csv

"Time (UTCG)","Azimuth (deg)","Elevation (deg)","Range (km)"
1 Jan 2020 01:08:53.605,166.002,-75.065,28597.088680
1 Jan 2020 01:09:23.000,164.996,-75.067,28456.877065
1 Jan 2020 01:09:53.000,163.962,-75.076,28314.233973
1 Jan 2020 01:10:23.000,162.918,-75.089,28172.132122
1 Jan 2020 01:10:53.000,161.864,-75.108,28030.657764
1 Jan 2020 01:11:23.000,160.799,-75.133,27889.898223
1 Jan 2020 01:11:53.000,159.722,-75.163,27749.941870
1 Jan 2020 01:12:23.000,158.632,-75.198,27610.878081
1 Jan 2020 01:12:53.000,157.529,-75.239,27472.797201
1 Jan 2020 01:13:23.000,156.411,-75.286,27335.790500
1 Jan 2020 01:13:53.000,155.279,-75.338,27199.950119
1 Jan 2020 01:14:23.000,154.130,-75.395,27065.369022
1 Jan 2020 01:14:53.000,152.964,-75.457,26932.140933
1 Jan 2020 01:15:23.000,151.781,-75.525,26800.360272
1 Jan 2020 01:15:53.000,150.578,-75.598,26670.122089
1 Jan 2020 01:16:23.000,149.354,-75.676,26541.521981
1 Jan 2020 01:16:53.000,148.110,-75.759,26414.656019
1 Jan 2020 01:17:23.000,146.843,-75.847,26289.620655
1 Jan 2020 01:17:53.000,145.552,-75.939,26166.512631
1 Jan 2020 01:18:23.000,144.237,-76.036,26045.428878
1 Jan 2020 01:18:53.000,142.895,-76.137,25926.466180
1 Jan 2020 01:19:23.000,141.526,-76.243,25809.721994
1 Jan 2020 01:19:53.000,140.128,-76.352,25695.292924
1 Jan 2020 01:20:23.000,138.700,-76.464,25583.275537
1 Jan 2020 01:20:53.000,137.240,-76.580,25473.766002
1 Jan 2020 01:21:23.000,135.747,-76.699,25366.859944
1 Jan 2020 01:21:53.000,134.220,-76.821,25262.652308
1 Jan 2020 01:22:23.000,132.657,-76.945,25161.237206
1 Jan 2020 01:22:53.000,131.057,-77.071,25062.707765
1 Jan 2020 01:23:23.000,129.418,-77.199,24967.155967
1 Jan 2020 01:23:53.000,127.739,-77.328,24874.672484
1 Jan 2020 01:24:23.000,126.019,-77.457,24785.346326
1 Jan 2020 01:24:53.000,124.256,-77.587,24699.265422
1 Jan 2020 01:25:23.000,122.449,-77.716,24616.515300
1 Jan 2020 01:25:53.000,120.597,-77.845,24537.179683
1 Jan 2020 01:26:23.000,118.700,-77.972,24461.340113
1 Jan 2020 01:26:53.000,116.756,-78.097,24389.075769
1 Jan 2020 01:27:23.000,114.765,-78.220,24320.463289
1 Jan 2020 01:27:53.000,112.726,-78.339,24255.576591
1 Jan 2020 01:28:23.000,110.641,-78.455,24194.486577
1 Jan 2020 01:28:53.000,108.508,-78.566,24137.261418
1 Jan 2020 01:29:23.000,106.329,-78.673,24083.965683
1 Jan 2020 01:29:53.000,104.104,-78.774,24034.660643
1 Jan 2020 01:30:23.000,101.836,-78.868,23989.403986
1 Jan 2020 01:30:53.000,99.525,-78.956,23948.249661
1 Jan 2020 01:31:23.000,97.175,-79.037,23911.247728
1 Jan 2020 01:31:53.000,94.788,-79.109,23878.444218
1 Jan 2020 01:32:23.000,92.368,-79.173,23849.880945
1 Jan 2020 01:32:53.000,89.917,-79.229,23825.595602
1 Jan 2020 01:33:23.000,87.441,-79.274,23805.621310
1 Jan 2020 01:33:53.000,84.944,-79.311,23789.986755
1 Jan 2020 01:34:23.000,82.430,-79.337,23778.716036
1 Jan 2020 01:34:53.000,79.905,-79.353,23771.828589
1 Jan 2020 01:35:23.000,77.374,-79.359,23769.339130
1 Jan 2020 01:35:53.000,74.843,-79.355,23771.257621
1 Jan 2020 01:36:23.000,72.316,-79.340,23777.589179
1 Jan 2020 01:36:53.000,69.800,-79.315,23788.334128
1 Jan 2020 01:37:23.000,67.299,-79.280,23803.487958
1 Jan 2020 01:37:53.000,64.818,-79.235,23823.041341
1 Jan 2020 01:38:23.000,62.363,-79.181,23846.980156
1 Jan 2020 01:38:53.000,59.937,-79.118,23875.285525
1 Jan 2020 01:39:23.000,57.544,-79.045,23907.933948
1 Jan 2020 01:39:53.000,55.189,-78.965,23944.897061
1 Jan 2020 01:40:23.000,52.873,-78.877,23986.142160
1 Jan 2020 01:40:53.000,50.600,-78.782,24031.632006
1 Jan 2020 01:41:23.000,48.372,-78.680,24081.324996
1 Jan 2020 01:41:53.000,46.191,-78.573,24135.175279
1 Jan 2020 01:42:23.000,44.057,-78.460,24193.132878
1 Jan 2020 01:42:53.000,41.971,-78.343,24255.143825
1 Jan 2020 01:43:23.000,39.935,-78.221,24321.150457
1 Jan 2020 01:43:53.000,37.948,-78.096,24391.090958
1 Jan 2020 01:44:23.000,36.011,-77.969,24464.900413
1 Jan 2020 01:44:53.000,34.121,-77.839,24542.510377
1 Jan 2020 01:45:23.000,32.280,-77.708,24623.849190
1 Jan 2020 01:45:53.000,30.487,-77.575,24708.842144
1 Jan 2020 01:46:23.000,28.739,-77.443,24797.411658
1 Jan 2020 01:46:53.000,27.037,-77.310,24889.477448
1 Jan 2020 01:47:23.000,25.379,-77.178,24984.956706
1 Jan 2020 01:47:53.000,23.763,-77.048,25083.764485
1 Jan 2020 01:48:23.000,22.189,-76.919,25185.813038
1 Jan 2020 01:48:53.000,20.655,-76.791,25291.013234
1 Jan 2020 01:49:23.000,19.159,-76.667,25399.273904
1 Jan 2020 01:49:53.000,17.700,-76.545,25510.502219
1 Jan 2020 01:50:23.000,16.277,-76.426,25624.603851
1 Jan 2020 01:50:53.000,14.889,-76.311,25741.483135
1 Jan 2020 01:51:23.000,13.533,-76.200,25861.043228
1 Jan 2020 01:51:53.000,12.208,-76.093,25983.186259
1 Jan 2020 01:52:23.000,10.914,-75.990,26107.813475
1 Jan 2020 01:52:53.000,9.648,-75.892,26234.825389
1 Jan 2020 01:53:23.000,8.410,-75.799,26364.121910
1 Jan 2020 01:53:53.000,7.198,-75.710,26495.602479
1 Jan 2020 01:54:23.000,6.011,-75.627,26629.166462
1 Jan 2020 01:54:53.000,4.848,-75.549,26764.712190
1 Jan 2020 01:55:23.000,3.708,-75.477,26902.138689
1 Jan 2020 01:55:53.000,2.589,-75.411,27041.344712
1 Jan 2020 01:56:23.000,1.491,-75.350,27182.229110
1 Jan 2020 01:56:53.000,0.412,-75.295,27324.690927
1 Jan 2020 01:57:23.000,359.352,-75.246,27468.629490
1 Jan 2020 01:57:53.000,358.310,-75.203,27613.944492
1 Jan 2020 01:58:23.000,357.284,-75.166,27760.536075
1 Jan 2020 01:58:53.000,356.274,-75.135,27908.304900
1 Jan 2020 01:59:23.000,355.279,-75.110,28057.152215
1 Jan 2020 01:59:53.000,354.298,-75.091,28206.979923
1 Jan 2020 02:00:23.000,353.330,-75.078,28357.690635
1 Jan 2020 02:00:53.000,352.375,-75.071,28509.187727
1 Jan 2020 02:01:09.993,351.839,-75.070,28595.312295
1 Jan 2020 03:16:41.977,142.764,-75.067,28593.012167
1 Jan 2020 03:17:11.000,142.266,-75.071,28416.673482
1 Jan 2020 03:17:41.000,141.751,-75.084,28234.369406
1 Jan 2020 03:18:11.000,141.234,-75.106,28052.154203
1 Jan 2020 03:18:41.000,140.716,-75.138,27870.150292
1 Jan 2020 03:19:11.000,140.195,-75.179,27688.482666
1 Jan 2020 03:19:41.000,139.671,-75.229,27507.278880
1 Jan 2020 03:20:11.000,139.144,-75.290,27326.669036
1 Jan 2020 03:20:41.000,138.612,-75.360,27146.785753
1 Jan 2020 03:21:11.000,138.074,-75.440,26967.764142
1 Jan 2020 03:21:41.000,137.531,-75.531,26789.741761
1 Jan 2020 03:22:11.000,136.980,-75.632,26612.858564
1 Jan 2020 03:22:41.000,136.421,-75.743,26437.256842
1 Jan 2020 03:23:11.000,135.854,-75.866,26263.081153
1 Jan 2020 03:23:41.000,135.276,-75.999,26090.478234
1 Jan 2020 03:24:11.000,134.687,-76.142,25919.596912
1 Jan 2020 03:24:41.000,134.085,-76.297,25750.587989
1 Jan 2020 03:25:11.000,133.469,-76.462,25583.604123
1 Jan 2020 03:25:41.000,132.837,-76.639,25418.799684
1 Jan 2020 03:26:11.000,132.188,-76.827,25256.330607
1 Jan 2020 03:26:41.000,131.519,-77.025,25096.354213
1 Jan 2020 03:27:11.000,130.829,-77.235,24939.028713
1 Jan 2020 03:27:41.000,130.114,-77.455,24784.514257
1 Jan 2020 03:28:11.000,129.373,-77.687,24632.970816
1 Jan 2020 03:28:41.000,128.603,-77.929,24484.559203
1 Jan 2020 03:29:11.000,127.799,-78.181,24339.440494
1 Jan 2020 03:29:41.000,126.959,-78.444,24197.775748
1 Jan 2020 03:30:11.000,126.078,-78.717,24059.725697
1 Jan 2020 03:30:41.000,125.152,-79.000,23925.450434
1 Jan 2020 03:31:11.000,124.174,-79.292,23795.108828
1 Jan 2020 03:31:41.000,123.138,-79.594,23668.859122
1 Jan 2020 03:32:11.000,122.038,-79.904,23546.857118
1 Jan 2020 03:32:41.000,120.865,-80.222,23429.256748
1 Jan 2020 03:33:11.000,119.610,-80.547,23316.209424
1 Jan 2020 03:33:41.000,118.262,-80.879,23207.863618
1 Jan 2020 03:34:11.000,116.807,-81.217,23104.364428
1 Jan 2020 03:34:41.000,115.231,-81.560,23005.852942
1 Jan 2020 03:35:11.000,113.517,-81.907,22912.466581
1 Jan 2020 03:35:41.000,111.645,-82.256,22824.337439
1 Jan 2020 03:36:11.000,109.590,-82.606,22741.592647
1 Jan 2020 03:36:41.000,107.326,-82.955,22664.353713
1 Jan 2020 03:37:11.000,104.820,-83.300,22592.736074
1 Jan 2020 03:37:41.000,102.038,-83.641,22526.848538
1 Jan 2020 03:38:11.000,98.938,-83.972,22466.793365
1 Jan 2020 03:38:41.000,95.475,-84.292,22412.665079
1 Jan 2020 03:39:11.000,91.604,-84.596,22364.550614
1 Jan 2020 03:39:41.000,87.280,-84.879,22322.528809
1 Jan 2020 03:40:11.000,82.467,-85.135,22286.670024
1 Jan 2020 03:40:41.000,77.144,-85.360,22257.036057
1 Jan 2020 03:41:11.000,71.322,-85.546,22233.679512
1 Jan 2020 03:41:41.000,65.048,-85.687,22216.643820
1 Jan 2020 03:42:11.000,58.421,-85.779,22205.962972
1 Jan 2020 03:42:41.000,51.587,-85.816,22201.661375
1 Jan 2020 03:43:11.000,44.720,-85.798,22203.753723
1 Jan 2020 03:43:41.000,38.003,-85.725,22212.244937
1 Jan 2020 03:44:11.000,31.594,-85.600,22227.130149
1 Jan 2020 03:44:41.000,25.610,-85.427,22248.394725
1 Jan 2020 03:45:11.000,20.118,-85.214,22276.014396
1 Jan 2020 03:45:41.000,15.140,-84.967,22309.955110
1 Jan 2020 03:46:11.000,10.668,-84.690,22350.173566
1 Jan 2020 03:46:41.000,6.668,-84.391,22396.617167
1 Jan 2020 03:47:11.000,3.098,-84.073,22449.224313
1 Jan 2020 03:47:41.000,359.914,-83.742,22507.924797
1 Jan 2020 03:48:11.000,357.068,-83.401,22572.639623
1 Jan 2020 03:48:41.000,354.519,-83.054,22643.282052
1 Jan 2020 03:49:11.000,352.230,-82.702,22719.757498
1 Jan 2020 03:49:41.000,350.166,-82.348,22801.964029
1 Jan 2020 03:50:11.000,348.299,-81.994,22889.792765
1 Jan 2020 03:50:41.000,346.605,-81.642,22983.128508
1 Jan 2020 03:51:11.000,345.061,-81.293,23081.849357
1 Jan 2020 03:51:41.000,343.650,-80.949,23185.828350
1 Jan 2020 03:52:11.000,342.355,-80.610,23294.933121
1 Jan 2020 03:52:41.000,341.163,-80.278,23409.026538
1 Jan 2020 03:53:11.000,340.063,-79.953,23527.967147
1 Jan 2020 03:53:41.000,339.045,-79.636,23651.609615
1 Jan 2020 03:54:11.000,338.100,-79.327,23779.805430
1 Jan 2020 03:54:41.000,337.220,-79.028,23912.402256
1 Jan 2020 03:55:11.000,336.399,-78.738,24049.245938
1 Jan 2020 03:55:41.000,335.632,-78.458,24190.179846
1 Jan 2020 03:56:11.000,334.912,-78.188,24335.045521
1 Jan 2020 03:56:41.000,334.237,-77.929,24483.683043
1 Jan 2020 03:57:11.000,333.601,-77.681,24635.931383
1 Jan 2020 03:57:41.000,333.002,-77.444,24791.628732
1 Jan 2020 03:58:11.000,332.437,-77.218,24950.612817
1 Jan 2020 03:58:41.000,331.903,-77.004,25112.721509
1 Jan 2020 03:59:11.000,331.397,-76.801,25277.791860
1 Jan 2020 03:59:41.000,330.917,-76.609,25445.662206
1 Jan 2020 04:00:11.000,330.462,-76.429,25616.171185
1 Jan 2020 04:00:41.000,330.029,-76.260,25789.158255
1 Jan 2020 04:01:11.000,329.618,-76.103,25964.463905
1 Jan 2020 04:01:41.000,329.226,-75.957,26141.929834
1 Jan 2020 04:02:11.000,328.853,-75.823,26321.399121
1 Jan 2020 04:02:41.000,328.497,-75.700,26502.716376
1 Jan 2020 04:03:11.000,328.158,-75.588,26685.727882
1 Jan 2020 04:03:41.000,327.833,-75.488,26870.281709
1 Jan 2020 04:04:11.000,327.524,-75.399,27056.227830
1 Jan 2020 04:04:41.000,327.227,-75.320,27243.418214
1 Jan 2020 04:05:11.000,326.944,-75.253,27431.706910
1 Jan 2020 04:05:41.000,326.673,-75.196,27620.950117
1 Jan 2020 04:06:11.000,326.414,-75.149,27811.006249
1 Jan 2020 04:06:41.000,326.166,-75.113,28001.735989
1 Jan 2020 04:07:11.000,325.929,-75.088,28193.002325
1 Jan 2020 04:07:41.000,325.701,-75.072,28384.670591
1 Jan 2020 04:08:11.000,325.484,-75.066,28576.608495
1 Jan 2020 04:08:13.593,325.466,-75.066,28593.208478
1 Jan 2020 05:20:32.939,148.620,-75.071,28596.212802
1 Jan 2020 05:21:02.000,149.013,-75.075,28415.055716
1 Jan 2020 05:21:32.000,149.429,-75.089,28228.438821
1 Jan 2020 05:22:02.000,149.857,-75.112,28042.351265
1 Jan 2020 05:22:32.000,150.299,-75.145,27856.924109
1 Jan 2020 05:23:02.000,150.754,-75.188,27672.290421
1 Jan 2020 05:23:32.000,151.224,-75.240,27488.585229
1 Jan 2020 05:24:02.000,151.709,-75.302,27305.945463
1 Jan 2020 05:24:32.000,152.210,-75.375,27124.509896
1 Jan 2020 05:25:02.000,152.728,-75.457,26944.419065
1 Jan 2020 05:25:32.000,153.265,-75.550,26765.815194
1 Jan 2020 05:26:02.000,153.821,-75.652,26588.842093
1 Jan 2020 05:26:32.000,154.397,-75.765,26413.645059
1 Jan 2020 05:27:02.000,154.996,-75.889,26240.370754
1 Jan 2020 05:27:32.000,155.618,-76.022,26069.167077
1 Jan 2020 05:28:02.000,156.266,-76.166,25900.183023
1 Jan 2020 05:28:32.000,156.940,-76.320,25733.568521
1 Jan 2020 05:29:02.000,157.643,-76.484,25569.474268
1 Jan 2020 05:29:32.000,158.377,-76.658,25408.051209
1 Jan 2020 05:30:02.000,159.144,-76.842,25249.451662
1 Jan 2020 05:30:32.000,159.947,-77.036,25093.827108
1 Jan 2020 05:31:02.000,160.788,-77.239,24941.329291
1 Jan 2020 05:31:32.000,161.671,-77.452,24792.109634
1 Jan 2020 05:32:02.000,162.599,-77.674,24646.318978
1 Jan 2020 05:32:32.000,163.576,-77.904,24504.107299
1 Jan 2020 05:33:02.000,164.605,-78.143,24365.623415
1 Jan 2020 05:33:32.000,165.692,-78.390,24231.014415
1 Jan 2020 05:34:02.000,166.841,-78.644,24100.426384
1 Jan 2020 05:34:32.000,168.058,-78.906,23974.002479
1 Jan 2020 05:35:02.000,169.349,-79.173,23851.883646
1 Jan 2020 05:35:32.000,170.721,-79.446,23734.207992
1 Jan 2020 05:36:02.000,172.182,-79.724,23621.110413
1 Jan 2020 05:36:32.000,173.739,-80.006,23512.722220
1 Jan 2020 05:37:02.000,175.403,-80.290,23409.170528
1 Jan 2020 05:37:32.000,177.182,-80.577,23310.578781
1 Jan 2020 05:38:02.000,179.087,-80.863,23217.064987
1 Jan 2020 05:38:32.000,181.132,-81.149,23128.742261
1 Jan 2020 05:39:02.000,183.327,-81.433,23045.718205
1 Jan 2020 05:39:32.000,185.686,-81.712,22968.094541
1 Jan 2020 05:40:02.000,188.222,-81.986,22895.966585
1 Jan 2020 05:40:32.000,190.949,-82.251,22829.423531
1 Jan 2020 05:41:02.000,193.879,-82.506,22768.547149
1 Jan 2020 05:41:32.000,197.023,-82.747,22713.412122
1 Jan 2020 05:42:02.000,200.388,-82.973,22664.085589
1 Jan 2020 05:42:32.000,203.979,-83.181,22620.626871
1 Jan 2020 05:43:02.000,207.794,-83.367,22583.087142
1 Jan 2020 05:43:32.000,211.824,-83.530,22551.509589
1 Jan 2020 05:44:02.000,216.051,-83.665,22525.928648
1 Jan 2020 05:44:32.000,220.448,-83.771,22506.370261
1 Jan 2020 05:45:02.000,224.978,-83.845,22492.851664
1 Jan 2020 05:45:32.000,229.597,-83.887,22485.381286
1 Jan 2020 05:46:02.000,234.255,-83.895,22483.958812
1 Jan 2020 05:46:32.000,238.898,-83.869,22488.575023
1 Jan 2020 05:47:02.000,243.475,-83.810,22499.211956
1 Jan 2020 05:47:32.000,247.938,-83.718,22515.842948
1 Jan 2020 05:48:02.000,252.248,-83.597,22538.432787
1 Jan 2020 05:48:32.000,256.374,-83.448,22566.937728
1 Jan 2020 05:49:02.000,260.296,-83.275,22601.305866
1 Jan 2020 05:49:32.000,264.000,-83.079,22641.477237
1 Jan 2020 05:50:02.000,267.484,-82.864,22687.384095
1 Jan 2020 05:50:32.000,270.748,-82.632,22738.951187
1 Jan 2020 05:51:02.000,273.801,-82.387,22796.096170
1 Jan 2020 05:51:32.000,276.651,-82.130,22858.729485
1 Jan 2020 05:52:02.000,279.310,-81.865,22926.755358
1 Jan 2020 05:52:32.000,281.792,-81.593,23000.071733
1 Jan 2020 05:53:02.000,284.111,-81.316,23078.570750
1 Jan 2020 05:53:32.000,286.279,-81.037,23162.139129
1 Jan 2020 05:54:02.000,288.308,-80.756,23250.658724
1 Jan 2020 05:54:32.000,290.212,-80.475,23344.006281
1 Jan 2020 05:55:02.000,292.001,-80.195,23442.054777
1 Jan 2020 05:55:32.000,293.686,-79.918,23544.673199
1 Jan 2020 05:56:02.000,295.275,-79.644,23651.727092
1 Jan 2020 05:56:32.000,296.779,-79.375,23763.078944
1 Jan 2020 05:57:02.000,298.203,-79.110,23878.588566
1 Jan 2020 05:57:32.000,299.557,-78.851,23998.113468
1 Jan 2020 05:58:02.000,300.845,-78.599,24121.509457
1 Jan 2020 05:58:32.000,302.074,-78.354,24248.630015
1 Jan 2020 05:59:02.000,303.250,-78.116,24379.328081
1 Jan 2020 05:59:32.000,304.376,-77.885,24513.455410
1 Jan 2020 06:00:02.000,305.458,-77.663,24650.863116
1 Jan 2020 06:00:32.000,306.498,-77.450,24791.401957
1 Jan 2020 06:01:02.000,307.502,-77.245,24934.922609
1 Jan 2020 06:01:32.000,308.471,-77.049,25081.275920
1 Jan 2020 06:02:02.000,309.409,-76.862,25230.313147
1 Jan 2020 06:02:32.000,310.319,-76.684,25381.886176
1 Jan 2020 06:03:02.000,311.202,-76.515,25535.847733
1 Jan 2020 06:03:32.000,312.062,-76.356,25692.051567
1 Jan 2020 06:04:02.000,312.900,-76.207,25850.352923
1 Jan 2020 06:04:32.000,313.719,-76.067,26010.607522
1 Jan 2020 06:05:02.000,314.519,-75.936,26172.673466
1 Jan 2020 06:05:32.000,315.302,-75.815,26336.410197
1 Jan 2020 06:06:02.000,316.071,-75.703,26501.678908
1 Jan 2020 06:06:32.000,316.826,-75.600,26668.342646
1 Jan 2020 06:07:02.000,317.569,-75.507,26836.266403
1 Jan 2020 06:07:32.000,318.301,-75.423,27005.317200
1 Jan 2020 06:08:02.000,319.022,-75.349,27175.364153
1 Jan 2020 06:08:32.000,319.735,-75.283,27346.278539
1 Jan 2020 06:09:02.000,320.440,-75.226,27517.933844
1 Jan 2020 06:09:32.000,321.137,-75.178,27690.205804
1 Jan 2020 06:10:02.000,321.829,-75.139,27862.972445
1 Jan 2020 06:10:32.000,322.515,-75.108,28036.114107
1 Jan 2020 06:11:02.000,323.197,-75.086,28209.513465
1 Jan 2020 06:11:32.000,323.874,-75.072,28383.055545
1 Jan 2020 06:12:02.000,324.549,-75.066,28556.627731
1 Jan 2020 06:12:09.195,324.711,-75.066,28598.250606
1 Jan 2020 07:29:04.229,180.437,-75.075,28604.394095
1 Jan 2020 07:29:34.000,181.440,-75.078,28460.320412
1 Jan 2020 07:30:04.000,182.462,-75.086,28315.799577
1 Jan 2020 07:30:34.000,183.495,-75.100,28172.031810
1 Jan 2020 07:31:04.000,184.540,-75.120,28029.106468
1 Jan 2020 07:31:34.000,185.598,-75.145,27887.113652
1 Jan 2020 07:32:04.000,186.671,-75.175,27746.144153
1 Jan 2020 07:32:34.000,187.758,-75.211,27606.289408
1 Jan 2020 07:33:04.000,188.860,-75.253,27467.641441
1 Jan 2020 07:33:34.000,189.979,-75.300,27330.292806
1 Jan 2020 07:34:04.000,191.115,-75.352,27194.336526
1 Jan 2020 07:34:34.000,192.269,-75.410,27059.866022
1 Jan 2020 07:35:04.000,193.442,-75.473,26926.975041
1 Jan 2020 07:35:34.000,194.636,-75.541,26795.757579
1 Jan 2020 07:36:04.000,195.850,-75.614,26666.307796
1 Jan 2020 07:36:34.000,197.087,-75.691,26538.719933
1 Jan 2020 07:37:04.000,198.347,-75.774,26413.088213
1 Jan 2020 07:37:34.000,199.631,-75.861,26289.506744
1 Jan 2020 07:38:04.000,200.940,-75.952,26168.069420
1 Jan 2020 07:38:34.000,202.277,-76.048,26048.869554
1 Jan 2020 07:39:04.000,203.640,-76.147,25932.000777
1 Jan 2020 07:39:34.000,205.033,-76.250,25817.555398
1 Jan 2020 07:40:04.000,206.457,-76.356,25705.625296
1 Jan 2020 07:40:34.000,207.911,-76.466,25596.301536
1 Jan 2020 07:41:04.000,209.398,-76.578,25489.674234
1 Jan 2020 07:41:34.000,210.919,-76.693,25385.832424
1 Jan 2020 07:42:04.000,212.476,-76.810,25284.863909
1 Jan 2020 07:42:34.000,214.068,-76.929,25186.855118
1 Jan 2020 07:43:04.000,215.698,-77.049,25091.890956
1 Jan 2020 07:43:34.000,217.367,-77.171,25000.054468
1 Jan 2020 07:44:04.000,219.075,-77.292,24911.427433
1 Jan 2020 07:44:34.000,220.824,-77.414,24826.089073
1 Jan 2020 07:45:04.000,222.615,-77.535,24744.116654
1 Jan 2020 07:45:34.000,224.448,-77.656,24665.585146
1 Jan 2020 07:46:04.000,226.323,-77.775,24590.567053
1 Jan 2020 07:46:34.000,228.243,-77.892,24519.132263
1 Jan 2020 07:47:04.000,230.205,-78.006,24451.347892
1 Jan 2020 07:47:34.000,232.212,-78.118,24387.278125
1 Jan 2020 07:48:04.000,234.262,-78.226,24326.983939
1 Jan 2020 07:48:34.000,236.355,-78.329,24270.523495
1 Jan 2020 07:49:04.000,238.490,-78.428,24217.951171
1 Jan 2020 07:49:34.000,240.666,-78.522,24169.317985
1 Jan 2020 07:50:04.000,242.881,-78.609,24124.671324
1 Jan 2020 07:50:34.000,245.134,-78.691,24084.054821
1 Jan 2020 07:51:04.000,247.422,-78.765,24047.508240
1 Jan 2020 07:51:34.000,249.743,-78.833,24015.067374
1 Jan 2020 07:52:04.000,252.093,-78.892,23986.763883
1 Jan 2020 07:52:34.000,254.470,-78.944,23962.625462
1 Jan 2020 07:53:04.000,256.870,-78.986,23942.675374
1 Jan 2020 07:53:34.000,259.288,-79.020,23926.932656
1 Jan 2020 07:54:04.000,261.721,-79.046,23915.411997
1 Jan 2020 07:54:34.000,264.164,-79.061,23908.123696
1 Jan 2020 07:55:04.000,266.613,-79.068,23905.073635
1 Jan 2020 07:55:34.000,269.062,-79.065,23906.263263
1 Jan 2020 07:56:04.000,271.508,-79.053,23911.689608
1 Jan 2020 07:56:34.000,273.946,-79.032,23921.345236
1 Jan 2020 07:57:04.000,276.370,-79.002,23935.218333
1 Jan 2020 07:57:34.000,278.778,-78.962,23953.292714
1 Jan 2020 07:58:04.000,281.165,-78.915,23975.547870
1 Jan 2020 07:58:34.000,283.526,-78.859,24001.959028
1 Jan 2020 07:59:04.000,285.860,-78.795,24032.497223
1 Jan 2020 07:59:34.000,288.162,-78.723,24067.129378
1 Jan 2020 08:00:04.000,290.430,-78.645,24105.818486
1 Jan 2020 08:00:34.000,292.661,-78.560,24148.523367
1 Jan 2020 08:01:04.000,294.854,-78.469,24195.199277
1 Jan 2020 08:01:34.000,297.007,-78.373,24245.797711
1 Jan 2020 08:02:04.000,299.118,-78.271,24300.266598
1 Jan 2020 08:02:34.000,301.188,-78.166,24358.550444
1 Jan 2020 08:03:04.000,303.214,-78.056,24420.590465
1 Jan 2020 08:03:34.000,305.197,-77.943,24486.324740
1 Jan 2020 08:04:04.000,307.137,-77.828,24555.688350
1 Jan 2020 08:04:34.000,309.034,-77.710,24628.613705
1 Jan 2020 08:05:04.000,310.888,-77.591,24705.030047
1 Jan 2020 08:05:34.000,312.700,-77.470,24784.864569
1 Jan 2020 08:06:04.000,314.471,-77.349,24868.041942
1 Jan 2020 08:06:34.000,316.201,-77.228,24954.484628
1 Jan 2020 08:07:04.000,317.891,-77.107,25044.113044
1 Jan 2020 08:07:34.000,319.543,-76.987,25136.845718
1 Jan 2020 08:08:04.000,321.158,-76.868,25232.599443
1 Jan 2020 08:08:34.000,322.736,-76.751,25331.289436
1 Jan 2020 08:09:04.000,324.279,-76.636,25432.829489
1 Jan 2020 08:09:34.000,325.789,-76.523,25537.132116
1 Jan 2020 08:10:04.000,327.265,-76.412,25644.108922
1 Jan 2020 08:10:34.000,328.711,-76.305,25753.669856
1 Jan 2020 08:11:04.000,330.126,-76.200,25865.724673
1 Jan 2020 08:11:34.000,331.512,-76.100,25980.182191
1 Jan 2020 08:12:04.000,332.871,-76.003,26096.950632
1 Jan 2020 08:12:34.000,334.203,-75.910,26215.937747
1 Jan 2020 08:13:04.000,335.509,-75.821,26337.050934
1 Jan 2020 08:13:34.000,336.792,-75.736,26460.197348
1 Jan 2020 08:14:04.000,338.051,-75.656,26585.284009
1 Jan 2020 08:14:34.000,339.288,-75.581,26712.217905
1 Jan 2020 08:15:04.000,340.504,-75.510,26840.906085
1 Jan 2020 08:15:34.000,341.701,-75.445,26971.255751
1 Jan 2020 08:16:04.000,342.878,-75.384,27103.174343
1 Jan 2020 08:16:34.000,344.037,-75.329,27236.569621
1 Jan 2020 08:17:04.000,345.179,-75.279,27371.349736
1 Jan 2020 08:17:34.000,346.305,-75.234,27507.423305
1 Jan 2020 08:18:04.000,347.415,-75.194,27644.699471
1 Jan 2020 08:18:34.000,348.511,-75.160,27783.087968
1 Jan 2020 08:19:04.000,349.593,-75.131,27922.499175
1 Jan 2020 08:19:34.000,350.662,-75.108,28062.844165
1 Jan 2020 08:20:04.000,351.719,-75.090,28204.034756
1 Jan 2020 08:20:34.000,352.765,-75.077,28345.983555
1 Jan 2020 08:21:04.000,353.800,-75.070,28488.603990
1 Jan 2020 08:21:28.715,354.645,-75.068,28606.541764
1 Jan 2020 09:39:06.876,213.641,-75.075,28610.524369
1 Jan 2020 09:39:36.000,214.372,-75.078,28447.201225
1 Jan 2020 09:40:06.000,215.129,-75.089,28278.999667
1 Jan 2020 09:40:36.000,215.890,-75.108,28110.941748
1 Jan 2020 09:41:06.000,216.658,-75.134,27943.137002
1 Jan 2020 09:41:36.000,217.431,-75.169,27775.697148
1 Jan 2020 09:42:06.000,218.212,-75.211,27608.736076
1 Jan 2020 09:42:36.000,219.000,-75.262,27442.369825
1 Jan 2020 09:43:06.000,219.798,-75.321,27276.716555
1 Jan 2020 09:43:36.000,220.606,-75.388,27111.896513
1 Jan 2020 09:44:06.000,221.425,-75.464,26948.031992
1 Jan 2020 09:44:36.000,222.256,-75.548,26785.247280
1 Jan 2020 09:45:06.000,223.101,-75.641,26623.668605
1 Jan 2020 09:45:36.000,223.961,-75.742,26463.424066
1 Jan 2020 09:46:06.000,224.837,-75.852,26304.643558
1 Jan 2020 09:46:36.000,225.730,-75.971,26147.458687
1 Jan 2020 09:47:06.000,226.643,-76.098,25992.002670
1 Jan 2020 09:47:36.000,227.577,-76.234,25838.410230
1 Jan 2020 09:48:06.000,228.533,-76.378,25686.817473
1 Jan 2020 09:48:36.000,229.515,-76.531,25537.361757
1 Jan 2020 09:49:06.000,230.523,-76.693,25390.181546
1 Jan 2020 09:49:36.000,231.561,-76.862,25245.415982
1 Jan 2020 09:50:06.000,232.631,-77.040,25103.205795
1 Jan 2020 09:50:36.000,233.735,-77.225,24963.691485
1 Jan 2020 09:51:06.000,234.876,-77.418,24827.014209
1 Jan 2020 09:51:36.000,236.059,-77.619,24693.315298
1 Jan 2020 09:52:06.000,237.286,-77.826,24562.736019
1 Jan 2020 09:52:36.000,238.560,-78.041,24435.417335
1 Jan 2020 09:53:06.000,239.887,-78.261,24311.499644
1 Jan 2020 09:53:36.000,241.271,-78.487,24191.122503
1 Jan 2020 09:54:06.000,242.716,-78.719,24074.424126
1 Jan 2020 09:54:36.000,244.228,-78.955,23961.541959
1 Jan 2020 09:55:06.000,245.813,-79.195,23852.611039
1 Jan 2020 09:55:36.000,247.476,-79.439,23747.764565
1 Jan 2020 09:56:06.000,249.224,-79.685,23647.133336
1 Jan 2020 09:56:36.000,251.065,-79.932,23550.845409
1 Jan 2020 09:57:06.000,253.005,-80.180,23459.025752
1 Jan 2020 09:57:36.000,255.052,-80.426,23371.795724
1 Jan 2020 09:58:06.000,257.214,-80.671,23289.273364
1 Jan 2020 09:58:36.000,259.500,-80.913,23211.572050
1 Jan 2020 09:59:06.000,261.916,-81.149,23138.800800
1 Jan 2020 09:59:36.000,264.471,-81.379,23071.063752
1 Jan 2020 10:00:06.000,267.172,-81.601,23008.459808
1 Jan 2020 10:00:36.000,270.023,-81.813,22951.082198
1 Jan 2020 10:01:06.000,273.028,-82.012,22899.018540
1 Jan 2020 10:01:36.000,276.190,-82.198,22852.349919
1 Jan 2020 10:02:06.000,279.505,-82.367,22811.150996
1 Jan 2020 10:02:36.000,282.970,-82.518,22775.489622
1 Jan 2020 10:03:06.000,286.573,-82.649,22745.426570
1 Jan 2020 10:03:36.000,290.301,-82.757,22721.015270
1 Jan 2020 10:04:06.000,294.135,-82.842,22702.301731
1 Jan 2020 10:04:36.000,298.050,-82.901,22689.324131
1 Jan 2020 10:05:06.000,302.020,-82.935,22682.112826
1 Jan 2020 10:05:36.000,306.013,-82.941,22680.690177
1 Jan 2020 10:06:06.000,309.998,-82.921,22685.070461
1 Jan 2020 10:06:36.000,313.945,-82.874,22695.259852
1 Jan 2020 10:07:06.000,317.823,-82.801,22711.256238
1 Jan 2020 10:07:36.000,321.606,-82.703,22733.049446
1 Jan 2020 10:08:06.000,325.272,-82.582,22760.621152
1 Jan 2020 10:08:36.000,328.803,-82.439,22793.944983
1 Jan 2020 10:09:06.000,332.187,-82.276,22832.986625
1 Jan 2020 10:09:36.000,335.415,-82.096,22877.704077
1 Jan 2020 10:10:06.000,338.483,-81.900,22928.047367
1 Jan 2020 10:10:36.000,341.391,-81.690,22983.959405
1 Jan 2020 10:11:06.000,344.142,-81.469,23045.375780
1 Jan 2020 10:11:36.000,346.738,-81.238,23112.225108
1 Jan 2020 10:12:06.000,349.187,-81.000,23184.429298
1 Jan 2020 10:12:36.000,351.495,-80.755,23261.904012
1 Jan 2020 10:13:06.000,353.670,-80.506,23344.558292
1 Jan 2020 10:13:36.000,355.720,-80.254,23432.295871
1 Jan 2020 10:14:06.000,357.653,-80.000,23525.014855
1 Jan 2020 10:14:36.000,359.477,-79.746,23622.608211
1 Jan 2020 10:15:06.000,1.200,-79.493,23724.964120
1 Jan 2020 10:15:36.000,2.827,-79.242,23831.966317
1 Jan 2020 10:16:06.000,4.367,-78.994,23943.494686
1 Jan 2020 10:16:36.000,5.826,-78.749,24059.424655
1 Jan 2020 10:17:06.000,7.210,-78.509,24179.628953
1 Jan 2020 10:17:36.000,8.523,-78.274,24303.977021
1 Jan 2020 10:18:06.000,9.772,-78.045,24432.335578
1 Jan 2020 10:18:36.000,10.961,-77.823,24564.568943
1 Jan 2020 10:19:06.000,12.094,-77.607,24700.539361
1 Jan 2020 10:19:36.000,13.175,-77.399,24840.107302
1 Jan 2020 10:20:06.000,14.209,-77.198,24983.131761
1 Jan 2020 10:20:36.000,15.197,-77.005,25129.470844
1 Jan 2020 10:21:06.000,16.144,-76.821,25278.980839
1 Jan 2020 10:21:36.000,17.052,-76.646,25431.518262
1 Jan 2020 10:22:06.000,17.924,-76.479,25586.938913
1 Jan 2020 10:22:36.000,18.762,-76.321,25745.098403
1 Jan 2020 10:23:06.000,19.568,-76.172,25905.852373
1 Jan 2020 10:23:36.000,20.345,-76.033,26069.056691
1 Jan 2020 10:24:06.000,21.094,-75.903,26234.567643
1 Jan 2020 10:24:36.000,21.817,-75.783,26402.242108
1 Jan 2020 10:25:06.000,22.515,-75.672,26571.937720
1 Jan 2020 10:25:36.000,23.191,-75.570,26743.513018
1 Jan 2020 10:26:06.000,23.846,-75.478,26916.827580
1 Jan 2020 10:26:36.000,24.480,-75.396,27091.742150
1 Jan 2020 10:27:06.000,25.095,-75.323,27268.118753
1 Jan 2020 10:27:36.000,25.692,-75.260,27445.820791
1 Jan 2020 10:28:06.000,26.272,-75.206,27624.713145
1 Jan 2020 10:28:36.000,26.836,-75.161,27804.662248
1 Jan 2020 10:29:06.000,27.385,-75.126,27985.536164
1 Jan 2020 10:29:36.000,27.920,-75.100,28167.204653
1 Jan 2020 10:30:06.000,28.442,-75.083,28349.539225
1 Jan 2020 10:30:36.000,28.951,-75.074,28532.413189
1 Jan 2020 10:30:48.880,29.166,-75.074,28611.058683
1 Jan 2020 11:43:14.209,215.850,-75.071,28609.623495
1 Jan 2020 11:43:44.000,215.743,-75.076,28417.580707
1 Jan 2020 11:44:14.000,215.626,-75.091,28224.375143
1 Jan 2020 11:44:44.000,215.501,-75.116,28031.484929
1 Jan 2020 11:45:14.000,215.367,-75.151,27839.044933
1 Jan 2020 11:45:44.000,215.224,-75.197,27647.192502
1 Jan 2020 11:46:14.000,215.071,-75.254,27456.067427
1 Jan 2020 11:46:44.000,214.908,-75.321,27265.811913
1 Jan 2020 11:47:14.000,214.734,-75.400,27076.570536
1 Jan 2020 11:47:44.000,214.550,-75.490,26888.490183
1 Jan 2020 11:48:14.000,214.354,-75.591,26701.719996
1 Jan 2020 11:48:44.000,214.145,-75.704,26516.411291
1 Jan 2020 11:49:14.000,213.924,-75.828,26332.717475
1 Jan 2020 11:49:44.000,213.689,-75.964,26150.793942
1 Jan 2020 11:50:14.000,213.440,-76.112,25970.797964
1 Jan 2020 11:50:44.000,213.175,-76.272,25792.888560
1 Jan 2020 11:51:14.000,212.894,-76.444,25617.226350
1 Jan 2020 11:51:44.000,212.595,-76.628,25443.973402
1 Jan 2020 11:52:14.000,212.278,-76.824,25273.293045
1 Jan 2020 11:52:44.000,211.940,-77.033,25105.349340
1 Jan 2020 11:53:14.000,211.580,-77.253,24940.308234
1 Jan 2020 11:53:44.000,211.196,-77.485,24778.335261
1 Jan 2020 11:54:14.000,210.786,-77.730,24619.596675
1 Jan 2020 11:54:44.000,210.348,-77.986,24464.258826
1 Jan 2020 11:55:14.000,209.880,-78.254,24312.487871
1 Jan 2020 11:55:44.000,209.377,-78.534,24164.449459
1 Jan 2020 11:56:14.000,208.836,-78.826,24020.308396
1 Jan 2020 11:56:44.000,208.255,-79.128,23880.228025
1 Jan 2020 11:57:14.000,207.627,-79.442,23744.370950
1 Jan 2020 11:57:44.000,206.947,-79.766,23612.896983
1 Jan 2020 11:58:14.000,206.210,-80.100,23485.963858
1 Jan 2020 11:58:44.000,205.407,-80.444,23363.726522
1 Jan 2020 11:59:14.000,204.530,-80.797,23246.336701
1 Jan 2020 11:59:44.000,203.569,-81.159,23133.942246
1 Jan 2020 12:00:14.000,202.510,-81.529,23026.687517
1 Jan 2020 12:00:44.000,201.340,-81.906,22924.711637
1 Jan 2020 12:01:14.000,200.040,-82.289,22828.148891
1 Jan 2020 12:01:44.000,198.588,-82.677,22737.128035
1 Jan 2020 12:02:14.000,196.957,-83.069,22651.771831
1 Jan 2020 12:02:44.000,195.114,-83.464,22572.196419
1 Jan 2020 12:03:14.000,193.018,-83.859,22498.511559
1 Jan 2020 12:03:44.000,190.618,-84.252,22430.819138
1 Jan 2020 12:04:14.000,187.852,-84.641,22369.213466
1 Jan 2020 12:04:44.000,184.640,-85.022,22313.780705
1 Jan 2020 12:05:14.000,180.888,-85.391,22264.598398
1 Jan 2020 12:05:44.000,176.484,-85.742,22221.735526
1 Jan 2020 12:06:14.000,171.303,-86.068,22185.251591
1 Jan 2020 12:06:44.000,165.222,-86.361,22155.196763
1 Jan 2020 12:07:14.000,158.149,-86.610,22131.611544
1 Jan 2020 12:07:44.000,150.079,-86.804,22114.526542
1 Jan 2020 12:08:14.000,141.153,-86.930,22103.962483
1 Jan 2020 12:08:44.000,131.699,-86.980,22099.929860
1 Jan 2020 12:09:14.000,122.184,-86.949,22102.429064
1 Jan 2020 12:09:44.000,113.096,-86.841,22111.450334
1 Jan 2020 12:10:14.000,104.800,-86.663,22126.973828
1 Jan 2020 12:10:44.000,97.479,-86.426,22148.969612
1 Jan 2020 12:11:14.000,91.156,-86.144,22177.397940
1 Jan 2020 12:11:44.000,85.753,-85.826,22212.209353
1 Jan 2020 12:12:14.000,81.151,-85.481,22253.344929
1 Jan 2020 12:12:44.000,77.224,-85.118,22300.736636
1 Jan 2020 12:13:14.000,73.856,-84.742,22354.307283
1 Jan 2020 12:13:44.000,70.948,-84.357,22413.971375
1 Jan 2020 12:14:14.000,68.418,-83.967,22479.635148
1 Jan 2020 12:14:44.000,66.201,-83.575,22551.197047
1 Jan 2020 12:15:14.000,64.241,-83.184,22628.548146
1 Jan 2020 12:15:44.000,62.498,-82.794,22711.572757
1 Jan 2020 12:16:14.000,60.935,-82.408,22800.148196
1 Jan 2020 12:16:44.000,59.524,-82.026,22894.146264
1 Jan 2020 12:17:14.000,58.242,-81.651,22993.433051
1 Jan 2020 12:17:44.000,57.071,-81.283,23097.869576
1 Jan 2020 12:18:14.000,55.995,-80.922,23207.312256
1 Jan 2020 12:18:44.000,55.001,-80.570,23321.613387
1 Jan 2020 12:19:14.000,54.077,-80.227,23440.621846
1 Jan 2020 12:19:44.000,53.215,-79.894,23564.182569
1 Jan 2020 12:20:14.000,52.407,-79.570,23692.138456
1 Jan 2020 12:20:44.000,51.647,-79.257,23824.329839
1 Jan 2020 12:21:14.000,50.928,-78.955,23960.595130
1 Jan 2020 12:21:44.000,50.246,-78.663,24100.771225
1 Jan 2020 12:22:14.000,49.597,-78.383,24244.693879
1 Jan 2020 12:22:44.000,48.977,-78.114,24392.198072
1 Jan 2020 12:23:14.000,48.382,-77.857,24543.118343
1 Jan 2020 12:23:44.000,47.810,-77.611,24697.289419
1 Jan 2020 12:24:14.000,47.259,-77.377,24854.545309
1 Jan 2020 12:24:44.000,46.725,-77.154,25014.721378
1 Jan 2020 12:25:14.000,46.208,-76.944,25177.653415
1 Jan 2020 12:25:44.000,45.705,-76.745,25343.178171
1 Jan 2020 12:26:14.000,45.216,-76.558,25511.133574
1 Jan 2020 12:26:44.000,44.737,-76.383,25681.358931
1 Jan 2020 12:27:14.000,44.269,-76.219,25853.695109
1 Jan 2020 12:27:44.000,43.809,-76.067,26027.984700
1 Jan 2020 12:28:14.000,43.358,-75.926,26204.072165
1 Jan 2020 12:28:44.000,42.913,-75.797,26381.803969
1 Jan 2020 12:29:14.000,42.474,-75.679,26561.028693
1 Jan 2020 12:29:44.000,42.041,-75.572,26741.597140
1 Jan 2020 12:30:14.000,41.612,-75.476,26923.362418
1 Jan 2020 12:30:44.000,41.186,-75.390,27106.180019
1 Jan 2020 12:31:14.000,40.764,-75.316,27289.907882
1 Jan 2020 12:31:44.000,40.344,-75.251,27474.406447
1 Jan 2020 12:32:14.000,39.925,-75.197,27659.538700
1 Jan 2020 12:32:44.000,39.508,-75.154,27845.170203
1 Jan 2020 12:33:14.000,39.092,-75.120,28031.169124
1 Jan 2020 12:33:44.000,38.675,-75.095,28217.406255
1 Jan 2020 12:34:14.000,38.259,-75.081,28403.755023
1 Jan 2020 12:34:44.000,37.841,-75.075,28590.091496
1 Jan 2020 12:34:46.888,37.801,-75.075,28608.024829
1 Jan 2020 13:49:31.919,192.651,-75.066,28602.465517
1 Jan 2020 13:50:01.000,191.784,-75.069,28450.375767
1 Jan 2020 13:50:31.000,190.876,-75.079,28294.202198
1 Jan 2020 13:51:01.000,189.955,-75.095,28138.863719
1 Jan 2020 13:51:31.000,189.020,-75.118,27984.462451
1 Jan 2020 13:52:01.000,188.069,-75.147,27831.101337
1 Jan 2020 13:52:31.000,187.103,-75.182,27678.884081
1 Jan 2020 13:53:01.000,186.120,-75.224,27527.915087
1 Jan 2020 13:53:31.000,185.119,-75.273,27378.299385
1 Jan 2020 13:54:01.000,184.100,-75.328,27230.142557
1 Jan 2020 13:54:31.000,183.060,-75.389,27083.550657
1 Jan 2020 13:55:01.000,182.000,-75.457,26938.630122
1 Jan 2020 13:55:31.000,180.918,-75.531,26795.487677
1 Jan 2020 13:56:01.000,179.813,-75.611,26654.230237
1 Jan 2020 13:56:31.000,178.683,-75.696,26514.964800
1 Jan 2020 13:57:01.000,177.528,-75.788,26377.798334
1 Jan 2020 13:57:31.000,176.346,-75.885,26242.837657
1 Jan 2020 13:58:01.000,175.135,-75.987,26110.189307
1 Jan 2020 13:58:31.000,173.895,-76.095,25979.959137
1 Jan 2020 13:59:01.000,172.624,-76.208,25852.253292
1 Jan 2020 13:59:31.000,171.321,-76.325,25727.176374
1 Jan 2020 14:00:01.000,169.983,-76.447,25604.832419
1 Jan 2020 14:00:31.000,168.610,-76.572,25485.324456
1 Jan 2020 14:01:01.000,167.199,-76.702,25368.754345
1 Jan 2020 14:01:31.000,165.750,-76.835,25255.222603
1 Jan 2020 14:02:01.000,164.260,-76.971,25144.828229
1 Jan 2020 14:02:31.000,162.727,-77.109,25037.668528
1 Jan 2020 14:03:01.000,161.151,-77.250,24933.838924
1 Jan 2020 14:03:31.000,159.529,-77.392,24833.432548
1 Jan 2020 14:04:01.000,157.860,-77.536,24736.540960
1 Jan 2020 14:04:31.000,156.142,-77.680,24643.252576
1 Jan 2020 14:05:01.000,154.374,-77.824,24553.653407
1 Jan 2020 14:05:31.000,152.554,-77.967,24467.826626
1 Jan 2020 14:06:01.000,150.681,-78.109,24385.852378
1 Jan 2020 14:06:31.000,148.754,-78.249,24307.807589
1 Jan 2020 14:07:01.000,146.773,-78.387,24233.765776
1 Jan 2020 14:07:31.000,144.737,-78.521,24163.796709
1 Jan 2020 14:08:01.000,142.645,-78.652,24097.966858
1 Jan 2020 14:08:31.000,140.498,-78.777,24036.338265
1 Jan 2020 14:09:01.000,138.296,-78.898,23978.969019
1 Jan 2020 14:09:31.000,136.041,-79.012,23925.912936
1 Jan 2020 14:10:01.000,133.734,-79.119,23877.219408
1 Jan 2020 14:10:31.000,131.376,-79.219,23832.933265
1 Jan 2020 14:11:01.000,128.971,-79.311,23793.094555
1 Jan 2020 14:11:31.000,126.522,-79.394,23757.738793
1 Jan 2020 14:12:01.000,124.033,-79.468,23726.896300
1 Jan 2020 14:12:31.000,121.507,-79.531,23700.592492
1 Jan 2020 14:13:01.000,118.950,-79.584,23678.847713
1 Jan 2020 14:13:31.000,116.367,-79.627,23661.677168
1 Jan 2020 14:14:01.000,113.764,-79.658,23649.090887
1 Jan 2020 14:14:31.000,111.147,-79.679,23641.093667
1 Jan 2020 14:15:01.000,108.522,-79.687,23637.685169
1 Jan 2020 14:15:31.000,105.896,-79.684,23638.859750
1 Jan 2020 14:16:01.000,103.274,-79.670,23644.606609
1 Jan 2020 14:16:31.000,100.664,-79.645,23654.909794
1 Jan 2020 14:17:01.000,98.072,-79.608,23669.748249
1 Jan 2020 14:17:31.000,95.502,-79.561,23689.095889
1 Jan 2020 14:18:01.000,92.961,-79.503,23712.921730
1 Jan 2020 14:18:31.000,90.454,-79.435,23741.189814
1 Jan 2020 14:19:01.000,87.984,-79.358,23773.859568
1 Jan 2020 14:19:31.000,85.555,-79.272,23810.885775
1 Jan 2020 14:20:01.000,83.171,-79.178,23852.218747
1 Jan 2020 14:20:31.000,80.835,-79.076,23897.804479
1 Jan 2020 14:21:01.000,78.548,-78.968,23947.584806
1 Jan 2020 14:21:31.000,76.312,-78.853,24001.497570
1 Jan 2020 14:22:01.000,74.129,-78.733,24059.476921
1 Jan 2020 14:22:31.000,71.997,-78.608,24121.453019
1 Jan 2020 14:23:01.000,69.919,-78.479,24187.352932
1 Jan 2020 14:23:31.000,67.893,-78.347,24257.100363
1 Jan 2020 14:24:01.000,65.920,-78.212,24330.615964
1 Jan 2020 14:24:31.000,63.997,-78.074,24407.817535
1 Jan 2020 14:25:01.000,62.125,-77.936,24488.620223
1 Jan 2020 14:25:31.000,60.302,-77.796,24572.936723
1 Jan 2020 14:26:01.000,58.527,-77.657,24660.677482
1 Jan 2020 14:26:31.000,56.797,-77.517,24751.751075
1 Jan 2020 14:27:01.000,55.113,-77.379,24846.063678
1 Jan 2020 14:27:31.000,53.471,-77.241,24943.520343
1 Jan 2020 14:28:01.000,51.871,-77.106,25044.024469
1 Jan 2020 14:28:31.000,50.311,-76.973,25147.478166
1 Jan 2020 14:29:01.000,48.789,-76.842,25253.782434
1 Jan 2020 14:29:31.000,47.303,-76.714,25362.837340
1 Jan 2020 14:30:01.000,45.851,-76.590,25474.542179
1 Jan 2020 14:30:31.000,44.433,-76.469,25588.795643
1 Jan 2020 14:31:01.000,43.047,-76.352,25705.495971
1 Jan 2020 14:31:31.000,41.690,-76.239,25824.541098
1 Jan 2020 14:32:01.000,40.361,-76.130,25945.828799
1 Jan 2020 14:32:31.000,39.060,-76.026,26069.256818
1 Jan 2020 14:33:01.000,37.784,-75.927,26194.723249
1 Jan 2020 14:33:31.000,36.533,-75.833,26322.125660
1 Jan 2020 14:34:01.000,35.304,-75.744,26451.362689
1 Jan 2020 14:34:31.000,34.097,-75.660,26582.333163
1 Jan 2020 14:35:01.000,32.911,-75.582,26714.936444
1 Jan 2020 14:35:31.000,31.744,-75.509,26849.072521
1 Jan 2020 14:36:01.000,30.595,-75.441,26984.642092
1 Jan 2020 14:36:31.000,29.463,-75.379,27121.546643
1 Jan 2020 14:37:01.000,28.347,-75.323,27259.688523
1 Jan 2020 14:37:31.000,27.246,-75.273,27398.971007
1 Jan 2020 14:38:01.000,26.160,-75.228,27539.298357
1 Jan 2020 14:38:31.000,25.087,-75.189,27680.575878
1 Jan 2020 14:39:01.000,24.026,-75.155,27822.709964
1 Jan 2020 14:39:31.000,22.976,-75.128,27965.608147
1 Jan 2020 14:40:01.000,21.937,-75.106,28109.179134
1 Jan 2020 14:40:31.000,20.908,-75.090,28253.332839
1 Jan 2020 14:41:01.000,19.889,-75.079,28397.980421
1 Jan 2020 14:41:31.000,18.877,-75.074,28543.034303
1 Jan 2020 14:41:42.793,18.482,-75.074,28600.147463
1 Jan 2020 16:00:49.566,153.437,-75.065,28594.835315
1 Jan 2020 16:01:19.000,152.526,-75.068,28444.319225
1 Jan 2020 16:01:49.000,151.592,-75.078,28291.104261
1 Jan 2020 16:02:19.000,150.651,-75.093,28138.181224
1 Jan 2020 16:02:49.000,149.701,-75.116,27985.646021
1 Jan 2020 16:03:19.000,148.743,-75.144,27833.596242
1 Jan 2020 16:03:49.000,147.774,-75.179,27682.131135
1 Jan 2020 16:04:19.000,146.795,-75.221,27531.351582
1 Jan 2020 16:04:49.000,145.805,-75.269,27381.360064
1 Jan 2020 16:05:19.000,144.802,-75.324,27232.260624
1 Jan 2020 16:05:49.000,143.785,-75.386,27084.158824
1 Jan 2020 16:06:19.000,142.753,-75.455,26937.161693
1 Jan 2020 16:06:49.000,141.706,-75.530,26791.377674
1 Jan 2020 16:07:19.000,140.641,-75.611,26646.916558
1 Jan 2020 16:07:49.000,139.559,-75.700,26503.889411
1 Jan 2020 16:08:19.000,138.456,-75.794,26362.408501
1 Jan 2020 16:08:49.000,137.333,-75.896,26222.587206
1 Jan 2020 16:09:19.000,136.187,-76.003,26084.539921
1 Jan 2020 16:09:49.000,135.017,-76.117,25948.381953
1 Jan 2020 16:10:19.000,133.821,-76.237,25814.229411
1 Jan 2020 16:10:49.000,132.597,-76.363,25682.199077
1 Jan 2020 16:11:19.000,131.345,-76.495,25552.408037
1 Jan 2020 16:11:49.000,130.061,-76.633,25424.974516
1 Jan 2020 16:12:19.000,128.743,-76.775,25300.016248
1 Jan 2020 16:12:49.000,127.391,-76.923,25177.651306
1 Jan 2020 16:13:19.000,126.001,-77.076,25057.997679
1 Jan 2020 16:13:49.000,124.570,-77.233,24941.173095
1 Jan 2020 16:14:19.000,123.098,-77.394,24827.294823
1 Jan 2020 16:14:49.000,121.580,-77.558,24716.479477
1 Jan 2020 16:15:19.000,120.015,-77.726,24608.842804
1 Jan 2020 16:15:49.000,118.399,-77.896,24504.499464
1 Jan 2020 16:16:19.000,116.731,-78.069,24403.562605
1 Jan 2020 16:16:49.000,115.007,-78.243,24306.144425
1 Jan 2020 16:17:19.000,113.223,-78.418,24212.354721
1 Jan 2020 16:17:49.000,111.379,-78.593,24122.301456
1 Jan 2020 16:18:19.000,109.470,-78.768,24036.090297
1 Jan 2020 16:18:49.000,107.494,-78.941,23953.824356
1 Jan 2020 16:19:19.000,105.449,-79.112,23875.603933
1 Jan 2020 16:19:49.000,103.333,-79.280,23801.526249
1 Jan 2020 16:20:19.000,101.143,-79.444,23731.685050
1 Jan 2020 16:20:49.000,98.878,-79.603,23666.170887
1 Jan 2020 16:21:19.000,96.538,-79.756,23605.070030
1 Jan 2020 16:21:49.000,94.122,-79.902,23548.464773
1 Jan 2020 16:22:19.000,91.630,-80.041,23496.433040
1 Jan 2020 16:22:49.000,89.065,-80.170,23449.048143
1 Jan 2020 16:23:19.000,86.429,-80.289,23406.378550
1 Jan 2020 16:23:49.000,83.725,-80.397,23368.487598
1 Jan 2020 16:24:19.000,80.957,-80.494,23335.433542
1 Jan 2020 16:24:49.000,78.132,-80.577,23307.268957
1 Jan 2020 16:25:19.000,75.258,-80.647,23284.040834
1 Jan 2020 16:25:49.000,72.341,-80.703,23265.790347
1 Jan 2020 16:26:19.000,69.391,-80.744,23252.552703
1 Jan 2020 16:26:49.000,66.417,-80.769,23244.357020
1 Jan 2020 16:27:19.000,63.432,-80.779,23241.226224
1 Jan 2020 16:27:49.000,60.445,-80.773,23243.176944
1 Jan 2020 16:28:19.000,57.467,-80.751,23250.219473
1 Jan 2020 16:28:49.000,54.509,-80.714,23262.357721
1 Jan 2020 16:29:19.000,51.582,-80.661,23279.589195
1 Jan 2020 16:29:49.000,48.695,-80.594,23301.905066
1 Jan 2020 16:30:19.000,45.856,-80.513,23329.289962
1 Jan 2020 16:30:49.000,43.075,-80.418,23361.722360
1 Jan 2020 16:31:19.000,40.357,-80.310,23399.174437
1 Jan 2020 16:31:49.000,37.707,-80.191,23441.612221
1 Jan 2020 16:32:19.000,35.130,-80.062,23488.995699
1 Jan 2020 16:32:49.000,32.630,-79.922,23541.278957
1 Jan 2020 16:33:19.000,30.207,-79.774,23598.410470
1 Jan 2020 16:33:49.000,27.864,-79.618,23660.332709
1 Jan 2020 16:34:19.000,25.600,-79.456,23726.983154
1 Jan 2020 16:34:49.000,23.416,-79.288,23798.293953
1 Jan 2020 16:35:19.000,21.309,-79.116,23874.192257
1 Jan 2020 16:35:49.000,19.279,-78.940,23954.600450
1 Jan 2020 16:36:19.000,17.324,-78.762,24039.436376
1 Jan 2020 16:36:49.000,15.441,-78.582,24128.613765
1 Jan 2020 16:37:19.000,13.627,-78.401,24222.041728
1 Jan 2020 16:37:49.000,11.880,-78.220,24319.626120
1 Jan 2020 16:38:19.000,10.198,-78.040,24421.269056
1 Jan 2020 16:38:49.000,8.577,-77.861,24526.869344
1 Jan 2020 16:39:19.000,7.015,-77.684,24636.322741
1 Jan 2020 16:39:49.000,5.509,-77.510,24749.522199
1 Jan 2020 16:40:19.000,4.056,-77.339,24866.358118
1 Jan 2020 16:40:49.000,2.653,-77.172,24986.718589
1 Jan 2020 16:41:19.000,1.299,-77.010,25110.489900
1 Jan 2020 16:41:49.000,359.989,-76.852,25237.555718
1 Jan 2020 16:42:19.000,358.723,-76.699,25367.798885
1 Jan 2020 16:42:49.000,357.498,-76.552,25501.100600
1 Jan 2020 16:43:19.000,356.311,-76.410,25637.340893
1 Jan 2020 16:43:49.000,355.160,-76.275,25776.398828
1 Jan 2020 16:44:19.000,354.044,-76.146,25918.152699
1 Jan 2020 16:44:49.000,352.961,-76.024,26062.480222
1 Jan 2020 16:45:19.000,351.909,-75.908,26209.258708
1 Jan 2020 16:45:49.000,350.886,-75.800,26358.365237
1 Jan 2020 16:46:19.000,349.890,-75.698,26509.676816
1 Jan 2020 16:46:49.000,348.921,-75.604,26663.070529
1 Jan 2020 16:47:19.000,347.977,-75.518,26818.423685
1 Jan 2020 16:47:49.000,347.055,-75.439,26975.613941
1 Jan 2020 16:48:19.000,346.156,-75.367,27134.519433
1 Jan 2020 16:48:49.000,345.278,-75.303,27295.019210
1 Jan 2020 16:49:19.000,344.419,-75.247,27456.992063
1 Jan 2020 16:49:49.000,343.579,-75.198,27620.318533
1 Jan 2020 16:50:19.000,342.757,-75.158,27784.879734
1 Jan 2020 16:50:49.000,341.952,-75.124,27950.557748
1 Jan 2020 16:51:19.000,341.162,-75.099,28117.235709
1 Jan 2020 16:51:49.000,340.386,-75.081,28284.797863
1 Jan 2020 16:52:19.000,339.625,-75.071,28453.129639
1 Jan 2020 16:52:43.950,339.002,-75.068,28593.632143
1 Jan 2020 18:06:12.463,142.116,-75.068,28593.362947
1 Jan 2020 18:06:42.000,141.925,-75.073,28404.079593
1 Jan 2020 18:07:12.000,141.736,-75.088,28211.857577
1 Jan 2020 18:07:42.000,141.550,-75.112,28019.791281
1 Jan 2020 18:08:12.000,141.368,-75.148,27828.013088
1 Jan 2020 18:08:42.000,141.190,-75.193,27636.658082
1 Jan 2020 18:09:12.000,141.015,-75.250,27445.864031
1 Jan 2020 18:09:42.000,140.844,-75.317,27255.771365
1 Jan 2020 18:10:12.000,140.676,-75.396,27066.523152
1 Jan 2020 18:10:42.000,140.510,-75.486,26878.265051
1 Jan 2020 18:11:12.000,140.348,-75.587,26691.145269
1 Jan 2020 18:11:42.000,140.189,-75.700,26505.314500
1 Jan 2020 18:12:12.000,140.031,-75.825,26320.925856
1 Jan 2020 18:12:42.000,139.877,-75.962,26138.134781
1 Jan 2020 18:13:12.000,139.724,-76.111,25957.098952
1 Jan 2020 18:13:42.000,139.573,-76.273,25777.978176
1 Jan 2020 18:14:12.000,139.425,-76.446,25600.934254
1 Jan 2020 18:14:42.000,139.277,-76.633,25426.130841
1 Jan 2020 18:15:12.000,139.131,-76.831,25253.733287
1 Jan 2020 18:15:42.000,138.986,-77.043,25083.908456
1 Jan 2020 18:16:12.000,138.842,-77.267,24916.824193
1 Jan 2020 18:16:42.000,138.698,-77.504,24752.650452
1 Jan 2020 18:17:12.000,138.555,-77.754,24591.557032
1 Jan 2020 18:17:42.000,138.411,-78.017,24433.714668
1 Jan 2020 18:18:12.000,138.266,-78.293,24279.294418
1 Jan 2020 18:18:42.000,138.121,-78.581,24128.467351
1 Jan 2020 18:19:12.000,137.973,-78.882,23981.404228
1 Jan 2020 18:19:42.000,137.824,-79.195,23838.275151
1 Jan 2020 18:20:12.000,137.672,-79.521,23699.248929
1 Jan 2020 18:20:42.000,137.515,-79.860,23564.493763
1 Jan 2020 18:21:12.000,137.355,-80.210,23434.175210
1 Jan 2020 18:21:42.000,137.188,-80.573,23308.456848
1 Jan 2020 18:22:12.000,137.014,-80.947,23187.499551
1 Jan 2020 18:22:42.000,136.831,-81.332,23071.461031
1 Jan 2020 18:23:12.000,136.637,-81.729,22960.495158
1 Jan 2020 18:23:42.000,136.430,-82.136,22854.752293
1 Jan 2020 18:24:12.000,136.207,-82.553,22754.377550
1 Jan 2020 18:24:42.000,135.963,-82.980,22659.511134
1 Jan 2020 18:25:12.000,135.693,-83.417,22570.287630
1 Jan 2020 18:25:42.000,135.391,-83.863,22486.835501
1 Jan 2020 18:26:12.000,135.047,-84.317,22409.276436
1 Jan 2020 18:26:42.000,134.650,-84.779,22337.725520
1 Jan 2020 18:27:12.000,134.181,-85.248,22272.289765
1 Jan 2020 18:27:42.000,133.615,-85.723,22213.068341
1 Jan 2020 18:28:12.000,132.911,-86.204,22160.151973
1 Jan 2020 18:28:42.000,132.009,-86.690,22113.622460
1 Jan 2020 18:29:12.000,130.799,-87.179,22073.552656
1 Jan 2020 18:29:42.000,129.085,-87.671,22040.005591
1 Jan 2020 18:30:12.000,126.456,-88.164,22013.034559
1 Jan 2020 18:30:42.000,121.913,-88.652,21992.682762
1 Jan 2020 18:31:12.000,112.352,-89.125,21978.983090
1 Jan 2020 18:31:42.000,84.307,-89.524,21971.958057
1 Jan 2020 18:32:12.000,17.854,-89.551,21971.619526
1 Jan 2020 18:32:42.000,346.170,-89.169,21977.968778
1 Jan 2020 18:33:12.000,335.733,-88.699,21990.996472
1 Jan 2020 18:33:42.000,330.913,-88.212,22010.682734
1 Jan 2020 18:34:12.000,328.176,-87.719,22036.997079
1 Jan 2020 18:34:42.000,326.420,-87.227,22069.898806
1 Jan 2020 18:35:12.000,325.203,-86.737,22109.337038
1 Jan 2020 18:35:42.000,324.311,-86.250,22155.250998
1 Jan 2020 18:36:12.000,323.632,-85.768,22207.570407
1 Jan 2020 18:36:42.000,323.100,-85.292,22266.215370
1 Jan 2020 18:37:12.000,322.673,-84.822,22331.097370
1 Jan 2020 18:37:42.000,322.326,-84.359,22402.119251
1 Jan 2020 18:38:12.000,322.039,-83.904,22479.175739
1 Jan 2020 18:38:42.000,321.800,-83.457,22562.153882
1 Jan 2020 18:39:12.000,321.599,-83.019,22650.933721
1 Jan 2020 18:39:42.000,321.430,-82.590,22745.387976
1 Jan 2020 18:40:12.000,321.287,-82.172,22845.383706
1 Jan 2020 18:40:42.000,321.166,-81.763,22950.782035
1 Jan 2020 18:41:12.000,321.064,-81.365,23061.438848
1 Jan 2020 18:41:42.000,320.979,-80.978,23177.205289
1 Jan 2020 18:42:12.000,320.908,-80.602,23297.928482
1 Jan 2020 18:42:42.000,320.851,-80.238,23423.451114
1 Jan 2020 18:43:12.000,320.805,-79.886,23553.613262
1 Jan 2020 18:43:42.000,320.769,-79.546,23688.251963
1 Jan 2020 18:44:12.000,320.743,-79.219,23827.201890
1 Jan 2020 18:44:42.000,320.726,-78.904,23970.295778
1 Jan 2020 18:45:12.000,320.716,-78.601,24117.364841
1 Jan 2020 18:45:42.000,320.715,-78.311,24268.239167
1 Jan 2020 18:46:12.000,320.721,-78.034,24422.748383
1 Jan 2020 18:46:42.000,320.733,-77.770,24580.720835
1 Jan 2020 18:47:12.000,320.752,-77.518,24741.985668
1 Jan 2020 18:47:42.000,320.777,-77.280,24906.371973
1 Jan 2020 18:48:12.000,320.808,-77.054,25073.709364
1 Jan 2020 18:48:42.000,320.844,-76.841,25243.828238
1 Jan 2020 18:49:12.000,320.886,-76.641,25416.560022
1 Jan 2020 18:49:42.000,320.933,-76.454,25591.737391
1 Jan 2020 18:50:12.000,320.986,-76.279,25769.194478
1 Jan 2020 18:50:42.000,321.044,-76.116,25948.767048
1 Jan 2020 18:51:12.000,321.106,-75.966,26130.292668
1 Jan 2020 18:51:42.000,321.174,-75.828,26313.610853
1 Jan 2020 18:52:12.000,321.247,-75.702,26498.563198
1 Jan 2020 18:52:42.000,321.324,-75.589,26684.993489
1 Jan 2020 18:53:12.000,321.406,-75.486,26872.747806
1 Jan 2020 18:53:42.000,321.494,-75.396,27061.674611
1 Jan 2020 18:54:12.000,321.586,-75.317,27251.624816
1 Jan 2020 18:54:42.000,321.683,-75.249,27442.451852
1 Jan 2020 18:55:12.000,321.784,-75.192,27634.011715
1 Jan 2020 18:55:42.000,321.891,-75.146,27826.163009
1 Jan 2020 18:56:12.000,322.003,-75.110,28018.766977
1 Jan 2020 18:56:42.000,322.120,-75.085,28211.687525
1 Jan 2020 18:57:12.000,322.241,-75.070,28404.791238
1 Jan 2020 18:57:41.438,322.366,-75.065,28594.326997
1 Jan 2020 20:10:51.674,156.915,-75.073,28598.883380
1 Jan 2020 20:11:21.000,157.599,-75.077,28430.398274
1 Jan 2020 20:11:51.000,158.312,-75.088,28258.672158
1 Jan 2020 20:12:21.000,159.039,-75.108,28087.701376
1 Jan 2020 20:12:51.000,159.782,-75.136,27917.604089
1 Jan 2020 20:13:21.000,160.539,-75.171,27748.499755
1 Jan 2020 20:13:51.000,161.314,-75.215,27580.509067
1 Jan 2020 20:14:21.000,162.106,-75.267,27413.753880
1 Jan 2020 20:14:51.000,162.917,-75.327,27248.357138
1 Jan 2020 20:15:21.000,163.748,-75.395,27084.442786
1 Jan 2020 20:15:51.000,164.600,-75.471,26922.135677
1 Jan 2020 20:16:21.000,165.475,-75.555,26761.561476
1 Jan 2020 20:16:51.000,166.373,-75.647,26602.846542
1 Jan 2020 20:17:21.000,167.296,-75.747,26446.117816
1 Jan 2020 20:17:51.000,168.246,-75.854,26291.502687
1 Jan 2020 20:18:21.000,169.223,-75.970,26139.128859
1 Jan 2020 20:18:51.000,170.231,-76.092,25989.124198
1 Jan 2020 20:19:21.000,171.270,-76.222,25841.616283
1 Jan 2020 20:19:51.000,172.343,-76.360,25696.733418
1 Jan 2020 20:20:21.000,173.451,-76.504,25554.602673
1 Jan 2020 20:20:51.000,174.597,-76.654,25415.350888
1 Jan 2020 20:21:21.000,175.783,-76.811,25279.104176
1 Jan 2020 20:21:51.000,177.011,-76.974,25145.987712
1 Jan 2020 20:22:21.000,178.284,-77.142,25016.125515
1 Jan 2020 20:22:51.000,179.604,-77.316,24889.640223
1 Jan 2020 20:23:21.000,180.975,-77.495,24766.652856
1 Jan 2020 20:23:51.000,182.399,-77.677,24647.282322
1 Jan 2020 20:24:21.000,183.879,-77.864,24531.646170
1 Jan 2020 20:24:51.000,185.419,-78.053,24419.858816
1 Jan 2020 20:25:21.000,187.021,-78.245,24312.032297
1 Jan 2020 20:25:51.000,188.690,-78.439,24208.275748
1 Jan 2020 20:26:21.000,190.428,-78.633,24108.695131
1 Jan 2020 20:26:51.000,192.239,-78.828,24013.392965
1 Jan 2020 20:27:21.000,194.127,-79.022,23922.467860
1 Jan 2020 20:27:51.000,196.094,-79.215,23836.015009
1 Jan 2020 20:28:21.000,198.143,-79.405,23754.124767
1 Jan 2020 20:28:51.000,200.278,-79.591,23676.883162
1 Jan 2020 20:29:21.000,202.501,-79.773,23604.371443
1 Jan 2020 20:29:51.000,204.812,-79.948,23536.665826
1 Jan 2020 20:30:21.000,207.215,-80.117,23473.837260
1 Jan 2020 20:30:51.000,209.708,-80.278,23415.951055
1 Jan 2020 20:31:21.000,212.291,-80.429,23363.067236
1 Jan 2020 20:31:51.000,214.962,-80.570,23315.239477
1 Jan 2020 20:32:21.000,217.718,-80.698,23272.515509
1 Jan 2020 20:32:51.000,220.553,-80.814,23234.936802
1 Jan 2020 20:33:21.000,223.463,-80.916,23202.538428
1 Jan 2020 20:33:51.000,226.439,-81.004,23175.348866
1 Jan 2020 20:34:21.000,229.471,-81.075,23153.390175
1 Jan 2020 20:34:51.000,232.550,-81.130,23136.677498
1 Jan 2020 20:35:21.000,235.663,-81.168,23125.219299
1 Jan 2020 20:35:51.000,238.798,-81.189,23119.017259
1 Jan 2020 20:36:21.000,241.942,-81.192,23118.066274
1 Jan 2020 20:36:51.000,245.082,-81.177,23122.354473
1 Jan 2020 20:37:21.000,248.203,-81.145,23131.863283
1 Jan 2020 20:37:51.000,251.294,-81.097,23146.567461
1 Jan 2020 20:38:21.000,254.342,-81.031,23166.435228
1 Jan 2020 20:38:51.000,257.338,-80.951,23191.428370
1 Jan 2020 20:39:21.000,260.271,-80.855,23221.502385
1 Jan 2020 20:39:51.000,263.135,-80.745,23256.606701
1 Jan 2020 20:40:21.000,265.923,-80.623,23296.684628
1 Jan 2020 20:40:51.000,268.630,-80.489,23341.673890
1 Jan 2020 20:41:21.000,271.253,-80.345,23391.506630
1 Jan 2020 20:41:51.000,273.789,-80.191,23446.109687
1 Jan 2020 20:42:21.000,276.240,-80.029,23505.404846
1 Jan 2020 20:42:51.000,278.603,-79.860,23569.309092
1 Jan 2020 20:43:21.000,280.882,-79.685,23637.735004
1 Jan 2020 20:43:51.000,283.076,-79.506,23710.590506
1 Jan 2020 20:44:21.000,285.189,-79.322,23787.779918
1 Jan 2020 20:44:51.000,287.224,-79.137,23869.203729
1 Jan 2020 20:45:21.000,289.183,-78.949,23954.759008
1 Jan 2020 20:45:51.000,291.070,-78.760,24044.339685
1 Jan 2020 20:46:21.000,292.888,-78.572,24137.836836
1 Jan 2020 20:46:51.000,294.640,-78.384,24235.138964
1 Jan 2020 20:47:21.000,296.331,-78.197,24336.132465
1 Jan 2020 20:47:51.000,297.962,-78.013,24440.701139
1 Jan 2020 20:48:21.000,299.539,-77.831,24548.727587
1 Jan 2020 20:48:51.000,301.063,-77.653,24660.092721
1 Jan 2020 20:49:21.000,302.538,-77.478,24774.676198
1 Jan 2020 20:49:51.000,303.967,-77.308,24892.356662
1 Jan 2020 20:50:21.000,305.352,-77.142,25013.011973
1 Jan 2020 20:50:51.000,306.697,-76.981,25136.519428
1 Jan 2020 20:51:21.000,308.004,-76.826,25262.755974
1 Jan 2020 20:51:51.000,309.275,-76.676,25391.598405
1 Jan 2020 20:52:21.000,310.513,-76.532,25522.923553
1 Jan 2020 20:52:51.000,311.720,-76.394,25656.608464
1 Jan 2020 20:53:21.000,312.897,-76.263,25792.530831
1 Jan 2020 20:53:51.000,314.048,-76.138,25930.568095
1 Jan 2020 20:54:21.000,315.173,-76.019,26070.599167
1 Jan 2020 20:54:51.000,316.274,-75.908,26212.503515
1 Jan 2020 20:55:21.000,317.353,-75.803,26356.161550
1 Jan 2020 20:55:51.000,318.412,-75.705,26501.454741
1 Jan 2020 20:56:21.000,319.452,-75.614,26648.265717
1 Jan 2020 20:56:51.000,320.474,-75.530,26796.478366
1 Jan 2020 20:57:21.000,321.479,-75.453,26945.977919
1 Jan 2020 20:57:51.000,322.469,-75.384,27096.651027
1 Jan 2020 20:58:21.000,323.445,-75.321,27248.385835
1 Jan 2020 20:58:51.000,324.409,-75.265,27401.072038
1 Jan 2020 20:59:21.000,325.360,-75.216,27554.600942
1 Jan 2020 20:59:51.000,326.300,-75.175,27708.865505
1 Jan 2020 21:00:21.000,327.231,-75.140,27863.760385
1 Jan 2020 21:00:51.000,328.152,-75.112,28019.181969
1 Jan 2020 21:01:21.000,329.065,-75.090,28175.028409
1 Jan 2020 21:01:51.000,329.971,-75.076,28331.199640
1 Jan 2020 21:02:21.000,330.870,-75.068,28487.597403
1 Jan 2020 21:02:42.774,331.519,-75.066,28601.195904
1 Jan 2020 22:21:36.245,195.730,-75.076,28607.268064
1 Jan 2020 22:22:06.000,196.743,-75.078,28464.695772
1 Jan 2020 22:22:36.000,197.772,-75.086,28321.372468
1 Jan 2020 22:23:06.000,198.811,-75.100,28178.560422
1 Jan 2020 22:23:36.000,199.860,-75.119,28036.346585
1 Jan 2020 22:24:06.000,200.919,-75.144,27894.819039
1 Jan 2020 22:24:36.000,201.990,-75.174,27754.066968
1 Jan 2020 22:25:06.000,203.074,-75.210,27614.180621
1 Jan 2020 22:25:36.000,204.170,-75.251,27475.251276
1 Jan 2020 22:26:06.000,205.281,-75.298,27337.371193
1 Jan 2020 22:26:36.000,206.407,-75.351,27200.633566
1 Jan 2020 22:27:06.000,207.548,-75.408,27065.132472
1 Jan 2020 22:27:36.000,208.707,-75.472,26930.962808
1 Jan 2020 22:28:06.000,209.883,-75.540,26798.220231
1 Jan 2020 22:28:36.000,211.079,-75.614,26667.001086
1 Jan 2020 22:29:06.000,212.294,-75.693,26537.402329
1 Jan 2020 22:29:36.000,213.531,-75.777,26409.521451
1 Jan 2020 22:30:06.000,214.791,-75.867,26283.456385
1 Jan 2020 22:30:36.000,216.073,-75.960,26159.305413
1 Jan 2020 22:31:06.000,217.381,-76.059,26037.167066
1 Jan 2020 22:31:36.000,218.715,-76.162,25917.140021
1 Jan 2020 22:32:06.000,220.077,-76.269,25799.322734
1 Jan 2020 22:32:36.000,221.467,-76.380,25683.814314
1 Jan 2020 22:33:06.000,222.888,-76.494,25570.712907
1 Jan 2020 22:33:36.000,224.340,-76.613,25460.116555
1 Jan 2020 22:34:06.000,225.826,-76.734,25352.122812
1 Jan 2020 22:34:36.000,227.347,-76.858,25246.828598
1 Jan 2020 22:35:06.000,228.904,-76.985,25144.330042
1 Jan 2020 22:35:36.000,230.499,-77.113,25044.722329
1 Jan 2020 22:36:06.000,232.133,-77.244,24948.099537
1 Jan 2020 22:36:36.000,233.808,-77.375,24854.554468
1 Jan 2020 22:37:06.000,235.525,-77.508,24764.178300
1 Jan 2020 22:37:36.000,237.285,-77.641,24677.061116
1 Jan 2020 22:38:06.000,239.091,-77.773,24593.290659
1 Jan 2020 22:38:36.000,240.942,-77.905,24512.952865
1 Jan 2020 22:39:06.000,242.841,-78.035,24436.131497
1 Jan 2020 22:39:36.000,244.787,-78.164,24362.907960
1 Jan 2020 22:40:06.000,246.782,-78.290,24293.361111
1 Jan 2020 22:40:36.000,248.826,-78.413,24227.567078
1 Jan 2020 22:41:06.000,250.919,-78.532,24165.598956
1 Jan 2020 22:41:36.000,253.060,-78.647,24107.527089
1 Jan 2020 22:42:06.000,255.250,-78.757,24053.418185
1 Jan 2020 22:42:36.000,257.487,-78.861,24003.335615
1 Jan 2020 22:43:06.000,259.770,-78.959,23957.339128
1 Jan 2020 22:43:36.000,262.097,-79.050,23915.484680
1 Jan 2020 22:44:06.000,264.466,-79.133,23877.824279
1 Jan 2020 22:44:36.000,266.873,-79.208,23844.405841
1 Jan 2020 22:45:06.000,269.316,-79.275,23815.272992
1 Jan 2020 22:45:36.000,271.790,-79.332,23790.465161
1 Jan 2020 22:46:06.000,274.292,-79.380,23770.017117
1 Jan 2020 22:46:36.000,276.816,-79.418,23753.959107
1 Jan 2020 22:47:06.000,279.358,-79.446,23742.316692
1 Jan 2020 22:47:36.000,281.911,-79.463,23735.110672
1 Jan 2020 22:48:06.000,284.471,-79.469,23732.357020
1 Jan 2020 22:48:36.000,287.032,-79.465,23734.066842
1 Jan 2020 22:49:06.000,289.588,-79.450,23740.246286
1 Jan 2020 22:49:36.000,292.134,-79.425,23750.896594
1 Jan 2020 22:50:06.000,294.663,-79.389,23766.014048
1 Jan 2020 22:50:36.000,297.171,-79.343,23785.589992
1 Jan 2020 22:51:06.000,299.653,-79.287,23809.610854
1 Jan 2020 22:51:36.000,302.104,-79.222,23838.058179
1 Jan 2020 22:52:06.000,304.520,-79.147,23870.908766
1 Jan 2020 22:52:36.000,306.897,-79.065,23908.134422
1 Jan 2020 22:53:06.000,309.232,-78.974,23949.702493
1 Jan 2020 22:53:36.000,311.522,-78.876,23995.575665
1 Jan 2020 22:54:06.000,313.766,-78.771,24045.712140
1 Jan 2020 22:54:36.000,315.961,-78.660,24100.065752
1 Jan 2020 22:55:06.000,318.107,-78.544,24158.586095
1 Jan 2020 22:55:36.000,320.201,-78.423,24221.218659
1 Jan 2020 22:56:06.000,322.245,-78.298,24287.905130
1 Jan 2020 22:56:36.000,324.237,-78.169,24358.582930
1 Jan 2020 22:57:06.000,326.179,-78.038,24433.186289
1 Jan 2020 22:57:36.000,328.070,-77.904,24511.645808
1 Jan 2020 22:58:06.000,329.911,-77.769,24593.888782
1 Jan 2020 22:58:36.000,331.703,-77.633,24679.839372
1 Jan 2020 22:59:06.000,333.447,-77.497,24769.418783
1 Jan 2020 22:59:36.000,335.145,-77.361,24862.545443
1 Jan 2020 23:00:06.000,336.798,-77.225,24959.135187
1 Jan 2020 23:00:36.000,338.406,-77.091,25059.101644
1 Jan 2020 23:01:06.000,339.973,-76.959,25162.355576
1 Jan 2020 23:01:36.000,341.498,-76.828,25268.806315
1 Jan 2020 23:02:06.000,342.984,-76.700,25378.361104
1 Jan 2020 23:02:36.000,344.431,-76.575,25490.925480
1 Jan 2020 23:03:06.000,345.843,-76.454,25606.403442
