STKdata/stk_90fov_6leo/Satellite-MEO_Satellite10200-To-Satellite-LEO_Satellite20000 AER.csv

"Time (UTCG)","Azimuth (deg)","Elevation (deg)","Range (km)"
1 Jan 2020 00:01:08.521,34.584,-75.074,28600.326348
1 Jan 2020 00:01:38.000,33.646,-75.079,28404.484566
1 Jan 2020 00:02:08.000,32.683,-75.095,28205.401133
1 Jan 2020 00:02:38.000,31.709,-75.121,28006.752406
1 Jan 2020 00:03:08.000,30.722,-75.159,27808.756615
1 Jan 2020 00:03:38.000,29.721,-75.207,27611.636489
1 Jan 2020 00:04:08.000,28.703,-75.267,27415.619137
1 Jan 2020 00:04:38.000,27.667,-75.339,27220.935912
1 Jan 2020 00:05:08.000,26.610,-75.422,27027.822238
1 Jan 2020 00:05:38.000,25.530,-75.516,26836.517410
1 Jan 2020 00:06:08.000,24.423,-75.621,26647.264375
1 Jan 2020 00:06:38.000,23.289,-75.739,26460.309461
1 Jan 2020 00:07:08.000,22.122,-75.867,26275.902090
1 Jan 2020 00:07:38.000,20.921,-76.007,26094.294441
1 Jan 2020 00:08:08.000,19.682,-76.157,25915.741078
1 Jan 2020 00:08:38.000,18.401,-76.319,25740.498539
1 Jan 2020 00:09:08.000,17.074,-76.490,25568.824615
1 Jan 2020 00:09:38.000,15.698,-76.672,25400.978913
1 Jan 2020 00:10:08.000,14.268,-76.863,25237.220711
1 Jan 2020 00:10:38.000,12.778,-77.063,25077.809442
1 Jan 2020 00:11:08.000,11.224,-77.271,24923.003791
1 Jan 2020 00:11:38.000,9.600,-77.487,24773.061014
1 Jan 2020 00:12:08.000,7.901,-77.709,24628.236215
1 Jan 2020 00:12:38.000,6.120,-77.937,24488.781363
1 Jan 2020 00:13:08.000,4.251,-78.170,24354.945381
1 Jan 2020 00:13:38.000,2.288,-78.405,24226.971952
1 Jan 2020 00:14:08.000,0.223,-78.643,24105.099559
1 Jan 2020 00:14:38.000,358.049,-78.881,23989.560360
1 Jan 2020 00:15:08.000,355.760,-79.117,23880.579122
1 Jan 2020 00:15:38.000,353.350,-79.350,23778.372899
1 Jan 2020 00:16:08.000,350.812,-79.578,23683.149161
1 Jan 2020 00:16:38.000,348.142,-79.799,23595.105495
1 Jan 2020 00:17:08.000,345.337,-80.010,23514.428519
1 Jan 2020 00:17:38.000,342.395,-80.210,23441.292872
1 Jan 2020 00:18:08.000,339.316,-80.395,23375.860783
1 Jan 2020 00:18:38.000,336.104,-80.563,23318.280558
1 Jan 2020 00:19:08.000,332.766,-80.713,23268.686260
1 Jan 2020 00:19:38.000,329.312,-80.842,23227.196836
1 Jan 2020 00:20:08.000,325.757,-80.947,23193.915627
1 Jan 2020 00:20:38.000,322.118,-81.028,23168.929519
1 Jan 2020 00:21:08.000,318.417,-81.082,23152.308650
1 Jan 2020 00:21:38.000,314.679,-81.109,23144.105975
1 Jan 2020 00:22:08.000,310.928,-81.108,23144.356919
1 Jan 2020 00:22:38.000,307.192,-81.079,23153.079227
1 Jan 2020 00:23:08.000,303.497,-81.023,23170.272855
1 Jan 2020 00:23:38.000,299.867,-80.940,23195.920055
1 Jan 2020 00:24:08.000,296.324,-80.832,23229.985217
1 Jan 2020 00:24:38.000,292.886,-80.700,23272.415487
1 Jan 2020 00:25:08.000,289.567,-80.547,23323.140839
1 Jan 2020 00:25:38.000,286.380,-80.375,23382.074676
1 Jan 2020 00:26:08.000,283.332,-80.186,23449.113858
1 Jan 2020 00:26:38.000,280.425,-79.982,23524.139993
1 Jan 2020 00:27:08.000,277.661,-79.766,23607.019647
1 Jan 2020 00:27:38.000,275.040,-79.540,23697.605348
1 Jan 2020 00:28:08.000,272.557,-79.307,23795.735724
1 Jan 2020 00:28:38.000,270.208,-79.068,23901.237288
1 Jan 2020 00:29:08.000,267.987,-78.826,24013.924679
1 Jan 2020 00:29:38.000,265.889,-78.583,24133.601712
1 Jan 2020 00:30:08.000,263.906,-78.340,24260.062532
1 Jan 2020 00:30:38.000,262.032,-78.098,24393.091568
1 Jan 2020 00:31:08.000,260.260,-77.861,24532.465876
1 Jan 2020 00:31:38.000,258.584,-77.627,24677.955114
1 Jan 2020 00:32:08.000,256.996,-77.400,24829.322661
1 Jan 2020 00:32:38.000,255.491,-77.180,24986.326494
1 Jan 2020 00:33:08.000,254.064,-76.968,25148.720323
1 Jan 2020 00:33:38.000,252.708,-76.765,25316.253229
1 Jan 2020 00:34:08.000,251.420,-76.571,25488.672190
1 Jan 2020 00:34:38.000,250.193,-76.387,25665.721657
1 Jan 2020 00:35:08.000,249.024,-76.214,25847.144540
1 Jan 2020 00:35:38.000,247.908,-76.052,26032.682855
1 Jan 2020 00:36:08.000,246.842,-75.902,26222.078335
1 Jan 2020 00:36:38.000,245.822,-75.764,26415.072993
1 Jan 2020 00:37:08.000,244.845,-75.638,26611.409955
1 Jan 2020 00:37:38.000,243.909,-75.524,26810.832690
1 Jan 2020 00:38:08.000,243.009,-75.423,27013.087306
1 Jan 2020 00:38:38.000,242.144,-75.334,27217.921709
1 Jan 2020 00:39:08.000,241.311,-75.258,27425.086264
1 Jan 2020 00:39:38.000,240.508,-75.195,27634.334111
1 Jan 2020 00:40:08.000,239.733,-75.145,27845.421447
1 Jan 2020 00:40:38.000,238.984,-75.107,28058.107775
1 Jan 2020 00:41:08.000,238.259,-75.082,28272.156121
1 Jan 2020 00:41:38.000,237.557,-75.069,28487.333219
1 Jan 2020 00:41:53.941,237.192,-75.067,28602.054790
1 Jan 2020 01:41:54.398,54.082,-75.077,28606.916932
1 Jan 2020 01:42:24.000,54.108,-75.084,28376.776355
1 Jan 2020 01:42:54.000,54.145,-75.105,28143.765679
1 Jan 2020 01:43:24.000,54.194,-75.142,27911.211322
1 Jan 2020 01:43:54.000,54.253,-75.194,27679.351345
1 Jan 2020 01:44:24.000,54.325,-75.262,27448.429213
1 Jan 2020 01:44:54.000,54.409,-75.345,27218.693723
1 Jan 2020 01:45:24.000,54.505,-75.445,26990.398914
1 Jan 2020 01:45:54.000,54.615,-75.562,26763.803939
1 Jan 2020 01:46:24.000,54.739,-75.695,26539.172914
1 Jan 2020 01:46:54.000,54.879,-75.846,26316.774725
1 Jan 2020 01:47:24.000,55.034,-76.013,26096.882799
1 Jan 2020 01:47:54.000,55.207,-76.199,25879.774832
1 Jan 2020 01:48:24.000,55.397,-76.402,25665.732476
1 Jan 2020 01:48:54.000,55.608,-76.623,25455.040971
1 Jan 2020 01:49:24.000,55.840,-76.861,25247.988387
1 Jan 2020 01:49:54.000,56.095,-77.118,25044.866515
1 Jan 2020 01:50:24.000,56.376,-77.393,24845.968284
1 Jan 2020 01:50:54.000,56.686,-77.687,24651.588544
1 Jan 2020 01:51:24.000,57.026,-77.998,24462.023064
1 Jan 2020 01:51:54.000,57.401,-78.327,24277.567816
1 Jan 2020 01:52:24.000,57.816,-78.673,24098.517907
1 Jan 2020 01:52:54.000,58.274,-79.037,23925.167877
1 Jan 2020 01:53:24.000,58.782,-79.418,23757.809054
1 Jan 2020 01:53:54.000,59.347,-79.816,23596.729745
1 Jan 2020 01:54:24.000,59.979,-80.230,23442.213912
1 Jan 2020 01:54:54.000,60.686,-80.659,23294.539832
1 Jan 2020 01:55:24.000,61.484,-81.103,23153.979990
1 Jan 2020 01:55:54.000,62.389,-81.561,23020.798353
1 Jan 2020 01:56:24.000,63.421,-82.032,22895.250208
1 Jan 2020 01:56:54.000,64.607,-82.514,22777.580488
1 Jan 2020 01:57:24.000,65.984,-83.006,22668.023298
1 Jan 2020 01:57:54.000,67.596,-83.507,22566.799518
1 Jan 2020 01:58:24.000,69.507,-84.013,22474.116374
1 Jan 2020 01:58:54.000,71.801,-84.522,22390.165907
1 Jan 2020 01:59:24.000,74.596,-85.031,22315.124442
1 Jan 2020 01:59:54.000,78.058,-85.534,22249.150573
1 Jan 2020 02:00:24.000,82.421,-86.025,22192.384809
1 Jan 2020 02:00:54.000,88.017,-86.493,22144.948407
1 Jan 2020 02:01:24.000,95.291,-86.923,22106.942949
1 Jan 2020 02:01:54.000,104.768,-87.293,22078.449070
1 Jan 2020 02:02:24.000,116.836,-87.571,22059.526318
1 Jan 2020 02:02:54.000,131.234,-87.720,22050.212614
1 Jan 2020 02:03:24.000,146.568,-87.715,22050.524067
1 Jan 2020 02:03:54.000,160.840,-87.556,22060.454712
1 Jan 2020 02:04:24.000,172.735,-87.271,22079.976658
1 Jan 2020 02:04:54.000,182.059,-86.896,22109.040308
1 Jan 2020 02:05:24.000,189.223,-86.464,22147.574476
1 Jan 2020 02:05:54.000,194.749,-85.995,22195.487168
1 Jan 2020 02:06:24.000,199.077,-85.504,22252.666018
1 Jan 2020 02:06:54.000,202.530,-85.002,22318.979198
1 Jan 2020 02:07:24.000,205.335,-84.494,22394.275787
1 Jan 2020 02:07:54.000,207.656,-83.986,22478.387428
1 Jan 2020 02:08:24.000,209.607,-83.482,22571.128922
1 Jan 2020 02:08:54.000,211.272,-82.984,22672.299622
1 Jan 2020 02:09:24.000,212.710,-82.494,22781.683909
1 Jan 2020 02:09:54.000,213.969,-82.015,22899.053417
1 Jan 2020 02:10:24.000,215.081,-81.547,23024.167596
1 Jan 2020 02:10:54.000,216.075,-81.092,23156.775331
1 Jan 2020 02:11:24.000,216.970,-80.651,23296.615360
1 Jan 2020 02:11:54.000,217.784,-80.224,23443.418705
1 Jan 2020 02:12:24.000,218.528,-79.813,23596.909077
1 Jan 2020 02:12:54.000,219.215,-79.418,23756.804231
1 Jan 2020 02:13:24.000,219.852,-79.040,23922.817355
1 Jan 2020 02:13:54.000,220.448,-78.678,24094.657075
1 Jan 2020 02:14:24.000,221.007,-78.334,24272.030037
1 Jan 2020 02:14:54.000,221.536,-78.008,24454.640822
1 Jan 2020 02:15:24.000,222.037,-77.699,24642.193086
1 Jan 2020 02:15:54.000,222.516,-77.407,24834.390386
1 Jan 2020 02:16:24.000,222.976,-77.134,25030.936934
1 Jan 2020 02:16:54.000,223.418,-76.878,25231.538609
1 Jan 2020 02:17:24.000,223.845,-76.641,25435.902311
1 Jan 2020 02:17:54.000,224.260,-76.421,25643.738429
1 Jan 2020 02:18:24.000,224.665,-76.218,25854.760085
1 Jan 2020 02:18:54.000,225.060,-76.033,26068.683893
1 Jan 2020 02:19:24.000,225.448,-75.865,26285.230359
1 Jan 2020 02:19:54.000,225.830,-75.714,26504.124215
1 Jan 2020 02:20:24.000,226.207,-75.580,26725.094722
1 Jan 2020 02:20:54.000,226.580,-75.462,26947.875918
1 Jan 2020 02:21:24.000,226.950,-75.361,27172.206827
1 Jan 2020 02:21:54.000,227.319,-75.275,27397.831633
1 Jan 2020 02:22:24.000,227.686,-75.205,27624.499819
1 Jan 2020 02:22:54.000,228.054,-75.150,27851.966277
1 Jan 2020 02:23:24.000,228.422,-75.110,28079.991383
1 Jan 2020 02:23:54.000,228.793,-75.084,28308.341058
1 Jan 2020 02:24:24.000,229.165,-75.073,28536.786799
1 Jan 2020 02:24:33.419,229.282,-75.072,28608.498952
1 Jan 2020 03:24:33.535,55.771,-75.077,28611.116388
1 Jan 2020 03:25:03.000,56.772,-75.082,28421.331691
1 Jan 2020 03:25:33.000,57.814,-75.097,28229.641107
1 Jan 2020 03:26:03.000,58.883,-75.122,28039.724896
1 Jan 2020 03:26:33.000,59.978,-75.156,27851.806035
1 Jan 2020 03:27:03.000,61.104,-75.200,27666.109411
1 Jan 2020 03:27:33.000,62.260,-75.253,27482.861527
1 Jan 2020 03:28:03.000,63.450,-75.316,27302.290186
1 Jan 2020 03:28:33.000,64.675,-75.387,27124.624138
1 Jan 2020 03:29:03.000,65.938,-75.468,26950.092702
1 Jan 2020 03:29:33.000,67.241,-75.557,26778.925355
1 Jan 2020 03:30:03.000,68.586,-75.654,26611.351290
1 Jan 2020 03:30:33.000,69.976,-75.759,26447.598660
1 Jan 2020 03:31:03.000,71.412,-75.871,26287.895214
1 Jan 2020 03:31:33.000,72.898,-75.989,26132.466041
1 Jan 2020 03:32:03.000,74.436,-76.114,25981.534162
1 Jan 2020 03:32:33.000,76.028,-76.244,25835.319644
1 Jan 2020 03:33:03.000,77.678,-76.379,25694.038985
1 Jan 2020 03:33:33.000,79.386,-76.518,25557.904254
1 Jan 2020 03:34:03.000,81.157,-76.659,25427.123298
1 Jan 2020 03:34:33.000,82.991,-76.803,25301.897744
1 Jan 2020 03:35:03.000,84.891,-76.948,25182.423193
1 Jan 2020 03:35:33.000,86.858,-77.094,25068.888290
1 Jan 2020 03:36:03.000,88.894,-77.238,24961.473842
1 Jan 2020 03:36:33.000,91.000,-77.380,24860.352820
1 Jan 2020 03:37:03.000,93.177,-77.519,24765.688586
1 Jan 2020 03:37:33.000,95.423,-77.654,24677.634927
1 Jan 2020 03:38:03.000,97.739,-77.783,24596.335209
1 Jan 2020 03:38:33.000,100.123,-77.905,24521.921591
1 Jan 2020 03:39:03.000,102.572,-78.019,24454.515001
1 Jan 2020 03:39:33.000,105.083,-78.124,24394.223672
1 Jan 2020 03:40:03.000,107.652,-78.219,24341.143226
1 Jan 2020 03:40:33.000,110.274,-78.303,24295.356049
1 Jan 2020 03:41:03.000,112.944,-78.374,24256.930781
1 Jan 2020 03:41:33.000,115.653,-78.433,24225.922339
1 Jan 2020 03:42:03.000,118.394,-78.478,24202.371052
1 Jan 2020 03:42:33.000,121.160,-78.509,24186.302842
1 Jan 2020 03:43:03.000,123.940,-78.526,24177.728952
1 Jan 2020 03:43:33.000,126.727,-78.528,24176.646004
1 Jan 2020 03:44:03.000,129.512,-78.515,24183.035798
1 Jan 2020 03:44:33.000,132.284,-78.489,24196.865553
1 Jan 2020 03:45:03.000,135.036,-78.448,24218.088019
1 Jan 2020 03:45:33.000,137.759,-78.394,24246.641749
1 Jan 2020 03:46:03.000,140.446,-78.326,24282.451283
1 Jan 2020 03:46:33.000,143.089,-78.247,24325.427679
1 Jan 2020 03:47:03.000,145.684,-78.157,24375.468850
1 Jan 2020 03:47:33.000,148.226,-78.057,24432.460077
1 Jan 2020 03:48:03.000,150.709,-77.948,24496.274645
1 Jan 2020 03:48:33.000,153.132,-77.830,24566.774074
1 Jan 2020 03:49:03.000,155.492,-77.706,24643.809263
1 Jan 2020 03:49:33.000,157.787,-77.577,24727.220816
1 Jan 2020 03:50:03.000,160.017,-77.443,24816.839811
1 Jan 2020 03:50:33.000,162.183,-77.306,24912.488631
1 Jan 2020 03:51:03.000,164.284,-77.166,25013.981177
1 Jan 2020 03:51:33.000,166.321,-77.025,25121.124340
1 Jan 2020 03:52:03.000,168.297,-76.885,25233.718238
1 Jan 2020 03:52:33.000,170.213,-76.745,25351.557055
1 Jan 2020 03:53:03.000,172.071,-76.607,25474.429753
1 Jan 2020 03:53:33.000,173.873,-76.471,25602.120945
1 Jan 2020 03:54:03.000,175.622,-76.339,25734.410875
1 Jan 2020 03:54:33.000,177.320,-76.211,25871.077110
1 Jan 2020 03:55:03.000,178.970,-76.088,26011.894491
1 Jan 2020 03:55:33.000,180.574,-75.970,26156.635903
1 Jan 2020 03:56:03.000,182.135,-75.858,26305.072851
1 Jan 2020 03:56:33.000,183.655,-75.752,26456.976007
1 Jan 2020 03:57:03.000,185.138,-75.653,26612.115720
1 Jan 2020 03:57:33.000,186.585,-75.561,26770.262500
1 Jan 2020 03:58:03.000,187.998,-75.477,26931.187687
1 Jan 2020 03:58:33.000,189.381,-75.400,27094.662975
1 Jan 2020 03:59:03.000,190.736,-75.331,27260.462132
1 Jan 2020 03:59:33.000,192.063,-75.270,27428.360468
1 Jan 2020 04:00:03.000,193.367,-75.217,27598.135375
1 Jan 2020 04:00:33.000,194.648,-75.173,27769.566624
1 Jan 2020 04:01:03.000,195.909,-75.137,27942.436627
1 Jan 2020 04:01:33.000,197.152,-75.109,28116.530678
1 Jan 2020 04:02:03.000,198.378,-75.090,28291.637167
1 Jan 2020 04:02:33.000,199.590,-75.079,28467.547768
1 Jan 2020 04:02:57.459,200.568,-75.076,28611.419211
1 Jan 2020 05:01:43.413,29.556,-75.074,28610.360194
1 Jan 2020 05:02:13.000,30.982,-75.077,28469.730663
1 Jan 2020 05:02:43.000,32.446,-75.085,28329.153282
1 Jan 2020 05:03:13.000,33.931,-75.098,28190.792043
1 Jan 2020 05:03:43.000,35.437,-75.116,28054.835858
1 Jan 2020 05:04:13.000,36.966,-75.139,27921.473220
1 Jan 2020 05:04:43.000,38.518,-75.166,27790.891861
1 Jan 2020 05:05:13.000,40.095,-75.197,27663.278383
1 Jan 2020 05:05:43.000,41.698,-75.232,27538.817881
1 Jan 2020 05:06:13.000,43.328,-75.271,27417.693543
1 Jan 2020 05:06:43.000,44.985,-75.313,27300.086236
1 Jan 2020 05:07:13.000,46.670,-75.358,27186.173919
1 Jan 2020 05:07:43.000,48.384,-75.406,27076.131850
1 Jan 2020 05:08:13.000,50.127,-75.455,26970.131154
1 Jan 2020 05:08:43.000,51.899,-75.506,26868.339018
1 Jan 2020 05:09:13.000,53.702,-75.558,26770.918059
1 Jan 2020 05:09:43.000,55.534,-75.611,26678.025851
1 Jan 2020 05:10:13.000,57.396,-75.664,26589.814449
1 Jan 2020 05:10:43.000,59.288,-75.717,26506.429794
1 Jan 2020 05:11:13.000,61.209,-75.769,26428.011733
1 Jan 2020 05:11:43.000,63.158,-75.820,26354.692806
1 Jan 2020 05:12:13.000,65.134,-75.869,26286.598304
1 Jan 2020 05:12:43.000,67.137,-75.916,26223.845694
1 Jan 2020 05:13:13.000,69.165,-75.960,26166.544201
1 Jan 2020 05:13:43.000,71.216,-76.001,26114.794333
1 Jan 2020 05:14:13.000,73.289,-76.038,26068.687802
1 Jan 2020 05:14:43.000,75.381,-76.072,26028.306711
1 Jan 2020 05:15:13.000,77.491,-76.101,25993.723551
1 Jan 2020 05:15:43.000,79.616,-76.126,25965.000835
1 Jan 2020 05:16:13.000,81.753,-76.146,25942.190845
1 Jan 2020 05:16:43.000,83.899,-76.161,25925.335402
1 Jan 2020 05:17:13.000,86.053,-76.170,25914.465789
1 Jan 2020 05:17:43.000,88.210,-76.175,25909.602464
1 Jan 2020 05:18:13.000,90.368,-76.174,25910.755092
1 Jan 2020 05:18:43.000,92.524,-76.168,25917.922473
1 Jan 2020 05:19:13.000,94.675,-76.156,25931.092569
1 Jan 2020 05:19:43.000,96.819,-76.139,25950.242469
1 Jan 2020 05:20:13.000,98.951,-76.118,25975.338601
1 Jan 2020 05:20:43.000,101.071,-76.091,26006.336796
1 Jan 2020 05:21:13.000,103.174,-76.060,26043.182486
1 Jan 2020 05:21:43.000,105.259,-76.025,26085.810925
1 Jan 2020 05:22:13.000,107.324,-75.987,26134.147525
1 Jan 2020 05:22:43.000,109.366,-75.945,26188.107830
1 Jan 2020 05:23:13.000,111.385,-75.899,26247.598313
1 Jan 2020 05:23:43.000,113.377,-75.852,26312.516427
1 Jan 2020 05:24:13.000,115.343,-75.802,26382.751062
1 Jan 2020 05:24:43.000,117.281,-75.751,26458.182949
1 Jan 2020 05:25:13.000,119.191,-75.699,26538.685212
1 Jan 2020 05:25:43.000,121.070,-75.646,26624.123326
1 Jan 2020 05:26:13.000,122.920,-75.593,26714.356284
1 Jan 2020 05:26:43.000,124.740,-75.540,26809.236597
1 Jan 2020 05:27:13.000,126.530,-75.488,26908.610876
1 Jan 2020 05:27:43.000,128.290,-75.438,27012.320312
1 Jan 2020 05:28:13.000,130.021,-75.389,27120.201146
1 Jan 2020 05:28:43.000,131.722,-75.343,27232.085141
1 Jan 2020 05:29:13.000,133.394,-75.299,27347.800234
1 Jan 2020 05:29:43.000,135.038,-75.258,27467.170269
1 Jan 2020 05:30:13.000,136.656,-75.221,27590.016523
1 Jan 2020 05:30:43.000,138.246,-75.187,27716.157433
1 Jan 2020 05:31:13.000,139.811,-75.158,27845.409195
1 Jan 2020 05:31:43.000,141.352,-75.132,27977.586175
1 Jan 2020 05:32:13.000,142.869,-75.112,28112.501305
1 Jan 2020 05:32:43.000,144.363,-75.096,28249.966455
1 Jan 2020 05:33:13.000,145.837,-75.085,28389.792799
1 Jan 2020 05:33:43.000,147.290,-75.079,28531.791155
1 Jan 2020 05:33:59.329,148.073,-75.078,28609.926738
1 Jan 2020 06:32:51.635,337.269,-75.068,28605.697552
1 Jan 2020 06:33:21.000,338.416,-75.072,28430.014591
1 Jan 2020 06:33:51.000,339.600,-75.085,28251.092582
1 Jan 2020 06:34:21.000,340.798,-75.106,28072.941250
1 Jan 2020 06:34:51.000,342.013,-75.136,27895.770423
1 Jan 2020 06:35:21.000,343.246,-75.175,27719.793367
1 Jan 2020 06:35:51.000,344.499,-75.222,27545.226611
1 Jan 2020 06:36:21.000,345.774,-75.278,27372.289739
1 Jan 2020 06:36:51.000,347.074,-75.343,27201.205161
1 Jan 2020 06:37:21.000,348.400,-75.416,27032.197852
1 Jan 2020 06:37:51.000,349.755,-75.498,26865.495066
1 Jan 2020 06:38:21.000,351.141,-75.587,26701.326020
1 Jan 2020 06:38:51.000,352.560,-75.685,26539.921547
1 Jan 2020 06:39:21.000,354.016,-75.790,26381.513712
1 Jan 2020 06:39:51.000,355.511,-75.902,26226.335405
1 Jan 2020 06:40:21.000,357.047,-76.021,26074.619670
1 Jan 2020 06:40:51.000,358.627,-76.146,25926.600105
1 Jan 2020 06:41:21.000,0.254,-76.278,25782.509024
1 Jan 2020 06:41:51.000,1.931,-76.414,25642.577795
1 Jan 2020 06:42:21.000,3.661,-76.555,25507.036036
1 Jan 2020 06:42:51.000,5.446,-76.700,25376.111008
1 Jan 2020 06:43:21.000,7.290,-76.848,25250.026969
1 Jan 2020 06:43:51.000,9.194,-76.998,25129.004333
1 Jan 2020 06:44:21.000,11.162,-77.149,25013.259682
1 Jan 2020 06:44:51.000,13.196,-77.300,24903.003986
1 Jan 2020 06:45:21.000,15.297,-77.451,24798.442589
1 Jan 2020 06:45:51.000,17.467,-77.599,24699.774290
1 Jan 2020 06:46:21.000,19.708,-77.745,24607.190591
1 Jan 2020 06:46:51.000,22.020,-77.886,24520.874822
1 Jan 2020 06:47:21.000,24.402,-78.021,24441.001906
1 Jan 2020 06:47:51.000,26.853,-78.150,24367.736841
1 Jan 2020 06:48:21.000,29.372,-78.270,24301.234515
1 Jan 2020 06:48:51.000,31.956,-78.381,24241.638881
1 Jan 2020 06:49:21.000,34.601,-78.481,24189.082234
1 Jan 2020 06:49:51.000,37.301,-78.570,24143.684840
1 Jan 2020 06:50:21.000,40.051,-78.646,24105.553969
1 Jan 2020 06:50:51.000,42.844,-78.708,24074.783643
1 Jan 2020 06:51:21.000,45.671,-78.756,24051.454099
1 Jan 2020 06:51:51.000,48.523,-78.789,24035.631393
1 Jan 2020 06:52:21.000,51.391,-78.806,24027.367064
1 Jan 2020 06:52:51.000,54.264,-78.808,24026.697855
1 Jan 2020 06:53:21.000,57.134,-78.794,24033.645558
1 Jan 2020 06:53:51.000,59.988,-78.764,24048.216944
1 Jan 2020 06:54:21.000,62.818,-78.718,24070.403553
1 Jan 2020 06:54:51.000,65.613,-78.658,24100.182008
1 Jan 2020 06:55:21.000,68.366,-78.584,24137.513982
1 Jan 2020 06:55:51.000,71.068,-78.496,24182.346452
1 Jan 2020 06:56:21.000,73.713,-78.396,24234.612101
1 Jan 2020 06:56:51.000,76.295,-78.285,24294.229179
1 Jan 2020 06:57:21.000,78.810,-78.164,24361.102651
1 Jan 2020 06:57:51.000,81.253,-78.034,24435.124202
1 Jan 2020 06:58:21.000,83.622,-77.896,24516.172887
1 Jan 2020 06:58:51.000,85.916,-77.753,24604.115896
1 Jan 2020 06:59:21.000,88.134,-77.604,24698.808470
1 Jan 2020 06:59:51.000,90.276,-77.452,24800.095605
1 Jan 2020 07:00:21.000,92.343,-77.297,24907.812056
1 Jan 2020 07:00:51.000,94.336,-77.141,25021.783211
1 Jan 2020 07:01:21.000,96.256,-76.985,25141.826024
1 Jan 2020 07:01:51.000,98.105,-76.830,25267.748928
1 Jan 2020 07:02:21.000,99.887,-76.678,25399.353778
1 Jan 2020 07:02:51.000,101.603,-76.528,25536.435780
1 Jan 2020 07:03:21.000,103.256,-76.382,25678.784408
1 Jan 2020 07:03:51.000,104.849,-76.241,25826.184111
1 Jan 2020 07:04:21.000,106.384,-76.106,25978.415241
1 Jan 2020 07:04:51.000,107.864,-75.977,26135.253746
1 Jan 2020 07:05:21.000,109.293,-75.855,26296.473262
1 Jan 2020 07:05:51.000,110.672,-75.741,26461.844762
1 Jan 2020 07:06:21.000,112.004,-75.634,26631.137380
1 Jan 2020 07:06:51.000,113.293,-75.536,26804.118964
1 Jan 2020 07:07:21.000,114.540,-75.446,26980.556592
1 Jan 2020 07:07:51.000,115.747,-75.366,27160.217064
1 Jan 2020 07:08:21.000,116.918,-75.295,27342.867356
1 Jan 2020 07:08:51.000,118.054,-75.233,27528.275043
1 Jan 2020 07:09:21.000,119.157,-75.182,27716.208991
1 Jan 2020 07:09:51.000,120.230,-75.140,27906.438503
1 Jan 2020 07:10:21.000,121.275,-75.109,28098.735465
1 Jan 2020 07:10:51.000,122.293,-75.088,28292.873438
1 Jan 2020 07:11:21.000,123.286,-75.077,28488.628225
1 Jan 2020 07:11:38.621,123.858,-75.075,28604.274833
1 Jan 2020 08:11:37.582,309.923,-75.065,28599.149794
1 Jan 2020 08:12:07.000,310.237,-75.071,28373.908824
1 Jan 2020 08:12:37.000,310.553,-75.092,28144.246027
1 Jan 2020 08:13:07.000,310.866,-75.128,27914.844590
1 Jan 2020 08:13:37.000,311.177,-75.178,27685.937429
1 Jan 2020 08:14:07.000,311.486,-75.244,27457.763019
1 Jan 2020 08:14:37.000,311.794,-75.325,27230.565344
1 Jan 2020 08:15:07.000,312.102,-75.422,27004.593829
1 Jan 2020 08:15:37.000,312.410,-75.536,26780.103240
1 Jan 2020 08:16:07.000,312.719,-75.666,26557.353560
1 Jan 2020 08:16:37.000,313.030,-75.812,26336.609822
1 Jan 2020 08:17:07.000,313.344,-75.976,26118.141920
1 Jan 2020 08:17:37.000,313.661,-76.158,25902.224368
1 Jan 2020 08:18:07.000,313.984,-76.357,25689.136019
1 Jan 2020 08:18:37.000,314.313,-76.573,25479.159742
1 Jan 2020 08:19:07.000,314.649,-76.808,25272.582042
1 Jan 2020 08:19:37.000,314.995,-77.061,25069.692301
1 Jan 2020 08:20:07.000,315.351,-77.331,24870.783623
1 Jan 2020 08:20:37.000,315.720,-77.620,24676.150275
1 Jan 2020 08:21:07.000,316.105,-77.927,24486.088429
1 Jan 2020 08:21:37.000,316.507,-78.253,24300.895146
1 Jan 2020 08:22:07.000,316.930,-78.596,24120.867644
1 Jan 2020 08:22:37.000,317.377,-78.957,23946.302219
1 Jan 2020 08:23:07.000,317.853,-79.336,23777.494472
1 Jan 2020 08:23:37.000,318.364,-79.732,23614.736717
1 Jan 2020 08:24:07.000,318.915,-80.144,23458.318102
1 Jan 2020 08:24:37.000,319.513,-80.574,23308.523271
1 Jan 2020 08:25:07.000,320.170,-81.019,23165.631020
1 Jan 2020 08:25:37.000,320.896,-81.479,23029.914106
1 Jan 2020 08:26:07.000,321.706,-81.953,22901.636592
1 Jan 2020 08:26:37.000,322.622,-82.441,22781.053608
1 Jan 2020 08:27:07.000,323.667,-82.942,22668.409688
1 Jan 2020 08:27:37.000,324.877,-83.453,22563.938221
1 Jan 2020 08:28:07.000,326.299,-83.974,22467.859133
1 Jan 2020 08:28:37.000,327.997,-84.502,22380.378396
1 Jan 2020 08:29:07.000,330.066,-85.036,22301.686519
1 Jan 2020 08:29:37.000,332.644,-85.571,22231.957943
1 Jan 2020 08:30:07.000,335.941,-86.104,22171.349149
1 Jan 2020 08:30:37.000,340.288,-86.628,22119.998226
1 Jan 2020 08:31:07.000,346.216,-87.132,22078.023772
1 Jan 2020 08:31:37.000,354.573,-87.597,22045.524387
1 Jan 2020 08:32:07.000,6.587,-87.993,22022.577564
1 Jan 2020 08:32:37.000,23.367,-88.265,22009.239476
1 Jan 2020 08:33:07.000,43.929,-88.349,22005.544520
1 Jan 2020 08:33:37.000,63.907,-88.217,22011.505064
1 Jan 2020 08:34:07.000,79.550,-87.910,22027.111356
1 Jan 2020 08:34:37.000,90.588,-87.494,22052.331618
1 Jan 2020 08:35:07.000,98.269,-87.017,22087.112346
1 Jan 2020 08:35:37.000,103.744,-86.507,22131.378368
1 Jan 2020 08:36:07.000,107.777,-85.979,22185.033803
1 Jan 2020 08:36:37.000,110.843,-85.445,22247.962432
1 Jan 2020 08:37:07.000,113.241,-84.908,22320.028690
1 Jan 2020 08:37:37.000,115.160,-84.374,22401.077971
1 Jan 2020 08:38:07.000,116.726,-83.846,22490.938448
1 Jan 2020 08:38:37.000,118.027,-83.326,22589.421596
1 Jan 2020 08:39:07.000,119.121,-82.816,22696.323653
1 Jan 2020 08:39:37.000,120.053,-82.317,22811.426024
1 Jan 2020 08:40:07.000,120.854,-81.831,22934.497643
1 Jan 2020 08:40:37.000,121.550,-81.358,23065.295462
1 Jan 2020 08:41:07.000,122.157,-80.900,23203.566106
1 Jan 2020 08:41:37.000,122.691,-80.457,23349.046234
1 Jan 2020 08:42:07.000,123.162,-80.030,23501.465056
1 Jan 2020 08:42:37.000,123.580,-79.620,23660.544670
1 Jan 2020 08:43:07.000,123.952,-79.227,23826.001430
1 Jan 2020 08:43:37.000,124.284,-78.851,23997.547331
1 Jan 2020 08:44:07.000,124.580,-78.493,24174.889945
1 Jan 2020 08:44:37.000,124.845,-78.153,24357.735080
1 Jan 2020 08:45:07.000,125.082,-77.832,24545.786618
1 Jan 2020 08:45:37.000,125.294,-77.528,24738.747655
1 Jan 2020 08:46:07.000,125.483,-77.243,24936.321307
1 Jan 2020 08:46:37.000,125.651,-76.976,25138.211453
1 Jan 2020 08:47:07.000,125.801,-76.728,25344.123737
1 Jan 2020 08:47:37.000,125.933,-76.498,25553.764861
1 Jan 2020 08:48:07.000,126.049,-76.286,25766.845108
1 Jan 2020 08:48:37.000,126.149,-76.091,25983.077521
1 Jan 2020 08:49:07.000,126.236,-75.915,26202.178663
1 Jan 2020 08:49:37.000,126.309,-75.756,26423.868997
1 Jan 2020 08:50:07.000,126.369,-75.615,26647.873214
1 Jan 2020 08:50:37.000,126.418,-75.490,26873.920522
1 Jan 2020 08:51:07.000,126.455,-75.383,27101.744879
1 Jan 2020 08:51:37.000,126.480,-75.292,27331.085196
1 Jan 2020 08:52:07.000,126.495,-75.217,27561.685502
1 Jan 2020 08:52:37.000,126.500,-75.157,27793.295074
1 Jan 2020 08:53:07.000,126.495,-75.114,28025.668536
1 Jan 2020 08:53:37.000,126.480,-75.085,28258.565938
1 Jan 2020 08:54:07.000,126.455,-75.072,28491.752798
1 Jan 2020 08:54:20.583,126.440,-75.070,28597.363156
1 Jan 2020 09:54:19.541,302.837,-75.063,28593.781707
1 Jan 2020 09:54:49.000,302.110,-75.069,28384.636984
1 Jan 2020 09:55:19.000,301.348,-75.087,28172.725387
1 Jan 2020 09:55:49.000,300.562,-75.116,27962.123026
1 Jan 2020 09:56:19.000,299.751,-75.159,27753.063572
1 Jan 2020 09:56:49.000,298.912,-75.213,27545.784093
1 Jan 2020 09:57:19.000,298.044,-75.280,27340.524842
1 Jan 2020 09:57:49.000,297.144,-75.359,27137.529010
1 Jan 2020 09:58:19.000,296.210,-75.450,26937.042453
1 Jan 2020 09:58:49.000,295.240,-75.553,26739.313379
1 Jan 2020 09:59:19.000,294.231,-75.668,26544.592007
1 Jan 2020 09:59:49.000,293.179,-75.795,26353.130179
1 Jan 2020 10:00:19.000,292.083,-75.933,26165.180942
1 Jan 2020 10:00:49.000,290.938,-76.083,25980.997763
1 Jan 2020 10:01:19.000,289.741,-76.243,25800.835312
1 Jan 2020 10:01:49.000,288.489,-76.413,25624.946980
1 Jan 2020 10:02:19.000,287.177,-76.593,25453.585587
1 Jan 2020 10:02:49.000,285.801,-76.782,25287.002426
1 Jan 2020 10:03:19.000,284.356,-76.980,25125.446597
1 Jan 2020 10:03:49.000,282.838,-77.185,24969.164040
1 Jan 2020 10:04:19.000,281.241,-77.397,24818.397808
1 Jan 2020 10:04:49.000,279.560,-77.614,24673.385747
1 Jan 2020 10:05:19.000,277.790,-77.836,24534.360715
1 Jan 2020 10:05:49.000,275.925,-78.061,24401.549487
1 Jan 2020 10:06:19.000,273.960,-78.288,24275.171674
1 Jan 2020 10:06:49.000,271.887,-78.515,24155.439724
1 Jan 2020 10:07:19.000,269.703,-78.741,24042.556710
1 Jan 2020 10:07:49.000,267.403,-78.964,23936.716342
1 Jan 2020 10:08:19.000,264.981,-79.182,23838.101857
1 Jan 2020 10:08:49.000,262.435,-79.393,23746.884978
1 Jan 2020 10:09:19.000,259.762,-79.595,23663.225818
1 Jan 2020 10:09:49.000,256.962,-79.786,23587.270935
1 Jan 2020 10:10:19.000,254.037,-79.964,23519.153341
1 Jan 2020 10:10:49.000,250.989,-80.126,23458.991489
1 Jan 2020 10:11:19.000,247.827,-80.271,23406.889074
1 Jan 2020 10:11:49.000,244.558,-80.397,23362.933752
1 Jan 2020 10:12:19.000,241.197,-80.501,23327.197120
1 Jan 2020 10:12:49.000,237.757,-80.582,23299.734112
1 Jan 2020 10:13:19.000,234.258,-80.640,23280.582927
1 Jan 2020 10:13:49.000,230.719,-80.673,23269.764392
1 Jan 2020 10:14:19.000,227.162,-80.681,23267.282114
1 Jan 2020 10:14:49.000,223.609,-80.663,23273.122361
1 Jan 2020 10:15:19.000,220.081,-80.620,23287.254170
1 Jan 2020 10:15:49.000,216.601,-80.553,23309.629441
1 Jan 2020 10:16:19.000,213.186,-80.463,23340.183265
1 Jan 2020 10:16:49.000,209.853,-80.351,23378.834315
1 Jan 2020 10:17:19.000,206.616,-80.219,23425.485118
1 Jan 2020 10:17:49.000,203.485,-80.069,23480.022840
1 Jan 2020 10:18:19.000,200.468,-79.903,23542.319740
1 Jan 2020 10:18:49.000,197.570,-79.723,23612.233984
1 Jan 2020 10:19:19.000,194.792,-79.531,23689.610013
1 Jan 2020 10:19:49.000,192.136,-79.330,23774.279868
1 Jan 2020 10:20:19.000,189.599,-79.120,23866.063677
1 Jan 2020 10:20:49.000,187.178,-78.905,23964.770599
1 Jan 2020 10:21:19.000,184.870,-78.686,24070.199882
1 Jan 2020 10:21:49.000,182.670,-78.465,24182.141100
1 Jan 2020 10:22:19.000,180.571,-78.243,24300.376027
1 Jan 2020 10:22:49.000,178.570,-78.022,24424.678908
1 Jan 2020 10:23:19.000,176.659,-77.804,24554.817501
1 Jan 2020 10:23:49.000,174.833,-77.589,24690.553953
1 Jan 2020 10:24:19.000,173.087,-77.379,24831.645875
1 Jan 2020 10:24:49.000,171.415,-77.175,24977.846273
1 Jan 2020 10:25:19.000,169.812,-76.977,25128.905662
1 Jan 2020 10:25:49.000,168.272,-76.787,25284.571949
1 Jan 2020 10:26:19.000,166.791,-76.605,25444.591357
1 Jan 2020 10:26:49.000,165.364,-76.431,25608.709108
1 Jan 2020 10:27:19.000,163.987,-76.267,25776.670049
1 Jan 2020 10:27:49.000,162.656,-76.112,25948.219240
1 Jan 2020 10:28:19.000,161.368,-75.968,26123.102762
1 Jan 2020 10:28:49.000,160.118,-75.834,26301.067189
1 Jan 2020 10:29:19.000,158.904,-75.710,26481.861582
1 Jan 2020 10:29:49.000,157.722,-75.597,26665.236888
1 Jan 2020 10:30:19.000,156.570,-75.495,26850.946580
1 Jan 2020 10:30:49.000,155.444,-75.404,27038.746988
1 Jan 2020 10:31:19.000,154.342,-75.324,27228.397611
1 Jan 2020 10:31:49.000,153.262,-75.255,27419.661379
1 Jan 2020 10:32:19.000,152.202,-75.196,27612.304900
1 Jan 2020 10:32:49.000,151.159,-75.149,27806.098657
1 Jan 2020 10:33:19.000,150.131,-75.112,28000.817194
1 Jan 2020 10:33:49.000,149.116,-75.086,28196.239263
1 Jan 2020 10:34:19.000,148.113,-75.071,28392.147957
1 Jan 2020 10:34:49.000,147.120,-75.066,28588.330810
1 Jan 2020 10:34:49.728,147.096,-75.066,28593.093313
1 Jan 2020 11:34:15.082,317.316,-75.065,28592.891728
1 Jan 2020 11:34:45.000,315.929,-75.068,28442.528364
1 Jan 2020 11:35:15.000,314.517,-75.077,28293.896203
1 Jan 2020 11:35:45.000,313.083,-75.091,28147.605471
1 Jan 2020 11:36:15.000,311.625,-75.111,28003.849219
1 Jan 2020 11:36:45.000,310.142,-75.136,27862.819974
1 Jan 2020 11:37:15.000,308.633,-75.167,27724.709383
1 Jan 2020 11:37:45.000,307.097,-75.202,27589.707839
1 Jan 2020 11:38:15.000,305.532,-75.241,27458.004084
1 Jan 2020 11:38:45.000,303.939,-75.285,27329.784799
1 Jan 2020 11:39:15.000,302.315,-75.332,27205.234179
1 Jan 2020 11:39:45.000,300.660,-75.382,27084.533293
1 Jan 2020 11:40:15.000,298.974,-75.436,26967.860408
1 Jan 2020 11:40:45.000,297.255,-75.492,26855.389349
1 Jan 2020 11:41:15.000,295.503,-75.549,26747.289805
1 Jan 2020 11:41:45.000,293.718,-75.608,26643.726649
1 Jan 2020 11:42:15.000,291.899,-75.668,26544.859450
1 Jan 2020 11:42:45.000,290.047,-75.729,26450.841977
1 Jan 2020 11:43:15.000,288.162,-75.789,26361.821569
1 Jan 2020 11:43:45.000,286.245,-75.849,26277.939234
1 Jan 2020 11:44:15.000,284.295,-75.907,26199.328276
1 Jan 2020 11:44:45.000,282.313,-75.964,26126.114435
1 Jan 2020 11:45:15.000,280.302,-76.018,26058.415277
1 Jan 2020 11:45:45.000,278.262,-76.070,25996.339767
1 Jan 2020 11:46:15.000,276.195,-76.118,25939.987758
1 Jan 2020 11:46:45.000,274.102,-76.162,25889.449998
1 Jan 2020 11:47:15.000,271.986,-76.202,25844.807171
1 Jan 2020 11:47:45.000,269.850,-76.237,25806.129990
1 Jan 2020 11:48:15.000,267.695,-76.268,25773.478798
1 Jan 2020 11:48:45.000,265.525,-76.293,25746.903280
1 Jan 2020 11:49:15.000,263.343,-76.312,25726.442435
1 Jan 2020 11:49:45.000,261.151,-76.326,25712.124129
1 Jan 2020 11:50:15.000,258.953,-76.334,25703.965172
1 Jan 2020 11:50:45.000,256.752,-76.336,25701.971197
1 Jan 2020 11:51:15.000,254.552,-76.332,25706.136633
1 Jan 2020 11:51:45.000,252.355,-76.322,25716.444730
1 Jan 2020 11:52:15.000,250.166,-76.306,25732.867614
1 Jan 2020 11:52:45.000,247.986,-76.284,25755.366417
1 Jan 2020 11:53:15.000,245.819,-76.258,25783.891437
1 Jan 2020 11:53:45.000,243.668,-76.226,25818.382381
1 Jan 2020 11:54:15.000,241.536,-76.189,25858.768453
1 Jan 2020 11:54:45.000,239.424,-76.147,25904.968867
1 Jan 2020 11:55:15.000,237.335,-76.102,25956.893030
1 Jan 2020 11:55:45.000,235.272,-76.053,26014.440926
1 Jan 2020 11:56:15.000,233.235,-76.001,26077.503506
1 Jan 2020 11:56:45.000,231.226,-75.947,26145.963199
1 Jan 2020 11:57:15.000,229.246,-75.891,26219.693959
1 Jan 2020 11:57:45.000,227.296,-75.833,26298.562292
1 Jan 2020 11:58:15.000,225.377,-75.774,26382.427357
1 Jan 2020 11:58:45.000,223.489,-75.714,26471.141535
1 Jan 2020 11:59:15.000,221.633,-75.655,26564.550926
1 Jan 2020 11:59:45.000,219.808,-75.596,26662.495841
1 Jan 2020 12:00:15.000,218.014,-75.538,26764.811453
1 Jan 2020 12:00:45.000,216.251,-75.481,26871.327701
1 Jan 2020 12:01:15.000,214.519,-75.427,26981.870658
1 Jan 2020 12:01:45.000,212.817,-75.375,27096.262443
1 Jan 2020 12:02:15.000,211.143,-75.326,27214.321832
1 Jan 2020 12:02:45.000,209.498,-75.280,27335.864730
1 Jan 2020 12:03:15.000,207.881,-75.238,27460.704615
1 Jan 2020 12:03:45.000,206.289,-75.200,27588.652981
1 Jan 2020 12:04:15.000,204.723,-75.165,27719.519750
1 Jan 2020 12:04:45.000,203.182,-75.136,27853.113680
1 Jan 2020 12:05:15.000,201.663,-75.111,27989.242936
1 Jan 2020 12:05:45.000,200.166,-75.091,28127.714693
1 Jan 2020 12:06:15.000,198.690,-75.076,28268.336624
1 Jan 2020 12:06:45.000,197.233,-75.066,28410.916463
1 Jan 2020 12:07:15.000,195.794,-75.062,28555.262505
1 Jan 2020 12:07:22.824,195.421,-75.062,28593.173268
1 Jan 2020 13:05:33.529,7.574,-75.071,28596.554454
1 Jan 2020 13:06:03.000,6.270,-75.074,28438.345855
1 Jan 2020 13:06:33.000,4.927,-75.084,28278.332538
1 Jan 2020 13:07:03.000,3.567,-75.101,28119.559931
1 Jan 2020 13:07:33.000,2.189,-75.125,27962.230295
1 Jan 2020 13:08:03.000,0.790,-75.155,27806.548011
1 Jan 2020 13:08:33.000,359.370,-75.192,27652.719326
1 Jan 2020 13:09:03.000,357.926,-75.235,27500.952079
1 Jan 2020 13:09:33.000,356.458,-75.285,27351.455406
1 Jan 2020 13:10:03.000,354.962,-75.340,27204.439415
1 Jan 2020 13:10:33.000,353.437,-75.402,27060.114838
1 Jan 2020 13:11:03.000,351.883,-75.468,26918.692663
1 Jan 2020 13:11:33.000,350.296,-75.540,26780.383732
1 Jan 2020 13:12:03.000,348.676,-75.616,26645.398317
1 Jan 2020 13:12:33.000,347.020,-75.697,26513.945484
1 Jan 2020 13:13:03.000,345.327,-75.782,26386.233381
1 Jan 2020 13:13:33.000,343.596,-75.870,26262.467590
1 Jan 2020 13:14:03.000,341.826,-75.961,26142.851381
1 Jan 2020 13:14:33.000,340.014,-76.054,26027.584978
1 Jan 2020 13:15:03.000,338.160,-76.148,25916.865002
1 Jan 2020 13:15:33.000,336.263,-76.244,25810.883895
1 Jan 2020 13:16:03.000,334.322,-76.340,25709.829200
1 Jan 2020 13:16:33.000,332.337,-76.435,25613.883508
1 Jan 2020 13:17:03.000,330.308,-76.529,25523.223024
1 Jan 2020 13:17:33.000,328.234,-76.621,25438.017521
1 Jan 2020 13:18:03.000,326.116,-76.711,25358.429592
1 Jan 2020 13:18:33.000,323.956,-76.796,25284.614051
1 Jan 2020 13:19:03.000,321.753,-76.878,25216.717259
1 Jan 2020 13:19:33.000,319.511,-76.954,25154.876902
1 Jan 2020 13:20:03.000,317.231,-77.025,25099.220897
1 Jan 2020 13:20:33.000,314.917,-77.089,25049.867232
1 Jan 2020 13:21:03.000,312.570,-77.146,25006.923381
1 Jan 2020 13:21:33.000,310.196,-77.195,24970.485805
1 Jan 2020 13:22:03.000,307.797,-77.235,24940.639672
1 Jan 2020 13:22:33.000,305.379,-77.267,24917.458258
1 Jan 2020 13:23:03.000,302.946,-77.290,24901.002779
1 Jan 2020 13:23:33.000,300.503,-77.304,24891.322071
1 Jan 2020 13:24:03.000,298.055,-77.308,24888.452391
1 Jan 2020 13:24:33.000,295.609,-77.302,24892.417179
1 Jan 2020 13:25:03.000,293.168,-77.287,24903.227050
1 Jan 2020 13:25:33.000,290.739,-77.262,24920.879698
1 Jan 2020 13:26:03.000,288.327,-77.228,24945.359924
1 Jan 2020 13:26:33.000,285.936,-77.185,24976.639790
1 Jan 2020 13:27:03.000,283.571,-77.134,25014.678455
1 Jan 2020 13:27:33.000,281.237,-77.075,25059.422808
1 Jan 2020 13:28:03.000,278.937,-77.008,25110.807435
1 Jan 2020 13:28:33.000,276.675,-76.935,25168.754991
1 Jan 2020 13:29:03.000,274.453,-76.856,25233.176679
1 Jan 2020 13:29:33.000,272.274,-76.771,25303.972150
1 Jan 2020 13:30:03.000,270.140,-76.682,25381.030671
1 Jan 2020 13:30:33.000,268.053,-76.590,25464.231123
1 Jan 2020 13:31:03.000,266.014,-76.494,25553.442623
1 Jan 2020 13:31:33.000,264.023,-76.397,25648.525057
1 Jan 2020 13:32:03.000,262.081,-76.298,25749.329829
1 Jan 2020 13:32:33.000,260.187,-76.199,25855.699663
1 Jan 2020 13:33:03.000,258.342,-76.101,25967.470324
1 Jan 2020 13:33:33.000,256.544,-76.003,26084.470458
1 Jan 2020 13:34:03.000,254.794,-75.907,26206.522372
1 Jan 2020 13:34:33.000,253.089,-75.814,26333.442620
1 Jan 2020 13:35:03.000,251.430,-75.724,26465.042594
1 Jan 2020 13:35:33.000,249.814,-75.638,26601.129331
1 Jan 2020 13:36:03.000,248.240,-75.556,26741.505142
1 Jan 2020 13:36:33.000,246.707,-75.479,26885.969561
1 Jan 2020 13:37:03.000,245.212,-75.408,27034.318948
1 Jan 2020 13:37:33.000,243.756,-75.342,27186.347234
1 Jan 2020 13:38:03.000,242.335,-75.283,27341.846410
1 Jan 2020 13:38:33.000,240.948,-75.230,27500.606997
1 Jan 2020 13:39:03.000,239.594,-75.184,27662.418494
1 Jan 2020 13:39:33.000,238.271,-75.145,27827.069794
1 Jan 2020 13:40:03.000,236.977,-75.113,27994.349586
1 Jan 2020 13:40:33.000,235.711,-75.089,28164.046725
1 Jan 2020 13:41:03.000,234.470,-75.073,28335.950851
1 Jan 2020 13:41:33.000,233.254,-75.065,28509.851624
1 Jan 2020 13:41:48.024,232.654,-75.064,28597.624841
1 Jan 2020 14:41:42.425,44.212,-75.075,28602.745070
1 Jan 2020 14:42:12.000,43.581,-75.081,28387.190234
1 Jan 2020 14:42:42.000,42.937,-75.100,28168.563184
1 Jan 2020 14:43:12.000,42.289,-75.132,27950.183012
1 Jan 2020 14:43:42.000,41.635,-75.178,27732.276617
1 Jan 2020 14:44:12.000,40.974,-75.237,27515.076192
1 Jan 2020 14:44:42.000,40.304,-75.311,27298.819151
1 Jan 2020 14:45:12.000,39.624,-75.399,27083.748048
1 Jan 2020 14:45:42.000,38.932,-75.501,26870.110456
1 Jan 2020 14:46:12.000,38.226,-75.618,26658.158824
1 Jan 2020 14:46:42.000,37.503,-75.750,26448.150302
1 Jan 2020 14:47:12.000,36.762,-75.897,26240.346530
1 Jan 2020 14:47:42.000,36.000,-76.059,26035.013389
1 Jan 2020 14:48:12.000,35.214,-76.236,25832.420709
1 Jan 2020 14:48:42.000,34.402,-76.429,25632.841938
1 Jan 2020 14:49:12.000,33.559,-76.636,25436.553760
1 Jan 2020 14:49:42.000,32.682,-76.859,25243.835369
1 Jan 2020 14:50:12.000,31.766,-77.098,25054.969178
1 Jan 2020 14:50:42.000,30.808,-77.351,24870.238483
1 Jan 2020 14:51:12.000,29.801,-77.618,24689.928077
1 Jan 2020 14:51:42.000,28.740,-77.900,24514.323293
1 Jan 2020 14:52:12.000,27.617,-78.196,24343.709296
1 Jan 2020 14:52:42.000,26.425,-78.505,24178.370074
1 Jan 2020 14:53:12.000,25.154,-78.827,24018.588580
1 Jan 2020 14:53:42.000,23.795,-79.160,23864.644380
1 Jan 2020 14:54:12.000,22.335,-79.504,23716.813708
1 Jan 2020 14:54:42.000,20.762,-79.858,23575.368226
1 Jan 2020 14:55:12.000,19.058,-80.221,23440.573785
1 Jan 2020 14:55:42.000,17.205,-80.590,23312.690192
1 Jan 2020 14:56:12.000,15.184,-80.964,23191.968834
1 Jan 2020 14:56:42.000,12.969,-81.341,23078.652409
1 Jan 2020 14:57:12.000,10.533,-81.718,22972.973424
1 Jan 2020 14:57:42.000,7.845,-82.092,22875.153643
1 Jan 2020 14:58:12.000,4.871,-82.460,22785.402044
1 Jan 2020 14:58:42.000,1.574,-82.818,22703.914322
1 Jan 2020 14:59:12.000,357.916,-83.161,22630.871550
1 Jan 2020 14:59:42.000,353.860,-83.484,22566.439576
1 Jan 2020 15:00:12.000,349.377,-83.781,22510.767384
1 Jan 2020 15:00:42.000,344.450,-84.044,22463.986661
1 Jan 2020 15:01:12.000,339.082,-84.268,22426.210823
1 Jan 2020 15:01:42.000,333.308,-84.445,22397.534509
1 Jan 2020 15:02:12.000,327.198,-84.570,22378.032654
1 Jan 2020 15:02:42.000,320.861,-84.637,22367.760246
1 Jan 2020 15:03:12.000,314.433,-84.643,22366.751937
1 Jan 2020 15:03:42.000,308.066,-84.589,22375.021747
1 Jan 2020 15:04:12.000,301.900,-84.476,22392.563067
1 Jan 2020 15:04:42.000,296.053,-84.309,22419.348675
1 Jan 2020 15:05:12.000,290.604,-84.093,22455.331025
1 Jan 2020 15:05:42.000,285.596,-83.836,22500.442219
1 Jan 2020 15:06:12.000,281.041,-83.544,22554.594962
1 Jan 2020 15:06:42.000,276.925,-83.224,22617.682812
1 Jan 2020 15:07:12.000,273.221,-82.881,22689.581095
1 Jan 2020 15:07:42.000,269.893,-82.523,22770.147099
1 Jan 2020 15:08:12.000,266.905,-82.153,22859.221804
1 Jan 2020 15:08:42.000,264.218,-81.776,22956.630275
1 Jan 2020 15:09:12.000,261.797,-81.395,23062.183007
1 Jan 2020 15:09:42.000,259.611,-81.014,23175.676216
1 Jan 2020 15:10:12.000,257.632,-80.634,23296.894070
1 Jan 2020 15:10:42.000,255.834,-80.260,23425.609064
1 Jan 2020 15:11:12.000,254.196,-79.891,23561.583341
1 Jan 2020 15:11:42.000,252.700,-79.531,23704.570092
1 Jan 2020 15:12:12.000,251.328,-79.180,23854.313574
1 Jan 2020 15:12:42.000,250.067,-78.840,24010.551842
1 Jan 2020 15:13:12.000,248.905,-78.512,24173.016734
1 Jan 2020 15:13:42.000,247.831,-78.196,24341.435165
1 Jan 2020 15:14:12.000,246.836,-77.894,24515.530111
1 Jan 2020 15:14:42.000,245.911,-77.607,24695.021867
1 Jan 2020 15:15:12.000,245.051,-77.333,24879.627639
1 Jan 2020 15:15:42.000,244.248,-77.075,25069.064292
1 Jan 2020 15:16:12.000,243.497,-76.832,25263.047849
1 Jan 2020 15:16:42.000,242.794,-76.605,25461.294515
1 Jan 2020 15:17:12.000,242.134,-76.393,25663.521334
1 Jan 2020 15:17:42.000,241.514,-76.198,25869.446785
1 Jan 2020 15:18:12.000,240.931,-76.018,26078.791320
1 Jan 2020 15:18:42.000,240.380,-75.854,26291.277857
1 Jan 2020 15:19:12.000,239.861,-75.707,26506.632561
1 Jan 2020 15:19:42.000,239.370,-75.575,26724.583829
1 Jan 2020 15:20:12.000,238.906,-75.458,26944.864729
1 Jan 2020 15:20:42.000,238.466,-75.358,27167.211899
1 Jan 2020 15:21:12.000,238.049,-75.273,27391.366153
1 Jan 2020 15:21:42.000,237.653,-75.202,27617.072692
1 Jan 2020 15:22:12.000,237.278,-75.147,27844.081292
1 Jan 2020 15:22:42.000,236.921,-75.107,28072.146451
1 Jan 2020 15:23:12.000,236.581,-75.081,28301.027513
1 Jan 2020 15:23:42.000,236.258,-75.070,28530.488759
1 Jan 2020 15:23:51.679,236.157,-75.069,28604.603377
1 Jan 2020 16:23:51.921,56.628,-75.077,28608.917903
1 Jan 2020 16:24:21.000,57.034,-75.084,28388.945060
1 Jan 2020 16:24:51.000,57.471,-75.104,28162.620616
1 Jan 2020 16:25:21.000,57.926,-75.138,27937.149168
1 Jan 2020 16:25:51.000,58.402,-75.187,27712.769592
1 Jan 2020 16:26:21.000,58.900,-75.250,27489.725376
1 Jan 2020 16:26:51.000,59.421,-75.327,27268.264484
1 Jan 2020 16:27:21.000,59.967,-75.420,27048.639197
1 Jan 2020 16:27:51.000,60.541,-75.527,26831.105916
1 Jan 2020 16:28:21.000,61.143,-75.650,26615.924932
1 Jan 2020 16:28:51.000,61.777,-75.787,26403.360165
1 Jan 2020 16:29:21.000,62.445,-75.939,26193.678855
1 Jan 2020 16:29:51.000,63.149,-76.107,25987.151215
1 Jan 2020 16:30:21.000,63.894,-76.290,25784.050039
1 Jan 2020 16:30:51.000,64.682,-76.487,25584.649920
1 Jan 2020 16:31:21.000,65.518,-76.699,25389.228124
1 Jan 2020 16:31:51.000,66.405,-76.926,25198.061993
1 Jan 2020 16:32:21.000,67.349,-77.166,25011.429727
1 Jan 2020 16:32:51.000,68.355,-77.421,24829.609389
1 Jan 2020 16:33:21.000,69.429,-77.688,24652.878197
1 Jan 2020 16:33:51.000,70.579,-77.969,24481.511496
1 Jan 2020 16:34:21.000,71.811,-78.261,24315.783060
1 Jan 2020 16:34:51.000,73.135,-78.564,24155.962539
1 Jan 2020 16:35:21.000,74.561,-78.876,24002.315687
1 Jan 2020 16:35:51.000,76.099,-79.198,23855.103119
1 Jan 2020 16:36:21.000,77.763,-79.527,23714.579073
1 Jan 2020 16:36:51.000,79.566,-79.863,23580.991368
1 Jan 2020 16:37:21.000,81.523,-80.202,23454.578856
1 Jan 2020 16:37:51.000,83.653,-80.543,23335.571357
1 Jan 2020 16:38:21.000,85.974,-80.884,23224.188142
1 Jan 2020 16:38:51.000,88.506,-81.221,23120.637594
1 Jan 2020 16:39:21.000,91.271,-81.553,23025.115018
1 Jan 2020 16:39:51.000,94.290,-81.876,22937.802364
1 Jan 2020 16:40:21.000,97.584,-82.185,22858.866885
1 Jan 2020 16:40:51.000,101.171,-82.476,22788.460773
1 Jan 2020 16:41:21.000,105.065,-82.746,22726.719366
1 Jan 2020 16:41:51.000,109.270,-82.989,22673.760949
1 Jan 2020 16:42:21.000,113.780,-83.200,22629.685775
1 Jan 2020 16:42:51.000,118.574,-83.374,22594.575809
1 Jan 2020 16:43:21.000,123.612,-83.508,22568.493618
1 Jan 2020 16:43:51.000,128.837,-83.597,22551.482365
1 Jan 2020 16:44:21.000,134.178,-83.639,22543.565390
1 Jan 2020 16:44:51.000,139.551,-83.633,22544.746166
1 Jan 2020 16:45:21.000,144.870,-83.578,22555.008061
1 Jan 2020 16:45:51.000,150.055,-83.477,22574.314592
1 Jan 2020 16:46:21.000,155.039,-83.333,22602.609643
1 Jan 2020 16:46:51.000,159.769,-83.150,22639.817664
1 Jan 2020 16:47:21.000,164.213,-82.931,22685.844348
1 Jan 2020 16:47:51.000,168.355,-82.683,22740.577087
1 Jan 2020 16:48:21.000,172.193,-82.410,22803.885788
1 Jan 2020 16:48:51.000,175.733,-82.116,22875.623258
1 Jan 2020 16:49:21.000,178.993,-81.807,22955.626632
1 Jan 2020 16:49:51.000,181.989,-81.486,23043.717939
1 Jan 2020 16:50:21.000,184.745,-81.156,23139.705329
1 Jan 2020 16:50:51.000,187.282,-80.822,23243.383525
1 Jan 2020 16:51:21.000,189.621,-80.485,23354.535740
1 Jan 2020 16:51:51.000,191.781,-80.149,23472.934211
1 Jan 2020 16:52:21.000,193.782,-79.816,23598.341427
1 Jan 2020 16:52:51.000,195.640,-79.487,23730.511448
1 Jan 2020 16:53:21.000,197.370,-79.164,23869.190101
1 Jan 2020 16:53:51.000,198.986,-78.850,24014.117346
1 Jan 2020 16:54:21.000,200.500,-78.544,24165.027443
1 Jan 2020 16:54:51.000,201.923,-78.248,24321.650162
1 Jan 2020 16:55:21.000,203.264,-77.963,24483.711725
1 Jan 2020 16:55:51.000,204.532,-77.689,24650.935986
1 Jan 2020 16:56:21.000,205.735,-77.428,24823.044207
1 Jan 2020 16:56:51.000,206.879,-77.180,24999.757455
1 Jan 2020 16:57:21.000,207.970,-76.945,25180.796290
1 Jan 2020 16:57:51.000,209.015,-76.723,25365.881717
1 Jan 2020 16:58:21.000,210.017,-76.516,25554.735819
1 Jan 2020 16:58:51.000,210.982,-76.322,25747.082338
1 Jan 2020 16:59:21.000,211.912,-76.143,25942.647194
1 Jan 2020 16:59:51.000,212.812,-75.978,26141.158968
1 Jan 2020 17:00:21.000,213.685,-75.827,26342.349315
1 Jan 2020 17:00:51.000,214.534,-75.690,26545.953671
1 Jan 2020 17:01:21.000,215.362,-75.567,26751.710293
1 Jan 2020 17:01:51.000,216.171,-75.459,26959.362472
1 Jan 2020 17:02:21.000,216.963,-75.364,27168.657503
1 Jan 2020 17:02:51.000,217.740,-75.283,27379.347219
1 Jan 2020 17:03:21.000,218.505,-75.216,27591.188167
1 Jan 2020 17:03:51.000,219.259,-75.162,27803.941756
1 Jan 2020 17:04:21.000,220.004,-75.121,28017.374378
1 Jan 2020 17:04:51.000,220.742,-75.093,28231.257501
1 Jan 2020 17:05:21.000,221.474,-75.077,28445.367740
1 Jan 2020 17:05:44.071,222.034,-75.073,28610.045369
1 Jan 2020 18:05:35.529,50.989,-75.077,28611.460169
1 Jan 2020 18:06:05.000,52.225,-75.081,28445.854455
1 Jan 2020 18:06:35.000,53.507,-75.092,28279.236969
1 Jan 2020 18:07:05.000,54.813,-75.110,28114.804666
1 Jan 2020 18:07:35.000,56.145,-75.136,27952.763444
1 Jan 2020 18:08:05.000,57.505,-75.168,27793.319519
1 Jan 2020 18:08:35.000,58.895,-75.207,27636.679075
1 Jan 2020 18:09:05.000,60.315,-75.253,27483.047897
1 Jan 2020 18:09:35.000,61.767,-75.304,27332.630978
1 Jan 2020 18:10:05.000,63.253,-75.362,27185.632110
1 Jan 2020 18:10:35.000,64.775,-75.424,27042.253440
1 Jan 2020 18:11:05.000,66.332,-75.492,26902.694794
1 Jan 2020 18:11:35.000,67.928,-75.563,26767.154107
1 Jan 2020 18:12:05.000,69.563,-75.639,26635.825548
1 Jan 2020 18:12:35.000,71.238,-75.718,26508.899936
1 Jan 2020 18:13:05.000,72.955,-75.801,26386.563971
1 Jan 2020 18:13:35.000,74.714,-75.885,26268.999697
1 Jan 2020 18:14:05.000,76.515,-75.971,26156.383951
1 Jan 2020 18:14:35.000,78.361,-76.057,26048.887612
1 Jan 2020 18:15:05.000,80.250,-76.144,25946.675808
1 Jan 2020 18:15:35.000,82.183,-76.231,25849.906193
1 Jan 2020 18:16:05.000,84.160,-76.316,25758.729167
1 Jan 2020 18:16:35.000,86.179,-76.400,25673.287137
1 Jan 2020 18:17:05.000,88.242,-76.481,25593.713974
1 Jan 2020 18:17:35.000,90.345,-76.558,25520.134358
1 Jan 2020 18:18:05.000,92.488,-76.631,25452.663850
1 Jan 2020 18:18:35.000,94.668,-76.700,25391.407548
1 Jan 2020 18:19:05.000,96.883,-76.763,25336.460244
1 Jan 2020 18:19:35.000,99.131,-76.820,25287.905861
1 Jan 2020 18:20:05.000,101.408,-76.871,25245.817017
1 Jan 2020 18:20:35.000,103.711,-76.914,25210.255021
1 Jan 2020 18:21:05.000,106.036,-76.950,25181.269103
1 Jan 2020 18:21:35.000,108.378,-76.978,25158.896526
1 Jan 2020 18:22:05.000,110.734,-76.998,25143.162330
1 Jan 2020 18:22:35.000,113.099,-77.010,25134.079181
1 Jan 2020 18:23:05.000,115.468,-77.013,25131.647437
1 Jan 2020 18:23:35.000,117.837,-77.008,25135.854935
1 Jan 2020 18:24:05.000,120.201,-76.994,25146.677190
1 Jan 2020 18:24:35.000,122.556,-76.972,25164.077459
1 Jan 2020 18:25:05.000,124.897,-76.942,25188.006932
1 Jan 2020 18:25:35.000,127.219,-76.905,25218.404859
1 Jan 2020 18:26:05.000,129.520,-76.860,25255.198927
1 Jan 2020 18:26:35.000,131.796,-76.808,25298.305515
1 Jan 2020 18:27:05.000,134.044,-76.751,25347.630064
1 Jan 2020 18:27:35.000,136.260,-76.687,25403.067545
1 Jan 2020 18:28:05.000,138.442,-76.619,25464.502637
1 Jan 2020 18:28:35.000,140.589,-76.546,25531.810578
1 Jan 2020 18:29:05.000,142.699,-76.470,25604.857422
1 Jan 2020 18:29:35.000,144.770,-76.390,25683.500617
1 Jan 2020 18:30:05.000,146.801,-76.308,25767.589553
1 Jan 2020 18:30:35.000,148.793,-76.225,25856.966246
1 Jan 2020 18:31:05.000,150.745,-76.141,25951.465401
1 Jan 2020 18:31:35.000,152.657,-76.056,26050.915729
1 Jan 2020 18:32:05.000,154.529,-75.972,26155.140037
1 Jan 2020 18:32:35.000,156.362,-75.889,26263.955919
1 Jan 2020 18:33:05.000,158.157,-75.808,26377.176325
1 Jan 2020 18:33:35.000,159.914,-75.728,26494.610117
1 Jan 2020 18:34:05.000,161.634,-75.652,26616.062782
1 Jan 2020 18:34:35.000,163.320,-75.578,26741.336310
1 Jan 2020 18:35:05.000,164.971,-75.509,26870.230679
1 Jan 2020 18:35:35.000,166.590,-75.443,27002.543712
1 Jan 2020 18:36:05.000,168.178,-75.382,27138.071706
1 Jan 2020 18:36:35.000,169.736,-75.326,27276.609891
1 Jan 2020 18:37:05.000,171.266,-75.275,27417.952859
1 Jan 2020 18:37:35.000,172.769,-75.229,27561.894973
1 Jan 2020 18:38:05.000,174.247,-75.189,27708.230751
1 Jan 2020 18:38:35.000,175.702,-75.155,27856.755224
1 Jan 2020 18:39:05.000,177.134,-75.127,28007.264279
1 Jan 2020 18:39:35.000,178.546,-75.105,28159.554965
1 Jan 2020 18:40:05.000,179.940,-75.090,28313.425791
1 Jan 2020 18:40:35.000,181.316,-75.080,28468.676986
1 Jan 2020 18:41:02.375,182.557,-75.078,28611.380182
1 Jan 2020 19:39:07.919,10.138,-75.072,28609.028528
1 Jan 2020 19:39:37.000,11.514,-75.074,28466.220356
1 Jan 2020 19:40:07.000,12.951,-75.083,28320.446107
1 Jan 2020 19:40:37.000,14.406,-75.097,28176.432348
1 Jan 2020 19:41:07.000,15.880,-75.116,28034.373249
1 Jan 2020 19:41:37.000,17.376,-75.141,27894.463706
1 Jan 2020 19:42:07.000,18.895,-75.171,27756.899026
1 Jan 2020 19:42:37.000,20.437,-75.206,27621.874602
1 Jan 2020 19:43:07.000,22.005,-75.245,27489.585569
1 Jan 2020 19:43:37.000,23.598,-75.288,27360.226426
1 Jan 2020 19:44:07.000,25.219,-75.336,27233.990657
1 Jan 2020 19:44:37.000,26.868,-75.387,27111.070315
1 Jan 2020 19:45:07.000,28.547,-75.441,26991.655441
1 Jan 2020 19:45:37.000,30.256,-75.499,26875.934256
1 Jan 2020 19:46:07.000,31.997,-75.559,26764.091735
1 Jan 2020 19:46:37.000,33.769,-75.620,26656.309781
1 Jan 2020 19:47:07.000,35.574,-75.684,26552.766571
1 Jan 2020 19:47:37.000,37.411,-75.748,26453.636059
1 Jan 2020 19:48:07.000,39.282,-75.813,26359.087467
1 Jan 2020 19:48:37.000,41.186,-75.878,26269.284657
1 Jan 2020 19:49:07.000,43.122,-75.942,26184.386086
1 Jan 2020 19:49:37.000,45.092,-76.005,26104.543573
1 Jan 2020 19:50:07.000,47.093,-76.066,26029.902276
1 Jan 2020 19:50:37.000,49.125,-76.125,25960.600061
1 Jan 2020 19:51:07.000,51.187,-76.182,25896.767017
1 Jan 2020 19:51:37.000,53.278,-76.235,25838.524902
1 Jan 2020 19:52:07.000,55.395,-76.284,25785.986985
1 Jan 2020 19:52:37.000,57.537,-76.328,25739.257153
1 Jan 2020 19:53:07.000,59.700,-76.368,25698.429820
1 Jan 2020 19:53:37.000,61.884,-76.403,25663.589467
1 Jan 2020 19:54:07.000,64.084,-76.432,25634.810304
1 Jan 2020 19:54:37.000,66.299,-76.455,25612.155940
1 Jan 2020 19:55:07.000,68.524,-76.472,25595.679213
1 Jan 2020 19:55:37.000,70.756,-76.483,25585.421816
1 Jan 2020 19:56:07.000,72.992,-76.487,25581.414236
1 Jan 2020 19:56:37.000,75.229,-76.485,25583.675589
1 Jan 2020 19:57:07.000,77.462,-76.476,25592.213576
1 Jan 2020 19:57:37.000,79.689,-76.461,25607.024337
1 Jan 2020 19:58:07.000,81.905,-76.439,25628.092623
1 Jan 2020 19:58:37.000,84.108,-76.412,25655.391774
1 Jan 2020 19:59:07.000,86.294,-76.379,25688.883850
1 Jan 2020 19:59:37.000,88.460,-76.340,25728.519876
1 Jan 2020 20:00:07.000,90.604,-76.296,25774.239756
1 Jan 2020 20:00:37.000,92.722,-76.248,25825.972951
1 Jan 2020 20:01:07.000,94.813,-76.196,25883.638493
1 Jan 2020 20:01:37.000,96.875,-76.139,25947.145388
1 Jan 2020 20:02:07.000,98.906,-76.080,26016.392976
1 Jan 2020 20:02:37.000,100.905,-76.018,26091.271469
1 Jan 2020 20:03:07.000,102.870,-75.955,26171.661823
1 Jan 2020 20:03:37.000,104.800,-75.890,26257.436996
1 Jan 2020 20:04:07.000,106.695,-75.824,26348.461880
1 Jan 2020 20:04:37.000,108.555,-75.758,26444.593916
1 Jan 2020 20:05:07.000,110.379,-75.692,26545.683584
1 Jan 2020 20:05:37.000,112.167,-75.627,26651.574908
1 Jan 2020 20:06:07.000,113.920,-75.564,26762.106152
1 Jan 2020 20:06:37.000,115.638,-75.502,26877.109565
1 Jan 2020 20:07:07.000,117.322,-75.443,26996.413019
1 Jan 2020 20:07:37.000,118.971,-75.388,27119.839760
1 Jan 2020 20:08:07.000,120.588,-75.335,27247.209087
1 Jan 2020 20:08:37.000,122.174,-75.287,27378.336833
1 Jan 2020 20:09:07.000,123.728,-75.242,27513.035835
1 Jan 2020 20:09:37.000,125.252,-75.203,27651.116389
1 Jan 2020 20:10:07.000,126.747,-75.168,27792.386692
1 Jan 2020 20:10:37.000,128.215,-75.138,27936.653480
1 Jan 2020 20:11:07.000,129.657,-75.114,28083.721563
1 Jan 2020 20:11:37.000,131.073,-75.096,28233.395512
1 Jan 2020 20:12:07.000,132.466,-75.084,28385.479164
1 Jan 2020 20:12:37.000,133.836,-75.078,28539.776180
1 Jan 2020 20:12:50.198,134.432,-75.078,28608.305703
1 Jan 2020 21:12:25.622,324.137,-75.067,28603.454409
1 Jan 2020 21:12:55.000,325.039,-75.072,28405.921953
1 Jan 2020 21:13:25.000,325.968,-75.088,28204.394693
1 Jan 2020 21:13:55.000,326.908,-75.115,28003.268069
1 Jan 2020 21:14:25.000,327.859,-75.154,27802.760850
1 Jan 2020 21:14:55.000,328.824,-75.203,27603.096416
1 Jan 2020 21:15:25.000,329.805,-75.265,27404.502643
1 Jan 2020 21:15:55.000,330.804,-75.338,27207.211778
1 Jan 2020 21:16:25.000,331.822,-75.423,27011.460271
1 Jan 2020 21:16:55.000,332.863,-75.520,26817.488594
1 Jan 2020 21:17:25.000,333.930,-75.629,26625.541020
1 Jan 2020 21:17:55.000,335.024,-75.749,26435.865371
1 Jan 2020 21:18:25.000,336.149,-75.882,26248.712734
1 Jan 2020 21:18:55.000,337.308,-76.026,26064.337131
1 Jan 2020 21:19:25.000,338.504,-76.181,25882.995164
1 Jan 2020 21:19:55.000,339.741,-76.348,25704.945600
1 Jan 2020 21:20:25.000,341.023,-76.526,25530.448663
1 Jan 2020 21:20:55.000,342.354,-76.714,25359.766608
1 Jan 2020 21:21:25.000,343.740,-76.912,25193.161565
1 Jan 2020 21:21:55.000,345.184,-77.120,25030.896038
1 Jan 2020 21:22:25.000,346.693,-77.337,24873.231999
1 Jan 2020 21:22:55.000,348.271,-77.562,24720.430207
1 Jan 2020 21:23:25.000,349.926,-77.794,24572.749484
1 Jan 2020 21:23:55.000,351.664,-78.033,24430.445716
1 Jan 2020 21:24:25.000,353.492,-78.277,24293.771965
1 Jan 2020 21:24:55.000,355.417,-78.524,24162.976224
1 Jan 2020 21:25:25.000,357.448,-78.775,24038.301472
1 Jan 2020 21:25:55.000,359.591,-79.027,23919.984530
1 Jan 2020 21:26:25.000,1.855,-79.277,23808.254961
1 Jan 2020 21:26:55.000,4.247,-79.526,23703.334764
1 Jan 2020 21:27:25.000,6.776,-79.770,23605.436436
1 Jan 2020 21:27:55.000,9.447,-80.006,23514.762674
1 Jan 2020 21:28:25.000,12.265,-80.234,23431.505254
1 Jan 2020 21:28:55.000,15.235,-80.450,23355.843985
1 Jan 2020 21:29:25.000,18.358,-80.652,23287.946270
1 Jan 2020 21:29:55.000,21.630,-80.837,23227.965522
1 Jan 2020 21:30:25.000,25.047,-81.003,23176.040841
1 Jan 2020 21:30:55.000,28.599,-81.147,23132.296084
1 Jan 2020 21:31:25.000,32.271,-81.266,23096.839368
1 Jan 2020 21:31:55.000,36.044,-81.359,23069.762154
1 Jan 2020 21:32:25.000,39.895,-81.424,23051.138943
1 Jan 2020 21:32:55.000,43.797,-81.460,23041.026797
1 Jan 2020 21:33:25.000,47.719,-81.465,23039.464981
1 Jan 2020 21:33:55.000,51.631,-81.441,23046.474765
1 Jan 2020 21:34:25.000,55.502,-81.386,23062.059299
1 Jan 2020 21:34:55.000,59.304,-81.303,23086.203681
1 Jan 2020 21:35:25.000,63.011,-81.193,23118.874785
1 Jan 2020 21:35:55.000,66.602,-81.056,23160.021854
1 Jan 2020 21:36:25.000,70.059,-80.897,23209.576576
1 Jan 2020 21:36:55.000,73.371,-80.717,23267.453674
1 Jan 2020 21:37:25.000,76.528,-80.518,23333.550936
1 Jan 2020 21:37:55.000,79.528,-80.303,23407.750507
1 Jan 2020 21:38:25.000,82.370,-80.076,23489.919112
1 Jan 2020 21:38:55.000,85.056,-79.838,23579.909064
1 Jan 2020 21:39:25.000,87.591,-79.592,23677.558418
1 Jan 2020 21:39:55.000,89.979,-79.340,23782.692775
1 Jan 2020 21:40:25.000,92.229,-79.084,23895.125542
1 Jan 2020 21:40:55.000,94.348,-78.827,24014.659001
1 Jan 2020 21:41:25.000,96.343,-78.571,24141.085489
1 Jan 2020 21:41:55.000,98.223,-78.316,24274.187364
1 Jan 2020 21:42:25.000,99.994,-78.065,24413.739392
1 Jan 2020 21:42:55.000,101.665,-77.819,24559.508733
1 Jan 2020 21:43:25.000,103.243,-77.580,24711.256090
1 Jan 2020 21:43:55.000,104.734,-77.347,24868.736606
1 Jan 2020 21:44:25.000,106.145,-77.123,25031.701035
1 Jan 2020 21:44:55.000,107.482,-76.908,25199.895374
1 Jan 2020 21:45:25.000,108.750,-76.703,25373.063450
1 Jan 2020 21:45:55.000,109.954,-76.508,25550.946493
1 Jan 2020 21:46:25.000,111.099,-76.325,25733.284143
1 Jan 2020 21:46:55.000,112.190,-76.153,25919.815119
1 Jan 2020 21:47:25.000,113.229,-75.993,26110.277847
1 Jan 2020 21:47:55.000,114.222,-75.846,26304.411037
1 Jan 2020 21:48:25.000,115.170,-75.711,26501.954535
1 Jan 2020 21:48:55.000,116.079,-75.589,26702.648536
1 Jan 2020 21:49:25.000,116.949,-75.480,26906.235938
1 Jan 2020 21:49:55.000,117.785,-75.383,27112.461478
1 Jan 2020 21:50:25.000,118.588,-75.300,27321.072409
1 Jan 2020 21:50:55.000,119.361,-75.230,27531.818821
1 Jan 2020 21:51:25.000,120.106,-75.173,27744.453933
1 Jan 2020 21:51:55.000,120.824,-75.129,27958.734343
1 Jan 2020 21:52:25.000,121.519,-75.098,28174.420249
1 Jan 2020 21:52:55.000,122.190,-75.079,28391.275639
1 Jan 2020 21:53:23.991,122.819,-75.073,28601.732069
1 Jan 2020 22:53:23.055,305.525,-75.064,28596.859221
1 Jan 2020 22:53:53.000,305.453,-75.071,28364.262291
1 Jan 2020 22:54:23.000,305.369,-75.093,28131.500165
1 Jan 2020 22:54:53.000,305.274,-75.129,27899.232805
1 Jan 2020 22:55:23.000,305.166,-75.181,27667.698232
1 Jan 2020 22:55:53.000,305.044,-75.249,27437.139796
1 Jan 2020 22:56:23.000,304.909,-75.332,27207.806105
1 Jan 2020 22:56:53.000,304.760,-75.432,26979.950925
1 Jan 2020 22:57:23.000,304.596,-75.548,26753.833051
1 Jan 2020 22:57:53.000,304.415,-75.681,26529.716150
1 Jan 2020 22:58:23.000,304.217,-75.830,26307.868564
1 Jan 2020 22:58:53.000,304.000,-75.997,26088.563073
1 Jan 2020 22:59:23.000,303.764,-76.182,25872.076626
1 Jan 2020 22:59:53.000,303.507,-76.383,25658.690013
1 Jan 2020 23:00:23.000,303.227,-76.603,25448.687497
1 Jan 2020 23:00:53.000,302.921,-76.840,25242.356048
1 Jan 2020 23:01:23.000,302.588,-77.095,25039.986245
1 Jan 2020 23:01:53.000,302.226,-77.368,24841.869664
1 Jan 2020 23:02:23.000,301.829,-77.659,24648.299672
1 Jan 2020 23:02:53.000,301.396,-77.968,24459.570421
1 Jan 2020 23:03:23.000,300.922,-78.293,24275.976127
1 Jan 2020 23:03:53.000,300.402,-78.636,24097.809999
1 Jan 2020 23:04:23.000,299.830,-78.996,23925.364544
1 Jan 2020 23:04:53.000,299.199,-79.373,23758.928912
1 Jan 2020 23:05:23.000,298.500,-79.765,23598.789094
1 Jan 2020 23:05:53.000,297.723,-80.173,23445.226602
1 Jan 2020 23:06:23.000,296.856,-80.596,23298.517130
1 Jan 2020 23:06:53.000,295.884,-81.032,23158.930457
1 Jan 2020 23:07:23.000,294.787,-81.481,23026.727722
1 Jan 2020 23:07:53.000,293.542,-81.942,22902.161282
1 Jan 2020 23:08:23.000,292.119,-82.412,22785.473037
1 Jan 2020 23:08:53.000,290.478,-82.891,22676.893981
1 Jan 2020 23:09:23.000,288.571,-83.376,22576.641809
1 Jan 2020 23:09:53.000,286.332,-83.864,22484.920513
1 Jan 2020 23:10:23.000,283.675,-84.352,22401.918864
1 Jan 2020 23:10:53.000,280.485,-84.835,22327.809898
1 Jan 2020 23:11:23.000,276.610,-85.308,22262.748929
1 Jan 2020 23:11:53.000,271.850,-85.763,22206.873208
