STKdata/stk_90fov_6leo/Satellite-MEO_Satellite10207-To-Satellite-LEO_Satellite20000 AER.csv

"Time (UTCG)","Azimuth (deg)","Elevation (deg)","Range (km)"
1 Jan 2020 00:17:49.795,350.046,-75.069,28595.055135
1 Jan 2020 00:18:19.000,348.664,-75.072,28451.528355
1 Jan 2020 00:18:49.000,347.228,-75.080,28305.640895
1 Jan 2020 00:19:19.000,345.772,-75.094,28161.511027
1 Jan 2020 00:19:49.000,344.297,-75.113,28019.333169
1 Jan 2020 00:20:19.000,342.801,-75.138,27879.302458
1 Jan 2020 00:20:49.000,341.282,-75.167,27741.614447
1 Jan 2020 00:21:19.000,339.740,-75.202,27606.464773
1 Jan 2020 00:21:49.000,338.172,-75.241,27474.048810
1 Jan 2020 00:22:19.000,336.579,-75.285,27344.561298
1 Jan 2020 00:22:49.000,334.958,-75.332,27218.195956
1 Jan 2020 00:23:19.000,333.308,-75.383,27095.145072
1 Jan 2020 00:23:49.000,331.629,-75.438,26975.598919
1 Jan 2020 00:24:19.000,329.920,-75.495,26859.745946
1 Jan 2020 00:24:49.000,328.179,-75.555,26747.771353
1 Jan 2020 00:25:19.000,326.407,-75.616,26639.857265
1 Jan 2020 00:25:49.000,324.602,-75.680,26536.182076
1 Jan 2020 00:26:19.000,322.764,-75.744,26436.919954
1 Jan 2020 00:26:49.000,320.893,-75.809,26342.240330
1 Jan 2020 00:27:19.000,318.989,-75.874,26252.307270
1 Jan 2020 00:27:49.000,317.052,-75.938,26167.279433
1 Jan 2020 00:28:19.000,315.082,-76.001,26087.308832
1 Jan 2020 00:28:49.000,313.081,-76.062,26012.540814
1 Jan 2020 00:29:19.000,311.048,-76.121,25943.113433
1 Jan 2020 00:29:49.000,308.985,-76.178,25879.156954
1 Jan 2020 00:30:19.000,306.894,-76.230,25820.793311
1 Jan 2020 00:30:49.000,304.777,-76.279,25768.135941
1 Jan 2020 00:31:19.000,302.635,-76.324,25721.288895
1 Jan 2020 00:31:49.000,300.470,-76.364,25680.346743
1 Jan 2020 00:32:19.000,298.286,-76.398,25645.394120
1 Jan 2020 00:32:49.000,296.085,-76.427,25616.505379
1 Jan 2020 00:33:19.000,293.870,-76.451,25593.744274
1 Jan 2020 00:33:49.000,291.645,-76.468,25577.163775
1 Jan 2020 00:34:19.000,289.412,-76.478,25566.805709
1 Jan 2020 00:34:49.000,287.175,-76.482,25562.700688
1 Jan 2020 00:35:19.000,284.938,-76.480,25564.867950
1 Jan 2020 00:35:49.000,282.704,-76.471,25573.315313
1 Jan 2020 00:36:19.000,280.477,-76.456,25588.039030
1 Jan 2020 00:36:49.000,278.260,-76.434,25609.023964
1 Jan 2020 00:37:19.000,276.057,-76.407,25636.243559
1 Jan 2020 00:37:49.000,273.871,-76.373,25669.659983
1 Jan 2020 00:38:19.000,271.704,-76.334,25709.224363
1 Jan 2020 00:38:49.000,269.560,-76.290,25754.876703
1 Jan 2020 00:39:19.000,267.441,-76.242,25806.546564
1 Jan 2020 00:39:49.000,265.350,-76.189,25864.153078
1 Jan 2020 00:40:19.000,263.288,-76.132,25927.605350
1 Jan 2020 00:40:49.000,261.257,-76.073,25996.802820
1 Jan 2020 00:41:19.000,259.259,-76.011,26071.635799
1 Jan 2020 00:41:49.000,257.294,-75.947,26151.985347
1 Jan 2020 00:42:19.000,255.364,-75.881,26237.724525
1 Jan 2020 00:42:49.000,253.469,-75.815,26328.718329
1 Jan 2020 00:43:19.000,251.610,-75.749,26424.824309
1 Jan 2020 00:43:49.000,249.786,-75.683,26525.893057
1 Jan 2020 00:44:19.000,247.999,-75.617,26631.768710
1 Jan 2020 00:44:49.000,246.246,-75.554,26742.289647
1 Jan 2020 00:45:19.000,244.529,-75.492,26857.288239
1 Jan 2020 00:45:49.000,242.846,-75.433,26976.592479
1 Jan 2020 00:46:19.000,241.197,-75.376,27100.025741
1 Jan 2020 00:46:49.000,239.581,-75.324,27227.407454
1 Jan 2020 00:47:19.000,237.997,-75.275,27358.553583
1 Jan 2020 00:47:49.000,236.444,-75.230,27493.277100
1 Jan 2020 00:48:19.000,234.921,-75.190,27631.388439
1 Jan 2020 00:48:49.000,233.427,-75.155,27772.695938
1 Jan 2020 00:49:19.000,231.961,-75.125,27917.006476
1 Jan 2020 00:49:49.000,230.521,-75.101,28064.125005
1 Jan 2020 00:50:19.000,229.105,-75.082,28213.856244
1 Jan 2020 00:50:49.000,227.714,-75.070,28366.004173
1 Jan 2020 00:51:19.000,226.346,-75.064,28520.372599
1 Jan 2020 00:51:33.506,225.692,-75.063,28595.755097
1 Jan 2020 01:51:09.431,35.989,-75.074,28600.639324
1 Jan 2020 01:51:39.000,35.083,-75.079,28401.555385
1 Jan 2020 01:52:09.000,34.156,-75.095,28199.755012
1 Jan 2020 01:52:39.000,33.219,-75.123,27998.354820
1 Jan 2020 01:53:09.000,32.270,-75.161,27797.574169
1 Jan 2020 01:53:39.000,31.307,-75.212,27597.637042
1 Jan 2020 01:54:09.000,30.328,-75.273,27398.771939
1 Jan 2020 01:54:39.000,29.332,-75.347,27201.211735
1 Jan 2020 01:55:09.000,28.315,-75.432,27005.193529
1 Jan 2020 01:55:39.000,27.276,-75.530,26810.958446
1 Jan 2020 01:56:09.000,26.212,-75.639,26618.751423
1 Jan 2020 01:56:39.000,25.120,-75.760,26428.820955
1 Jan 2020 01:57:09.000,23.998,-75.893,26241.418803
1 Jan 2020 01:57:39.000,22.841,-76.038,26056.799671
1 Jan 2020 01:58:09.000,21.647,-76.194,25875.220841
1 Jan 2020 01:58:39.000,20.412,-76.361,25696.941761
1 Jan 2020 01:59:09.000,19.131,-76.540,25522.223330
1 Jan 2020 01:59:39.000,17.802,-76.729,25351.328470
1 Jan 2020 02:00:09.000,16.418,-76.928,25184.519974
1 Jan 2020 02:00:39.000,14.975,-77.137,25022.060989
1 Jan 2020 02:01:09.000,13.468,-77.355,24864.214118
1 Jan 2020 02:01:39.000,11.890,-77.581,24711.240730
1 Jan 2020 02:02:09.000,10.236,-77.814,24563.400232
1 Jan 2020 02:02:39.000,8.498,-78.054,24420.949068
1 Jan 2020 02:03:09.000,6.670,-78.299,24284.140831
1 Jan 2020 02:03:39.000,4.744,-78.548,24153.224005
1 Jan 2020 02:04:09.000,2.712,-78.800,24028.442022
1 Jan 2020 02:04:39.000,0.567,-79.053,23910.032112
1 Jan 2020 02:05:09.000,358.300,-79.305,23798.224203
1 Jan 2020 02:05:39.000,355.903,-79.555,23693.240606
1 Jan 2020 02:06:09.000,353.369,-79.800,23595.294077
1 Jan 2020 02:06:39.000,350.692,-80.038,23504.587514
1 Jan 2020 02:07:09.000,347.865,-80.267,23421.312834
1 Jan 2020 02:07:39.000,344.885,-80.484,23345.649923
1 Jan 2020 02:08:09.000,341.752,-80.687,23277.766200
1 Jan 2020 02:08:39.000,338.466,-80.873,23217.815026
1 Jan 2020 02:09:09.000,335.034,-81.039,23165.935378
1 Jan 2020 02:09:39.000,331.466,-81.183,23122.250926
1 Jan 2020 02:10:09.000,327.776,-81.303,23086.869535
1 Jan 2020 02:10:39.000,323.985,-81.396,23059.882343
1 Jan 2020 02:11:09.000,320.115,-81.461,23041.363465
1 Jan 2020 02:11:39.000,316.194,-81.496,23031.369516
1 Jan 2020 02:12:09.000,312.253,-81.501,23029.939253
1 Jan 2020 02:12:39.000,308.323,-81.475,23037.093382
1 Jan 2020 02:13:09.000,304.435,-81.420,23052.834439
1 Jan 2020 02:13:39.000,300.618,-81.335,23077.146860
1 Jan 2020 02:14:09.000,296.898,-81.223,23109.996815
1 Jan 2020 02:14:39.000,293.297,-81.085,23151.332809
1 Jan 2020 02:15:09.000,289.831,-80.924,23201.085758
1 Jan 2020 02:15:39.000,286.513,-80.742,23259.169594
1 Jan 2020 02:16:09.000,283.351,-80.541,23325.481292
1 Jan 2020 02:16:39.000,280.348,-80.325,23399.902175
1 Jan 2020 02:17:09.000,277.505,-80.096,23482.298139
1 Jan 2020 02:17:39.000,274.819,-79.856,23572.520672
1 Jan 2020 02:18:09.000,272.286,-79.608,23670.407006
1 Jan 2020 02:18:39.000,269.900,-79.354,23775.781937
1 Jan 2020 02:19:09.000,267.653,-79.097,23888.458081
1 Jan 2020 02:19:39.000,265.538,-78.839,24008.236953
1 Jan 2020 02:20:09.000,263.547,-78.581,24134.910151
1 Jan 2020 02:20:39.000,261.672,-78.325,24268.259322
1 Jan 2020 02:21:09.000,259.906,-78.073,24408.058560
1 Jan 2020 02:21:39.000,258.240,-77.826,24554.074388
1 Jan 2020 02:22:09.000,256.667,-77.585,24706.066912
1 Jan 2020 02:22:39.000,255.181,-77.351,24863.790724
1 Jan 2020 02:23:09.000,253.775,-77.126,25026.996067
1 Jan 2020 02:23:39.000,252.444,-76.910,25195.428473
1 Jan 2020 02:24:09.000,251.181,-76.704,25368.831352
1 Jan 2020 02:24:39.000,249.982,-76.509,25546.945558
1 Jan 2020 02:25:09.000,248.842,-76.325,25729.510405
1 Jan 2020 02:25:39.000,247.757,-76.153,25916.264333
1 Jan 2020 02:26:09.000,246.722,-75.992,26106.945531
1 Jan 2020 02:26:39.000,245.734,-75.844,26301.292514
1 Jan 2020 02:27:09.000,244.790,-75.709,26499.044981
1 Jan 2020 02:27:39.000,243.887,-75.586,26699.943016
1 Jan 2020 02:28:09.000,243.021,-75.476,26903.729452
1 Jan 2020 02:28:39.000,242.190,-75.380,27110.148992
1 Jan 2020 02:29:09.000,241.391,-75.296,27318.948895
1 Jan 2020 02:29:39.000,240.623,-75.226,27529.879294
1 Jan 2020 02:30:09.000,239.882,-75.168,27742.693478
1 Jan 2020 02:30:39.000,239.168,-75.124,27957.148149
1 Jan 2020 02:31:09.000,238.478,-75.092,28173.003634
1 Jan 2020 02:31:39.000,237.811,-75.073,28390.024081
1 Jan 2020 02:32:08.231,237.181,-75.067,28602.378426
1 Jan 2020 03:32:08.629,54.511,-75.077,28607.217638
1 Jan 2020 03:32:38.000,54.585,-75.084,28379.061049
1 Jan 2020 03:33:08.000,54.673,-75.105,28146.278087
1 Jan 2020 03:33:38.000,54.773,-75.142,27913.990068
1 Jan 2020 03:34:08.000,54.885,-75.193,27682.435420
1 Jan 2020 03:34:38.000,55.011,-75.261,27451.857912
1 Jan 2020 03:35:08.000,55.150,-75.344,27222.506576
1 Jan 2020 03:35:38.000,55.304,-75.444,26994.635612
1 Jan 2020 03:36:08.000,55.474,-75.559,26768.504253
1 Jan 2020 03:36:38.000,55.660,-75.692,26544.376606
1 Jan 2020 03:37:08.000,55.863,-75.842,26322.521455
1 Jan 2020 03:37:38.000,56.084,-76.009,26103.212020
1 Jan 2020 03:38:08.000,56.326,-76.193,25886.725685
1 Jan 2020 03:38:38.000,56.589,-76.394,25673.343670
1 Jan 2020 03:39:08.000,56.876,-76.614,25463.350658
1 Jan 2020 03:39:38.000,57.188,-76.851,25257.034029
1 Jan 2020 03:40:08.000,57.528,-77.106,25054.684753
1 Jan 2020 03:40:38.000,57.898,-77.379,24856.594782
1 Jan 2020 03:41:08.000,58.302,-77.669,24663.057836
1 Jan 2020 03:41:38.000,58.743,-77.977,24474.368397
1 Jan 2020 03:42:08.000,59.226,-78.303,24290.820982
1 Jan 2020 03:42:38.000,59.756,-78.645,24112.709070
1 Jan 2020 03:43:08.000,60.338,-79.005,23940.325404
1 Jan 2020 03:43:38.000,60.981,-79.381,23773.959331
1 Jan 2020 03:44:08.000,61.692,-79.773,23613.897001
1 Jan 2020 03:44:38.000,62.482,-80.180,23460.420037
1 Jan 2020 03:45:08.000,63.363,-80.602,23313.804201
1 Jan 2020 03:45:38.000,64.351,-81.038,23174.319291
1 Jan 2020 03:46:08.000,65.466,-81.486,23042.226414
1 Jan 2020 03:46:38.000,66.731,-81.945,22917.777838
1 Jan 2020 03:47:08.000,68.176,-82.415,22801.215329
1 Jan 2020 03:47:38.000,69.841,-82.892,22692.769682
1 Jan 2020 03:48:08.000,71.776,-83.375,22592.658345
1 Jan 2020 03:48:38.000,74.046,-83.862,22501.085005
1 Jan 2020 03:49:08.000,76.738,-84.347,22418.238075
1 Jan 2020 03:49:38.000,79.967,-84.828,22344.290179
1 Jan 2020 03:50:08.000,83.883,-85.298,22279.396171
1 Jan 2020 03:50:38.000,88.685,-85.749,22223.692793
1 Jan 2020 03:51:08.000,94.619,-86.170,22177.297540
1 Jan 2020 03:51:38.000,101.963,-86.545,22140.308255
1 Jan 2020 03:52:08.000,110.955,-86.856,22112.801894
1 Jan 2020 03:52:38.000,121.628,-87.077,22094.834401
1 Jan 2020 03:53:08.000,133.593,-87.187,22086.440199
1 Jan 2020 03:53:38.000,145.964,-87.171,22087.632027
1 Jan 2020 03:54:08.000,157.671,-87.031,22098.400701
1 Jan 2020 03:54:38.000,167.942,-86.785,22118.715284
1 Jan 2020 03:55:08.000,176.515,-86.457,22148.523322
1 Jan 2020 03:55:38.000,183.496,-86.069,22187.750983
1 Jan 2020 03:56:08.000,189.146,-85.641,22236.303845
1 Jan 2020 03:56:38.000,193.737,-85.186,22294.067349
1 Jan 2020 03:57:08.000,197.505,-84.714,22360.907711
1 Jan 2020 03:57:38.000,200.634,-84.233,22436.672300
1 Jan 2020 03:58:08.000,203.266,-83.749,22521.191301
1 Jan 2020 03:58:38.000,205.507,-83.265,22614.278299
1 Jan 2020 03:59:08.000,207.438,-82.785,22715.731676
1 Jan 2020 03:59:38.000,209.119,-82.312,22825.335085
1 Jan 2020 04:00:08.000,210.599,-81.847,22942.859658
1 Jan 2020 04:00:38.000,211.914,-81.393,23068.064569
1 Jan 2020 04:01:08.000,213.091,-80.950,23200.698429
1 Jan 2020 04:01:38.000,214.155,-80.520,23340.500771
1 Jan 2020 04:02:08.000,215.123,-80.104,23487.202226
1 Jan 2020 04:02:38.000,216.011,-79.703,23640.527244
1 Jan 2020 04:03:08.000,216.829,-79.317,23800.194226
1 Jan 2020 04:03:38.000,217.589,-78.947,23965.916880
1 Jan 2020 04:04:08.000,218.298,-78.594,24137.405274
1 Jan 2020 04:04:38.000,218.964,-78.257,24314.367140
1 Jan 2020 04:05:08.000,219.592,-77.937,24496.507573
1 Jan 2020 04:05:38.000,220.187,-77.634,24683.531752
1 Jan 2020 04:06:08.000,220.754,-77.349,24875.144525
1 Jan 2020 04:06:38.000,221.297,-77.082,25071.051461
1 Jan 2020 04:07:08.000,221.818,-76.831,25270.959526
1 Jan 2020 04:07:38.000,222.320,-76.599,25474.577706
1 Jan 2020 04:08:08.000,222.807,-76.383,25681.617558
1 Jan 2020 04:08:38.000,223.280,-76.185,25891.793710
1 Jan 2020 04:09:08.000,223.741,-76.004,26104.824645
1 Jan 2020 04:09:38.000,224.191,-75.840,26320.431718
1 Jan 2020 04:10:08.000,224.634,-75.692,26538.341541
1 Jan 2020 04:10:38.000,225.069,-75.562,26758.284912
1 Jan 2020 04:11:08.000,225.499,-75.447,26979.997401
1 Jan 2020 04:11:38.000,225.924,-75.348,27203.219556
1 Jan 2020 04:12:08.000,226.346,-75.265,27427.697072
1 Jan 2020 04:12:38.000,226.765,-75.197,27653.180931
1 Jan 2020 04:13:08.000,227.183,-75.144,27879.427502
1 Jan 2020 04:13:38.000,227.601,-75.106,28106.198625
1 Jan 2020 04:14:08.000,228.019,-75.082,28333.261663
1 Jan 2020 04:14:38.000,228.439,-75.073,28560.389534
1 Jan 2020 04:14:44.386,228.529,-75.072,28608.721547
1 Jan 2020 05:14:44.073,55.385,-75.077,28611.199136
1 Jan 2020 05:15:14.000,56.437,-75.082,28421.517856
1 Jan 2020 05:15:44.000,57.514,-75.097,28232.989223
1 Jan 2020 05:16:14.000,58.618,-75.120,28046.299070
1 Jan 2020 05:16:44.000,59.749,-75.154,27861.668423
1 Jan 2020 05:17:14.000,60.909,-75.196,27679.319994
1 Jan 2020 05:17:44.000,62.101,-75.248,27499.477885
1 Jan 2020 05:18:14.000,63.326,-75.308,27322.367254
1 Jan 2020 05:18:44.000,64.586,-75.377,27148.213960
1 Jan 2020 05:19:14.000,65.884,-75.455,26977.244175
1 Jan 2020 05:19:44.000,67.221,-75.540,26809.683968
1 Jan 2020 05:20:14.000,68.600,-75.633,26645.758856
1 Jan 2020 05:20:44.000,70.023,-75.734,26485.693047
1 Jan 2020 05:21:14.000,71.492,-75.841,26329.710064
1 Jan 2020 05:21:44.000,73.010,-75.954,26178.030504
1 Jan 2020 05:22:14.000,74.579,-76.072,26030.872622
1 Jan 2020 05:22:44.000,76.200,-76.196,25888.451448
1 Jan 2020 05:23:14.000,77.877,-76.324,25750.978179
1 Jan 2020 05:23:44.000,79.612,-76.455,25618.659337
1 Jan 2020 05:24:14.000,81.405,-76.589,25491.696956
1 Jan 2020 05:24:44.000,83.260,-76.724,25370.286642
1 Jan 2020 05:25:14.000,85.178,-76.860,25254.617749
1 Jan 2020 05:25:44.000,87.160,-76.996,25144.872485
1 Jan 2020 05:26:14.000,89.207,-77.130,25041.225049
1 Jan 2020 05:26:44.000,91.319,-77.262,24943.841641
1 Jan 2020 05:27:14.000,93.497,-77.391,24852.878744
1 Jan 2020 05:27:44.000,95.741,-77.515,24768.483173
1 Jan 2020 05:28:14.000,98.047,-77.633,24690.791259
1 Jan 2020 05:28:44.000,100.416,-77.745,24619.928111
1 Jan 2020 05:29:14.000,102.844,-77.848,24556.007591
1 Jan 2020 05:29:44.000,105.328,-77.943,24499.130938
1 Jan 2020 05:30:14.000,107.863,-78.028,24449.386857
1 Jan 2020 05:30:44.000,110.445,-78.102,24406.850935
1 Jan 2020 05:31:14.000,113.067,-78.164,24371.585187
1 Jan 2020 05:31:44.000,115.723,-78.215,24343.638075
1 Jan 2020 05:32:14.000,118.406,-78.252,24323.043732
1 Jan 2020 05:32:44.000,121.108,-78.276,24309.822146
1 Jan 2020 05:33:14.000,123.821,-78.287,24303.978954
1 Jan 2020 05:33:44.000,126.537,-78.284,24305.505389
1 Jan 2020 05:34:14.000,129.247,-78.268,24314.378395
1 Jan 2020 05:34:44.000,131.944,-78.238,24330.560599
1 Jan 2020 05:35:14.000,134.620,-78.196,24354.000594
1 Jan 2020 05:35:44.000,137.267,-78.141,24384.633162
1 Jan 2020 05:36:14.000,139.879,-78.075,24422.379638
1 Jan 2020 05:36:44.000,142.450,-77.997,24467.148113
1 Jan 2020 05:37:14.000,144.975,-77.910,24518.834120
1 Jan 2020 05:37:44.000,147.449,-77.813,24577.320971
1 Jan 2020 05:38:14.000,149.869,-77.709,24642.480336
1 Jan 2020 05:38:44.000,152.233,-77.597,24714.172921
1 Jan 2020 05:39:14.000,154.538,-77.479,24792.248698
1 Jan 2020 05:39:44.000,156.783,-77.357,24876.548120
1 Jan 2020 05:40:14.000,158.967,-77.230,24966.902424
1 Jan 2020 05:40:44.000,161.091,-77.101,25063.134407
1 Jan 2020 05:41:14.000,163.155,-76.970,25165.059122
1 Jan 2020 05:41:44.000,165.161,-76.838,25272.484751
1 Jan 2020 05:42:14.000,167.108,-76.706,25385.212654
1 Jan 2020 05:42:44.000,168.999,-76.576,25503.039024
1 Jan 2020 05:43:14.000,170.837,-76.447,25625.754948
1 Jan 2020 05:43:44.000,172.621,-76.321,25753.147234
1 Jan 2020 05:44:14.000,174.356,-76.199,25884.999057
1 Jan 2020 05:44:44.000,176.044,-76.080,26021.090600
1 Jan 2020 05:45:14.000,177.685,-75.966,26161.199854
1 Jan 2020 05:45:44.000,179.284,-75.858,26305.102419
1 Jan 2020 05:46:14.000,180.842,-75.755,26452.573217
1 Jan 2020 05:46:44.000,182.362,-75.658,26603.386251
1 Jan 2020 05:47:14.000,183.846,-75.568,26757.315286
1 Jan 2020 05:47:44.000,185.296,-75.485,26914.134312
1 Jan 2020 05:48:14.000,186.714,-75.409,27073.617973
1 Jan 2020 05:48:44.000,188.103,-75.341,27235.541970
1 Jan 2020 05:49:14.000,189.465,-75.280,27399.683427
1 Jan 2020 05:49:44.000,190.802,-75.227,27565.821235
1 Jan 2020 05:50:14.000,192.116,-75.182,27733.736358
1 Jan 2020 05:50:44.000,193.409,-75.145,27903.212119
1 Jan 2020 05:51:14.000,194.682,-75.116,28074.034455
1 Jan 2020 05:51:44.000,195.939,-75.095,28245.992146
1 Jan 2020 05:52:14.000,197.179,-75.082,28418.877025
1 Jan 2020 05:52:44.000,198.406,-75.077,28592.484155
1 Jan 2020 05:52:47.269,198.539,-75.077,28611.436596
1 Jan 2020 06:51:26.780,27.328,-75.074,28610.238370
1 Jan 2020 06:51:56.000,28.737,-75.076,28471.542482
1 Jan 2020 06:52:26.000,30.203,-75.084,28331.101871
1 Jan 2020 06:52:56.000,31.689,-75.097,28192.834537
1 Jan 2020 06:53:26.000,33.195,-75.115,28056.929586
1 Jan 2020 06:53:56.000,34.725,-75.138,27923.575801
1 Jan 2020 06:54:26.000,36.277,-75.165,27792.961297
1 Jan 2020 06:54:56.000,37.855,-75.196,27665.273166
1 Jan 2020 06:55:26.000,39.457,-75.231,27540.697092
1 Jan 2020 06:55:56.000,41.086,-75.270,27419.416960
1 Jan 2020 06:56:26.000,42.743,-75.312,27301.614443
1 Jan 2020 06:56:56.000,44.427,-75.357,27187.468418
1 Jan 2020 06:57:26.000,46.140,-75.405,27077.155169
1 Jan 2020 06:57:56.000,47.882,-75.454,26970.846963
1 Jan 2020 06:58:26.000,49.653,-75.505,26868.712245
1 Jan 2020 06:58:56.000,51.454,-75.558,26770.915002
1 Jan 2020 06:59:26.000,53.286,-75.611,26677.614294
1 Jan 2020 06:59:56.000,55.146,-75.664,26588.963769
1 Jan 2020 07:00:26.000,57.037,-75.717,26505.111079
1 Jan 2020 07:00:56.000,58.957,-75.770,26426.197878
1 Jan 2020 07:01:26.000,60.905,-75.821,26352.358627
1 Jan 2020 07:01:56.000,62.880,-75.871,26283.720634
1 Jan 2020 07:02:26.000,64.882,-75.918,26220.403478
1 Jan 2020 07:02:56.000,66.910,-75.962,26162.518585
1 Jan 2020 07:03:26.000,68.960,-76.004,26110.168747
1 Jan 2020 07:03:56.000,71.033,-76.042,26063.448032
1 Jan 2020 07:04:26.000,73.126,-76.076,26022.440969
1 Jan 2020 07:04:56.000,75.236,-76.106,25987.222536
1 Jan 2020 07:05:26.000,77.361,-76.132,25957.857778
1 Jan 2020 07:05:56.000,79.499,-76.152,25934.401552
1 Jan 2020 07:06:26.000,81.647,-76.168,25916.898285
1 Jan 2020 07:06:56.000,83.802,-76.178,25905.381882
1 Jan 2020 07:07:26.000,85.961,-76.183,25899.875436
1 Jan 2020 07:07:56.000,88.121,-76.183,25900.391245
1 Jan 2020 07:08:26.000,90.280,-76.177,25906.930728
1 Jan 2020 07:08:56.000,92.434,-76.166,25919.484447
1 Jan 2020 07:09:26.000,94.580,-76.150,25938.032055
1 Jan 2020 07:09:56.000,96.716,-76.128,25962.542502
1 Jan 2020 07:10:26.000,98.839,-76.102,25992.974088
1 Jan 2020 07:10:56.000,100.945,-76.072,26029.274652
1 Jan 2020 07:11:26.000,103.034,-76.037,26071.381783
1 Jan 2020 07:11:56.000,105.103,-75.998,26119.223151
1 Jan 2020 07:12:26.000,107.149,-75.956,26172.716468
1 Jan 2020 07:12:56.000,109.171,-75.911,26231.770284
1 Jan 2020 07:13:26.000,111.167,-75.863,26296.284028
1 Jan 2020 07:13:56.000,113.136,-75.813,26366.148463
1 Jan 2020 07:14:26.000,115.078,-75.762,26441.246082
1 Jan 2020 07:14:56.000,116.990,-75.709,26521.451659
1 Jan 2020 07:15:26.000,118.873,-75.656,26606.632203
1 Jan 2020 07:15:56.000,120.725,-75.603,26696.648122
1 Jan 2020 07:16:26.000,122.548,-75.550,26791.353225
1 Jan 2020 07:16:56.000,124.340,-75.497,26890.595300
1 Jan 2020 07:17:26.000,126.102,-75.446,26994.216595
1 Jan 2020 07:17:56.000,127.834,-75.397,27102.054290
1 Jan 2020 07:18:26.000,129.536,-75.350,27213.941130
1 Jan 2020 07:18:56.000,131.209,-75.305,27329.705258
1 Jan 2020 07:19:26.000,132.854,-75.264,27449.171625
1 Jan 2020 07:19:56.000,134.471,-75.226,27572.161811
1 Jan 2020 07:20:26.000,136.062,-75.192,27698.494626
1 Jan 2020 07:20:56.000,137.626,-75.161,27827.986535
1 Jan 2020 07:21:26.000,139.166,-75.135,27960.452073
1 Jan 2020 07:21:56.000,140.681,-75.114,28095.704241
1 Jan 2020 07:22:26.000,142.174,-75.097,28233.554890
1 Jan 2020 07:22:56.000,143.645,-75.086,28373.815081
1 Jan 2020 07:23:26.000,145.096,-75.080,28516.295437
1 Jan 2020 07:23:45.450,146.025,-75.078,28609.765161
1 Jan 2020 08:22:44.109,335.387,-75.068,28605.450233
1 Jan 2020 08:23:14.000,336.528,-75.072,28423.834599
1 Jan 2020 08:23:44.000,337.684,-75.086,28242.063690
1 Jan 2020 08:24:14.000,338.855,-75.108,28061.010386
1 Jan 2020 08:24:44.000,340.042,-75.139,27880.885696
1 Jan 2020 08:25:14.000,341.246,-75.179,27701.904233
1 Jan 2020 08:25:44.000,342.470,-75.228,27524.284047
1 Jan 2020 08:26:14.000,343.717,-75.287,27348.246424
1 Jan 2020 08:26:44.000,344.987,-75.354,27174.015668
1 Jan 2020 08:27:14.000,346.283,-75.430,27001.818851
1 Jan 2020 08:27:44.000,347.609,-75.515,26831.885530
1 Jan 2020 08:28:14.000,348.965,-75.608,26664.447446
1 Jan 2020 08:28:44.000,350.355,-75.710,26499.738176
1 Jan 2020 08:29:14.000,351.781,-75.820,26337.992762
1 Jan 2020 08:29:44.000,353.246,-75.937,26179.447305
1 Jan 2020 08:30:14.000,354.754,-76.062,26024.338298
1 Jan 2020 08:30:44.000,356.306,-76.194,25872.903041
1 Jan 2020 08:31:14.000,357.906,-76.332,25725.377783
1 Jan 2020 08:31:44.000,359.557,-76.475,25581.998075
1 Jan 2020 08:32:14.000,1.262,-76.624,25442.997964
1 Jan 2020 08:32:44.000,3.024,-76.777,25308.609370
1 Jan 2020 08:33:14.000,4.846,-76.934,25179.061445
1 Jan 2020 08:33:44.000,6.732,-77.093,25054.579715
1 Jan 2020 08:34:14.000,8.685,-77.254,24935.386100
1 Jan 2020 08:34:44.000,10.706,-77.416,24821.697087
1 Jan 2020 08:35:14.000,12.799,-77.577,24713.723725
1 Jan 2020 08:35:44.000,14.965,-77.737,24611.670678
1 Jan 2020 08:36:14.000,17.207,-77.893,24515.735452
1 Jan 2020 08:36:44.000,19.526,-78.046,24426.107490
1 Jan 2020 08:37:14.000,21.920,-78.193,24342.967936
1 Jan 2020 08:37:44.000,24.391,-78.333,24266.488046
1 Jan 2020 08:38:14.000,26.937,-78.465,24196.829004
1 Jan 2020 08:38:44.000,29.555,-78.588,24134.141051
1 Jan 2020 08:39:14.000,32.241,-78.699,24078.562725
1 Jan 2020 08:39:44.000,34.991,-78.799,24030.220483
1 Jan 2020 08:40:14.000,37.798,-78.885,23989.227651
1 Jan 2020 08:40:44.000,40.655,-78.957,23955.684171
1 Jan 2020 08:41:14.000,43.553,-79.013,23929.676019
1 Jan 2020 08:41:44.000,46.483,-79.053,23911.274768
1 Jan 2020 08:42:14.000,49.434,-79.077,23900.537239
1 Jan 2020 08:42:44.000,52.395,-79.084,23897.505160
1 Jan 2020 08:43:14.000,55.354,-79.074,23902.205006
1 Jan 2020 08:43:44.000,58.300,-79.047,23914.647888
1 Jan 2020 08:44:14.000,61.221,-79.003,23934.829335
1 Jan 2020 08:44:44.000,64.108,-78.943,23962.729570
1 Jan 2020 08:45:14.000,66.950,-78.867,23998.313476
1 Jan 2020 08:45:44.000,69.739,-78.777,24041.530916
1 Jan 2020 08:46:14.000,72.466,-78.673,24092.316653
1 Jan 2020 08:46:44.000,75.126,-78.557,24150.591216
1 Jan 2020 08:47:14.000,77.712,-78.430,24216.260987
1 Jan 2020 08:47:44.000,80.222,-78.294,24289.218761
1 Jan 2020 08:48:14.000,82.652,-78.148,24369.344465
1 Jan 2020 08:48:44.000,85.000,-77.996,24456.505066
1 Jan 2020 08:49:14.000,87.266,-77.839,24550.556213
1 Jan 2020 08:49:44.000,89.451,-77.677,24651.342260
1 Jan 2020 08:50:14.000,91.554,-77.512,24758.697127
1 Jan 2020 08:50:44.000,93.578,-77.346,24872.445240
1 Jan 2020 08:51:14.000,95.524,-77.180,24992.401455
1 Jan 2020 08:51:44.000,97.395,-77.014,25118.373028
1 Jan 2020 08:52:14.000,99.193,-76.851,25250.159570
1 Jan 2020 08:52:44.000,100.922,-76.690,25387.553997
1 Jan 2020 08:53:14.000,102.584,-76.534,25530.343275
1 Jan 2020 08:53:44.000,104.181,-76.382,25678.309408
1 Jan 2020 08:54:14.000,105.719,-76.236,25831.229125
1 Jan 2020 08:54:44.000,107.198,-76.097,25988.876092
1 Jan 2020 08:55:14.000,108.623,-75.964,26151.020565
1 Jan 2020 08:55:44.000,109.996,-75.840,26317.430282
1 Jan 2020 08:56:14.000,111.320,-75.723,26487.871056
1 Jan 2020 08:56:44.000,112.599,-75.615,26662.107357
1 Jan 2020 08:57:14.000,113.833,-75.516,26839.902843
1 Jan 2020 08:57:44.000,115.027,-75.427,27021.020872
1 Jan 2020 08:58:14.000,116.183,-75.347,27205.225276
1 Jan 2020 08:58:44.000,117.302,-75.277,27392.279560
1 Jan 2020 08:59:14.000,118.388,-75.217,27581.949164
1 Jan 2020 08:59:44.000,119.442,-75.168,27774.000593
1 Jan 2020 09:00:14.000,120.466,-75.129,27968.202068
1 Jan 2020 09:00:44.000,121.463,-75.100,28164.323830
1 Jan 2020 09:01:14.000,122.434,-75.082,28362.138421
1 Jan 2020 09:01:44.000,123.380,-75.075,28561.420931
1 Jan 2020 09:01:50.379,123.579,-75.075,28603.961703
1 Jan 2020 10:01:49.532,309.250,-75.065,28598.848241
1 Jan 2020 10:02:19.000,309.517,-75.071,28372.247084
1 Jan 2020 10:02:49.000,309.785,-75.092,28141.607236
1 Jan 2020 10:03:19.000,310.048,-75.128,27911.245781
1 Jan 2020 10:03:49.000,310.308,-75.179,27681.396447
1 Jan 2020 10:04:19.000,310.564,-75.245,27452.298524
1 Jan 2020 10:04:49.000,310.818,-75.327,27224.196814
1 Jan 2020 10:05:19.000,311.070,-75.425,26997.341566
1 Jan 2020 10:05:49.000,311.320,-75.540,26771.988372
1 Jan 2020 10:06:19.000,311.569,-75.671,26548.398042
1 Jan 2020 10:06:49.000,311.817,-75.819,26326.836436
1 Jan 2020 10:07:19.000,312.066,-75.984,26107.574276
1 Jan 2020 10:07:49.000,312.316,-76.167,25890.886896
1 Jan 2020 10:08:19.000,312.568,-76.368,25677.053968
1 Jan 2020 10:08:49.000,312.822,-76.587,25466.359169
1 Jan 2020 10:09:19.000,313.080,-76.823,25259.089803
1 Jan 2020 10:09:49.000,313.343,-77.078,25055.536027
1 Jan 2020 10:10:19.000,313.612,-77.352,24855.991724
1 Jan 2020 10:10:49.000,313.888,-77.644,24660.751895
1 Jan 2020 10:11:19.000,314.172,-77.954,24470.113426
1 Jan 2020 10:11:49.000,314.468,-78.282,24284.374062
1 Jan 2020 10:12:19.000,314.776,-78.629,24103.831663
1 Jan 2020 10:12:49.000,315.100,-78.994,23928.783119
1 Jan 2020 10:13:19.000,315.442,-79.377,23759.524591
1 Jan 2020 10:13:49.000,315.806,-79.777,23596.348879
1 Jan 2020 10:14:19.000,316.197,-80.195,23439.545559
1 Jan 2020 10:14:49.000,316.619,-80.630,23289.399632
1 Jan 2020 10:15:19.000,317.079,-81.081,23146.190169
1 Jan 2020 10:15:49.000,317.587,-81.548,23010.190127
1 Jan 2020 10:16:19.000,318.152,-82.030,22881.663665
1 Jan 2020 10:16:49.000,318.788,-82.526,22760.865913
1 Jan 2020 10:17:19.000,319.515,-83.036,22648.041298
1 Jan 2020 10:17:49.000,320.357,-83.558,22543.422994
1 Jan 2020 10:18:19.000,321.349,-84.091,22447.230594
1 Jan 2020 10:18:49.000,322.541,-84.635,22359.669610
1 Jan 2020 10:19:19.000,324.005,-85.186,22280.929968
1 Jan 2020 10:19:49.000,325.854,-85.743,22211.185406
1 Jan 2020 10:20:19.000,328.268,-86.303,22150.591563
1 Jan 2020 10:20:49.000,331.551,-86.862,22099.285567
1 Jan 2020 10:21:19.000,336.256,-87.413,22057.384920
1 Jan 2020 10:21:49.000,343.455,-87.942,22024.987013
1 Jan 2020 10:22:19.000,355.325,-88.420,22002.168002
1 Jan 2020 10:22:49.000,15.696,-88.782,21988.982619
1 Jan 2020 10:23:19.000,45.678,-88.899,21985.463706
1 Jan 2020 10:23:49.000,73.657,-88.703,21991.621991
1 Jan 2020 10:24:19.000,91.318,-88.299,22007.445989
1 Jan 2020 10:24:49.000,101.609,-87.802,22032.902118
1 Jan 2020 10:25:19.000,107.963,-87.265,22067.935003
1 Jan 2020 10:25:49.000,112.181,-86.711,22112.467558
1 Jan 2020 10:26:19.000,115.154,-86.151,22166.401944
1 Jan 2020 10:26:49.000,117.351,-85.590,22229.619965
1 Jan 2020 10:27:19.000,119.034,-85.034,22301.984066
1 Jan 2020 10:27:49.000,120.362,-84.484,22383.337656
1 Jan 2020 10:28:19.000,121.433,-83.942,22473.506937
1 Jan 2020 10:28:49.000,122.312,-83.411,22572.301440
1 Jan 2020 10:29:19.000,123.046,-82.891,22679.515496
1 Jan 2020 10:29:49.000,123.665,-82.384,22794.928658
1 Jan 2020 10:30:19.000,124.193,-81.891,22918.308060
1 Jan 2020 10:30:49.000,124.646,-81.412,23049.408925
1 Jan 2020 10:31:19.000,125.039,-80.948,23187.976220
1 Jan 2020 10:31:49.000,125.379,-80.501,23333.745029
1 Jan 2020 10:32:19.000,125.676,-80.070,23486.443069
1 Jan 2020 10:32:49.000,125.936,-79.656,23645.791040
1 Jan 2020 10:33:19.000,126.164,-79.259,23811.503985
1 Jan 2020 10:33:49.000,126.363,-78.880,23983.292681
1 Jan 2020 10:34:19.000,126.536,-78.520,24160.863581
1 Jan 2020 10:34:49.000,126.688,-78.177,24343.921467
1 Jan 2020 10:35:19.000,126.819,-77.853,24532.169289
1 Jan 2020 10:35:49.000,126.932,-77.548,24725.309303
1 Jan 2020 10:36:19.000,127.029,-77.261,24923.043878
1 Jan 2020 10:36:49.000,127.110,-76.992,25125.076233
1 Jan 2020 10:37:19.000,127.177,-76.742,25331.111437
1 Jan 2020 10:37:49.000,127.231,-76.511,25540.855705
1 Jan 2020 10:38:19.000,127.273,-76.297,25754.018907
1 Jan 2020 10:38:49.000,127.303,-76.102,25970.313749
1 Jan 2020 10:39:19.000,127.321,-75.924,26189.456532
1 Jan 2020 10:39:49.000,127.330,-75.765,26411.167522
1 Jan 2020 10:40:19.000,127.328,-75.622,26635.171282
1 Jan 2020 10:40:49.000,127.316,-75.497,26861.196949
1 Jan 2020 10:41:19.000,127.295,-75.388,27088.978470
1 Jan 2020 10:41:49.000,127.265,-75.296,27318.254798
1 Jan 2020 10:42:19.000,127.225,-75.220,27548.770055
1 Jan 2020 10:42:49.000,127.177,-75.160,27780.273656
1 Jan 2020 10:43:19.000,127.120,-75.116,28012.520410
1 Jan 2020 10:43:49.000,127.054,-75.086,28245.270588
1 Jan 2020 10:44:19.000,126.980,-75.072,28478.289975
1 Jan 2020 10:44:34.293,126.939,-75.070,28597.106597
1 Jan 2020 11:44:33.283,302.904,-75.063,28593.611468
1 Jan 2020 11:45:03.000,302.129,-75.069,28385.132747
1 Jan 2020 11:45:33.000,301.324,-75.086,28175.811869
1 Jan 2020 11:46:03.000,300.494,-75.115,27967.869695
1 Jan 2020 11:46:33.000,299.639,-75.157,27761.538734
1 Jan 2020 11:47:03.000,298.756,-75.210,27557.054691
1 Jan 2020 11:47:33.000,297.842,-75.275,27354.656238
1 Jan 2020 11:48:03.000,296.897,-75.351,27154.584760
1 Jan 2020 11:48:33.000,295.917,-75.440,26957.084069
1 Jan 2020 11:49:03.000,294.900,-75.540,26762.400079
1 Jan 2020 11:49:33.000,293.843,-75.652,26570.780454
1 Jan 2020 11:50:03.000,292.744,-75.775,26382.474210
1 Jan 2020 11:50:33.000,291.599,-75.908,26197.731285
1 Jan 2020 11:51:03.000,290.406,-76.052,26016.801750
1 Jan 2020 11:51:33.000,289.160,-76.207,25839.936582
1 Jan 2020 11:52:03.000,287.859,-76.371,25667.385176
1 Jan 2020 11:52:33.000,286.498,-76.543,25499.396046
1 Jan 2020 11:53:03.000,285.073,-76.725,25336.215878
1 Jan 2020 11:53:33.000,283.581,-76.914,25178.088851
1 Jan 2020 11:54:03.000,282.015,-77.110,25025.255687
1 Jan 2020 11:54:33.000,280.373,-77.311,24877.953907
1 Jan 2020 11:55:03.000,278.649,-77.518,24736.415550
1 Jan 2020 11:55:33.000,276.837,-77.728,24600.867382
1 Jan 2020 11:56:03.000,274.934,-77.941,24471.529826
1 Jan 2020 11:56:33.000,272.934,-78.154,24348.615900
1 Jan 2020 11:57:03.000,270.833,-78.368,24232.331222
1 Jan 2020 11:57:33.000,268.626,-78.579,24122.871857
1 Jan 2020 11:58:03.000,266.309,-78.787,24020.424334
1 Jan 2020 11:58:33.000,263.880,-78.989,23925.164578
1 Jan 2020 11:59:03.000,261.337,-79.184,23837.256903
1 Jan 2020 11:59:33.000,258.678,-79.369,23756.853939
1 Jan 2020 12:00:03.000,255.904,-79.544,23684.094760
1 Jan 2020 12:00:33.000,253.019,-79.705,23619.104913
1 Jan 2020 12:01:03.000,250.027,-79.851,23561.995459
1 Jan 2020 12:01:33.000,246.935,-79.980,23512.862799
1 Jan 2020 12:02:03.000,243.753,-80.091,23471.787470
1 Jan 2020 12:02:33.000,240.494,-80.181,23438.834149
1 Jan 2020 12:03:03.000,237.170,-80.251,23414.051103
1 Jan 2020 12:03:33.000,233.799,-80.297,23397.470140
1 Jan 2020 12:04:03.000,230.400,-80.321,23389.106042
1 Jan 2020 12:04:33.000,226.989,-80.322,23388.956728
1 Jan 2020 12:05:03.000,223.588,-80.299,23397.003188
1 Jan 2020 12:05:33.000,220.214,-80.253,23413.209598
1 Jan 2020 12:06:03.000,216.885,-80.185,23437.523459
1 Jan 2020 12:06:33.000,213.617,-80.096,23469.875939
1 Jan 2020 12:07:03.000,210.425,-79.988,23510.182276
1 Jan 2020 12:07:33.000,207.319,-79.861,23558.342060
1 Jan 2020 12:08:03.000,204.309,-79.718,23614.240026
1 Jan 2020 12:08:33.000,201.401,-79.560,23677.746510
1 Jan 2020 12:09:03.000,198.600,-79.389,23748.718251
1 Jan 2020 12:09:33.000,195.908,-79.208,23826.998760
1 Jan 2020 12:10:03.000,193.326,-79.017,23912.419623
1 Jan 2020 12:10:33.000,190.852,-78.820,24004.800974
1 Jan 2020 12:11:03.000,188.483,-78.618,24103.952422
1 Jan 2020 12:11:33.000,186.218,-78.412,24209.674075
1 Jan 2020 12:12:03.000,184.051,-78.204,24321.756774
1 Jan 2020 12:12:33.000,181.979,-77.996,24439.983914
1 Jan 2020 12:13:03.000,179.996,-77.788,24564.131700
1 Jan 2020 12:13:33.000,178.098,-77.584,24693.970157
1 Jan 2020 12:14:03.000,176.279,-77.382,24829.263979
1 Jan 2020 12:14:33.000,174.535,-77.185,24969.773562
1 Jan 2020 12:15:03.000,172.861,-76.994,25115.254939
1 Jan 2020 12:15:33.000,171.252,-76.809,25265.461818
1 Jan 2020 12:16:03.000,169.703,-76.631,25420.145469
1 Jan 2020 12:16:33.000,168.210,-76.461,25579.055615
1 Jan 2020 12:17:03.000,166.768,-76.300,25741.941084
1 Jan 2020 12:17:33.000,165.375,-76.147,25908.550418
1 Jan 2020 12:18:03.000,164.026,-76.003,26078.632437
1 Jan 2020 12:18:33.000,162.718,-75.869,26251.936767
1 Jan 2020 12:19:03.000,161.447,-75.745,26428.214595
1 Jan 2020 12:19:33.000,160.211,-75.631,26607.218026
1 Jan 2020 12:20:03.000,159.005,-75.528,26788.702109
1 Jan 2020 12:20:33.000,157.829,-75.435,26972.424127
1 Jan 2020 12:21:03.000,156.678,-75.352,27158.144192
1 Jan 2020 12:21:33.000,155.551,-75.280,27345.625541
1 Jan 2020 12:22:03.000,154.445,-75.218,27534.634796
1 Jan 2020 12:22:33.000,153.358,-75.167,27724.942195
1 Jan 2020 12:23:03.000,152.288,-75.127,27916.321788
1 Jan 2020 12:23:33.000,151.233,-75.097,28108.551617
1 Jan 2020 12:24:03.000,150.190,-75.077,28301.413860
1 Jan 2020 12:24:33.000,149.159,-75.067,28494.694957
1 Jan 2020 12:24:48.247,148.639,-75.065,28593.023084
1 Jan 2020 13:24:08.589,318.878,-75.065,28592.970133
1 Jan 2020 13:24:38.000,317.503,-75.068,28446.946336
1 Jan 2020 13:25:08.000,316.079,-75.076,28300.126464
1 Jan 2020 13:25:38.000,314.633,-75.090,28155.645223
1 Jan 2020 13:26:08.000,313.164,-75.110,28013.694473
1 Jan 2020 13:26:38.000,311.671,-75.134,27874.465511
1 Jan 2020 13:27:08.000,310.152,-75.164,27738.148715
1 Jan 2020 13:27:38.000,308.606,-75.198,27604.933164
1 Jan 2020 13:28:08.000,307.032,-75.236,27475.006253
1 Jan 2020 13:28:38.000,305.430,-75.278,27348.553277
1 Jan 2020 13:29:08.000,303.798,-75.324,27225.757012
1 Jan 2020 13:29:38.000,302.135,-75.373,27106.797082
1 Jan 2020 13:30:08.000,300.442,-75.425,26991.850264
1 Jan 2020 13:30:38.000,298.717,-75.479,26881.088881
1 Jan 2020 13:31:08.000,296.960,-75.534,26774.681101
1 Jan 2020 13:31:38.000,295.170,-75.592,26672.790254
1 Jan 2020 13:32:08.000,293.348,-75.650,26575.574358
1 Jan 2020 13:32:38.000,291.493,-75.708,26483.185625
1 Jan 2020 13:33:08.000,289.606,-75.766,26395.769840
1 Jan 2020 13:33:38.000,287.688,-75.823,26313.466450
1 Jan 2020 13:34:08.000,285.738,-75.880,26236.407228
1 Jan 2020 13:34:38.000,283.758,-75.934,26164.716393
1 Jan 2020 13:35:08.000,281.749,-75.986,26098.510023
1 Jan 2020 13:35:38.000,279.712,-76.035,26037.895626
1 Jan 2020 13:36:08.000,277.649,-76.081,25982.971642
1 Jan 2020 13:36:38.000,275.562,-76.123,25933.827443
1 Jan 2020 13:37:08.000,273.453,-76.161,25890.542409
1 Jan 2020 13:37:38.000,271.324,-76.195,25853.186004
1 Jan 2020 13:38:08.000,269.178,-76.223,25821.817393
1 Jan 2020 13:38:38.000,267.018,-76.246,25796.485161
1 Jan 2020 13:39:08.000,264.846,-76.264,25777.227282
1 Jan 2020 13:39:38.000,262.666,-76.277,25764.070692
1 Jan 2020 13:40:08.000,260.480,-76.283,25757.031364
1 Jan 2020 13:40:38.000,258.292,-76.284,25756.114186
1 Jan 2020 13:41:08.000,256.105,-76.279,25761.312948
1 Jan 2020 13:41:38.000,253.922,-76.268,25772.610358
1 Jan 2020 13:42:08.000,251.746,-76.252,25789.978109
1 Jan 2020 13:42:38.000,249.581,-76.230,25813.377009
1 Jan 2020 13:43:08.000,247.429,-76.203,25842.757137
1 Jan 2020 13:43:38.000,245.293,-76.172,25878.058045
1 Jan 2020 13:44:08.000,243.175,-76.135,25919.209072
1 Jan 2020 13:44:38.000,241.077,-76.094,25966.129381
1 Jan 2020 13:45:08.000,239.003,-76.050,26018.728631
1 Jan 2020 13:45:38.000,236.953,-76.002,26076.907103
1 Jan 2020 13:46:08.000,234.930,-75.951,26140.556142
1 Jan 2020 13:46:38.000,232.934,-75.898,26209.558560
1 Jan 2020 13:47:08.000,230.967,-75.843,26283.789177
1 Jan 2020 13:47:38.000,229.029,-75.787,26363.114847
1 Jan 2020 13:48:08.000,227.122,-75.730,26447.395548
1 Jan 2020 13:48:38.000,225.245,-75.672,26536.484451
1 Jan 2020 13:49:08.000,223.399,-75.615,26630.228503
1 Jan 2020 13:49:38.000,221.584,-75.558,26728.468920
1 Jan 2020 13:50:08.000,219.799,-75.502,26831.041678
1 Jan 2020 13:50:38.000,218.045,-75.448,26937.778154
1 Jan 2020 13:51:08.000,216.321,-75.396,27048.505012
1 Jan 2020 13:51:38.000,214.626,-75.347,27163.045574
1 Jan 2020 13:52:08.000,212.960,-75.300,27281.219699
1 Jan 2020 13:52:38.000,211.322,-75.257,27402.844389
1 Jan 2020 13:53:08.000,209.710,-75.217,27527.734234
1 Jan 2020 13:53:38.000,208.124,-75.182,27655.701842
1 Jan 2020 13:54:08.000,206.563,-75.150,27786.558254
1 Jan 2020 13:54:38.000,205.026,-75.123,27920.113337
1 Jan 2020 13:55:08.000,203.512,-75.101,28056.176171
1 Jan 2020 13:55:38.000,202.018,-75.083,28194.555402
1 Jan 2020 13:56:08.000,200.545,-75.071,28335.059784
1 Jan 2020 13:56:38.000,199.091,-75.064,28477.497717
1 Jan 2020 13:57:02.118,197.935,-75.062,28593.280281
1 Jan 2020 14:55:17.340,9.921,-75.071,28596.793371
1 Jan 2020 14:55:47.000,8.626,-75.075,28435.181301
1 Jan 2020 14:56:17.000,7.302,-75.085,28272.682264
1 Jan 2020 14:56:47.000,5.961,-75.102,28111.352639
1 Jan 2020 14:57:17.000,4.602,-75.127,27951.395842
1 Jan 2020 14:57:47.000,3.223,-75.158,27793.017606
1 Jan 2020 14:58:17.000,1.822,-75.197,27636.425736
1 Jan 2020 14:58:47.000,0.397,-75.242,27481.829849
1 Jan 2020 14:59:17.000,358.948,-75.293,27329.441081
1 Jan 2020 14:59:47.000,357.471,-75.351,27179.471775
1 Jan 2020 15:00:17.000,355.966,-75.415,27032.135140
1 Jan 2020 15:00:47.000,354.430,-75.484,26887.644885
1 Jan 2020 15:01:17.000,352.862,-75.559,26746.214827
1 Jan 2020 15:01:47.000,351.260,-75.639,26608.058475
1 Jan 2020 15:02:17.000,349.621,-75.724,26473.388388
1 Jan 2020 15:02:47.000,347.945,-75.813,26342.416475
1 Jan 2020 15:03:17.000,346.230,-75.906,26215.352340
1 Jan 2020 15:03:47.000,344.474,-76.001,26092.403540
1 Jan 2020 15:04:17.000,342.676,-76.100,25973.774845
1 Jan 2020 15:04:47.000,340.834,-76.200,25859.667676
1 Jan 2020 15:05:17.000,338.947,-76.302,25750.279525
1 Jan 2020 15:05:47.000,337.014,-76.404,25645.803218
1 Jan 2020 15:06:17.000,335.035,-76.505,25546.426870
1 Jan 2020 15:06:47.000,333.009,-76.606,25452.332408
1 Jan 2020 15:07:17.000,330.935,-76.705,25363.695529
1 Jan 2020 15:07:47.000,328.815,-76.802,25280.684930
1 Jan 2020 15:08:17.000,326.649,-76.895,25203.461684
1 Jan 2020 15:08:47.000,324.438,-76.984,25132.178537
1 Jan 2020 15:09:17.000,322.184,-77.067,25066.979691
1 Jan 2020 15:09:47.000,319.888,-77.145,25007.999639
1 Jan 2020 15:10:17.000,317.554,-77.216,24955.363004
1 Jan 2020 15:10:47.000,315.184,-77.280,24909.183918
1 Jan 2020 15:11:17.000,312.783,-77.336,24869.565488
1 Jan 2020 15:11:47.000,310.353,-77.383,24836.599496
1 Jan 2020 15:12:17.000,307.901,-77.421,24810.365749
1 Jan 2020 15:12:47.000,305.430,-77.449,24790.931889
1 Jan 2020 15:13:17.000,302.947,-77.468,24778.353039
1 Jan 2020 15:13:47.000,300.456,-77.476,24772.671570
1 Jan 2020 15:14:17.000,297.964,-77.474,24773.916844
1 Jan 2020 15:14:47.000,295.476,-77.462,24782.105158
1 Jan 2020 15:15:17.000,292.999,-77.439,24797.239633
1 Jan 2020 15:15:47.000,290.537,-77.407,24819.310213
1 Jan 2020 15:16:17.000,288.096,-77.365,24848.293797
1 Jan 2020 15:16:47.000,285.681,-77.314,24884.154059
1 Jan 2020 15:17:17.000,283.297,-77.254,24926.842054
1 Jan 2020 15:17:47.000,280.949,-77.186,24976.296179
1 Jan 2020 15:18:17.000,278.640,-77.111,25032.442532
1 Jan 2020 15:18:47.000,276.372,-77.028,25095.195381
1 Jan 2020 15:19:17.000,274.150,-76.941,25164.457061
1 Jan 2020 15:19:47.000,271.975,-76.848,25240.119141
1 Jan 2020 15:20:17.000,269.849,-76.750,25322.062420
1 Jan 2020 15:20:47.000,267.774,-76.650,25410.157557
1 Jan 2020 15:21:17.000,265.749,-76.547,25504.265767
1 Jan 2020 15:21:47.000,263.776,-76.442,25604.238759
1 Jan 2020 15:22:17.000,261.854,-76.337,25709.920244
1 Jan 2020 15:22:47.000,259.983,-76.231,25821.145925
1 Jan 2020 15:23:17.000,258.163,-76.127,25937.744245
1 Jan 2020 15:23:47.000,256.393,-76.024,26059.537005
1 Jan 2020 15:24:17.000,254.671,-75.923,26186.340174
1 Jan 2020 15:24:47.000,252.997,-75.826,26317.963663
1 Jan 2020 15:25:17.000,251.369,-75.732,26454.213163
1 Jan 2020 15:25:47.000,249.785,-75.642,26594.889901
1 Jan 2020 15:26:17.000,248.244,-75.558,26739.791422
1 Jan 2020 15:26:47.000,246.744,-75.478,26888.712132
1 Jan 2020 15:27:17.000,245.283,-75.405,27041.443834
1 Jan 2020 15:27:47.000,243.861,-75.338,27197.776236
1 Jan 2020 15:28:17.000,242.474,-75.277,27357.497439
1 Jan 2020 15:28:47.000,241.122,-75.224,27520.394675
1 Jan 2020 15:29:17.000,239.803,-75.178,27686.253649
1 Jan 2020 15:29:47.000,238.514,-75.139,27854.860586
1 Jan 2020 15:30:17.000,237.254,-75.108,28026.001537
1 Jan 2020 15:30:47.000,236.022,-75.086,28199.463003
1 Jan 2020 15:31:17.000,234.816,-75.071,28375.032276
1 Jan 2020 15:31:47.000,233.633,-75.065,28552.497751
1 Jan 2020 15:31:54.629,233.336,-75.064,28597.906276
1 Jan 2020 16:31:50.407,45.180,-75.075,28603.047335
1 Jan 2020 16:32:20.000,44.590,-75.081,28385.409010
1 Jan 2020 16:32:50.000,43.991,-75.101,28164.793533
1 Jan 2020 16:33:20.000,43.388,-75.134,27944.416823
1 Jan 2020 16:33:50.000,42.781,-75.180,27724.506798
1 Jan 2020 16:34:20.000,42.167,-75.241,27505.296729
1 Jan 2020 16:34:50.000,41.546,-75.316,27287.025182
1 Jan 2020 16:35:20.000,40.916,-75.405,27069.935933
1 Jan 2020 16:35:50.000,40.276,-75.509,26854.277856
1 Jan 2020 16:36:20.000,39.623,-75.629,26640.304785
1 Jan 2020 16:36:50.000,38.955,-75.763,26428.275339
1 Jan 2020 16:37:20.000,38.271,-75.913,26218.452716
1 Jan 2020 16:37:50.000,37.568,-76.079,26011.104450
1 Jan 2020 16:38:20.000,36.843,-76.260,25806.502122
1 Jan 2020 16:38:50.000,36.093,-76.457,25604.921029
1 Jan 2020 16:39:20.000,35.316,-76.670,25406.639804
1 Jan 2020 16:39:50.000,34.508,-76.899,25211.939691
1 Jan 2020 16:40:20.000,33.664,-77.143,25021.105267
1 Jan 2020 16:40:50.000,32.780,-77.403,24834.422086
1 Jan 2020 16:41:20.000,31.851,-77.678,24652.177299
1 Jan 2020 16:41:50.000,30.871,-77.968,24474.658699
1 Jan 2020 16:42:20.000,29.834,-78.272,24302.154005
1 Jan 2020 16:42:50.000,28.731,-78.591,24134.949842
1 Jan 2020 16:43:20.000,27.553,-78.923,23973.331899
1 Jan 2020 16:43:50.000,26.291,-79.268,23817.582536
1 Jan 2020 16:44:20.000,24.933,-79.625,23667.980847
1 Jan 2020 16:44:50.000,23.464,-79.992,23524.801405
1 Jan 2020 16:45:20.000,21.868,-80.370,23388.313006
1 Jan 2020 16:45:50.000,20.126,-80.755,23258.778435
1 Jan 2020 16:46:20.000,18.216,-81.147,23136.452049
1 Jan 2020 16:46:50.000,16.111,-81.543,23021.579504
1 Jan 2020 16:47:20.000,13.781,-81.940,22914.396224
1 Jan 2020 16:47:50.000,11.190,-82.337,22815.126849
1 Jan 2020 16:48:20.000,8.298,-82.729,22723.983138
1 Jan 2020 16:48:50.000,5.057,-83.113,22641.163471
1 Jan 2020 16:49:20.000,1.418,-83.484,22566.851474
1 Jan 2020 16:49:50.000,357.330,-83.835,22501.215413
1 Jan 2020 16:50:20.000,352.742,-84.161,22444.406504
1 Jan 2020 16:50:50.000,347.619,-84.454,22396.558479
1 Jan 2020 16:51:20.000,341.946,-84.706,22357.786580
1 Jan 2020 16:51:50.000,335.746,-84.908,22328.187046
1 Jan 2020 16:52:20.000,329.094,-85.052,22307.836157
1 Jan 2020 16:52:50.000,322.124,-85.133,22296.789982
1 Jan 2020 16:53:20.000,315.016,-85.145,22295.083977
1 Jan 2020 16:53:50.000,307.974,-85.089,22302.732689
1 Jan 2020 16:54:20.000,301.193,-84.966,22319.729740
1 Jan 2020 16:54:50.000,294.824,-84.784,22346.047852
1 Jan 2020 16:55:20.000,288.966,-84.548,22381.639127
1 Jan 2020 16:55:50.000,283.660,-84.267,22426.435043
1 Jan 2020 16:56:20.000,278.906,-83.951,22480.347391
1 Jan 2020 16:56:50.000,274.673,-83.605,22543.268560
1 Jan 2020 16:57:20.000,270.916,-83.238,22615.072448
1 Jan 2020 16:57:50.000,267.583,-82.855,22695.614684
1 Jan 2020 16:58:20.000,264.623,-82.462,22784.734370
1 Jan 2020 16:58:50.000,261.989,-82.063,22882.254497
1 Jan 2020 16:59:20.000,259.638,-81.661,22987.983309
1 Jan 2020 16:59:50.000,257.531,-81.260,23101.714619
1 Jan 2020 17:00:20.000,255.637,-80.863,23223.230057
1 Jan 2020 17:00:50.000,253.927,-80.471,23352.299477
1 Jan 2020 17:01:20.000,252.379,-80.086,23488.682291
1 Jan 2020 17:01:50.000,250.971,-79.711,23632.128898
1 Jan 2020 17:02:20.000,249.687,-79.346,23782.380717
1 Jan 2020 17:02:50.000,248.511,-78.993,23939.172944
1 Jan 2020 17:03:20.000,247.432,-78.653,24102.234555
1 Jan 2020 17:03:50.000,246.438,-78.326,24271.289615
1 Jan 2020 17:04:20.000,245.520,-78.013,24446.058280
1 Jan 2020 17:04:50.000,244.671,-77.715,24626.258071
1 Jan 2020 17:05:20.000,243.882,-77.432,24811.603466
1 Jan 2020 17:05:50.000,243.149,-77.165,25001.808683
1 Jan 2020 17:06:20.000,242.466,-76.914,25196.587165
1 Jan 2020 17:06:50.000,241.827,-76.678,25395.652626
1 Jan 2020 17:07:20.000,241.230,-76.460,25598.719710
1 Jan 2020 17:07:50.000,240.671,-76.257,25805.504591
1 Jan 2020 17:08:20.000,240.146,-76.071,26015.725518
1 Jan 2020 17:08:50.000,239.653,-75.901,26229.103306
1 Jan 2020 17:09:20.000,239.189,-75.747,26445.362129
1 Jan 2020 17:09:50.000,238.752,-75.610,26664.228485
1 Jan 2020 17:10:20.000,238.340,-75.489,26885.433662
1 Jan 2020 17:10:50.000,237.951,-75.383,27108.712618
1 Jan 2020 17:11:20.000,237.585,-75.293,27333.804587
1 Jan 2020 17:11:50.000,237.238,-75.219,27560.453296
1 Jan 2020 17:12:20.000,236.910,-75.160,27788.407145
1 Jan 2020 17:12:50.000,236.600,-75.116,28017.419351
1 Jan 2020 17:13:20.000,236.307,-75.086,28247.248071
1 Jan 2020 17:13:50.000,236.029,-75.071,28477.656491
1 Jan 2020 17:14:06.548,235.883,-75.069,28604.910597
1 Jan 2020 18:14:06.826,56.804,-75.077,28609.156900
1 Jan 2020 18:14:36.000,57.258,-75.084,28389.958841
1 Jan 2020 18:15:06.000,57.743,-75.104,28165.229627
1 Jan 2020 18:15:36.000,58.248,-75.138,27941.414678
1 Jan 2020 18:16:06.000,58.774,-75.186,27718.752553
1 Jan 2020 18:16:36.000,59.323,-75.248,27497.486277
1 Jan 2020 18:17:06.000,59.896,-75.324,27277.863199
1 Jan 2020 18:17:36.000,60.496,-75.415,27060.134815
1 Jan 2020 18:18:06.000,61.124,-75.520,26844.556565
1 Jan 2020 18:18:36.000,61.783,-75.640,26631.387591
1 Jan 2020 18:19:06.000,62.474,-75.775,26420.890461
1 Jan 2020 18:19:36.000,63.202,-75.925,26213.330850
1 Jan 2020 18:20:06.000,63.968,-76.089,26008.977185
1 Jan 2020 18:20:36.000,64.776,-76.267,25808.100236
1 Jan 2020 18:21:06.000,65.629,-76.460,25610.972324
1 Jan 2020 18:21:36.000,66.532,-76.667,25417.868200
1 Jan 2020 18:22:06.000,67.488,-76.888,25229.062416
1 Jan 2020 18:22:36.000,68.504,-77.122,25044.830114
1 Jan 2020 18:23:06.000,69.584,-77.369,24865.446019
1 Jan 2020 18:23:36.000,70.734,-77.629,24691.183736
1 Jan 2020 18:24:06.000,71.962,-77.900,24522.314707
1 Jan 2020 18:24:36.000,73.275,-78.183,24359.108519
1 Jan 2020 18:25:06.000,74.682,-78.475,24201.830357
1 Jan 2020 18:25:36.000,76.192,-78.776,24050.741231
1 Jan 2020 18:26:06.000,77.815,-79.085,23906.096746
1 Jan 2020 18:26:36.000,79.565,-79.400,23768.145874
1 Jan 2020 18:27:06.000,81.452,-79.720,23637.130921
1 Jan 2020 18:27:36.000,83.493,-80.042,23513.285008
1 Jan 2020 18:28:06.000,85.701,-80.365,23396.832020
1 Jan 2020 18:28:36.000,88.093,-80.686,23287.985125
1 Jan 2020 18:29:06.000,90.687,-81.003,23186.946440
1 Jan 2020 18:29:36.000,93.499,-81.313,23093.904905
1 Jan 2020 18:30:06.000,96.546,-81.612,23009.036017
1 Jan 2020 18:30:36.000,99.842,-81.897,22932.500541
1 Jan 2020 18:31:06.000,103.398,-82.163,22864.444167
1 Jan 2020 18:31:36.000,107.221,-82.407,22804.995783
1 Jan 2020 18:32:06.000,111.308,-82.625,22754.267300
1 Jan 2020 18:32:36.000,115.646,-82.811,22712.352730
1 Jan 2020 18:33:06.000,120.212,-82.963,22679.327951
1 Jan 2020 18:33:36.000,124.969,-83.077,22655.249670
1 Jan 2020 18:34:06.000,129.864,-83.150,22640.155432
1 Jan 2020 18:34:36.000,134.839,-83.179,22634.063257
1 Jan 2020 18:35:06.000,139.827,-83.165,22636.971611
1 Jan 2020 18:35:36.000,144.759,-83.107,22648.859226
1 Jan 2020 18:36:06.000,149.573,-83.008,22669.685357
1 Jan 2020 18:36:36.000,154.216,-82.870,22699.390044
1 Jan 2020 18:37:06.000,158.646,-82.696,22737.894313
1 Jan 2020 18:37:36.000,162.836,-82.491,22785.100878
1 Jan 2020 18:38:06.000,166.770,-82.257,22840.894602
1 Jan 2020 18:38:36.000,170.443,-82.001,22905.143315
1 Jan 2020 18:39:06.000,173.861,-81.725,22977.698205
1 Jan 2020 18:39:36.000,177.032,-81.435,23058.395230
1 Jan 2020 18:40:06.000,179.970,-81.133,23147.055681
1 Jan 2020 18:40:36.000,182.691,-80.822,23243.487391
1 Jan 2020 18:41:06.000,185.213,-80.507,23347.485181
1 Jan 2020 18:41:36.000,187.552,-80.189,23458.832737
1 Jan 2020 18:42:06.000,189.726,-79.871,23577.303135
1 Jan 2020 18:42:36.000,191.750,-79.555,23702.660042
1 Jan 2020 18:43:06.000,193.638,-79.243,23834.659002
1 Jan 2020 18:43:36.000,195.404,-78.937,23973.047622
1 Jan 2020 18:44:06.000,197.060,-78.638,24117.567886
1 Jan 2020 18:44:36.000,198.616,-78.347,24267.956313
1 Jan 2020 18:45:06.000,200.084,-78.066,24423.945126
1 Jan 2020 18:45:36.000,201.471,-77.795,24585.263181
1 Jan 2020 18:46:06.000,202.787,-77.534,24751.637102
1 Jan 2020 18:46:36.000,204.037,-77.286,24922.791067
1 Jan 2020 18:47:06.000,205.229,-77.050,25098.449138
1 Jan 2020 18:47:36.000,206.368,-76.826,25278.334954
1 Jan 2020 18:48:06.000,207.460,-76.616,25462.172657
1 Jan 2020 18:48:36.000,208.509,-76.418,25649.687507
1 Jan 2020 18:49:06.000,209.520,-76.235,25840.606443
1 Jan 2020 18:49:36.000,210.496,-76.064,26034.658593
1 Jan 2020 18:50:06.000,211.441,-75.908,26231.575735
1 Jan 2020 18:50:36.000,212.359,-75.765,26431.092709
1 Jan 2020 18:51:06.000,213.252,-75.637,26632.948089
1 Jan 2020 18:51:36.000,214.123,-75.521,26836.883273
1 Jan 2020 18:52:06.000,214.974,-75.420,27042.644612
1 Jan 2020 18:52:36.000,215.809,-75.332,27249.982422
1 Jan 2020 18:53:06.000,216.628,-75.257,27458.651499
1 Jan 2020 18:53:36.000,217.434,-75.195,27668.411294
1 Jan 2020 18:54:06.000,218.229,-75.146,27879.026058
1 Jan 2020 18:54:36.000,219.014,-75.110,28090.264959
1 Jan 2020 18:55:06.000,219.792,-75.086,28301.902175
1 Jan 2020 18:55:36.000,220.563,-75.075,28513.716963
1 Jan 2020 18:55:49.665,220.913,-75.074,28610.200611
1 Jan 2020 19:55:38.888,50.077,-75.077,28611.451448
1 Jan 2020 19:56:08.000,51.321,-75.080,28450.660784
1 Jan 2020 19:56:38.000,52.625,-75.091,28286.955882
1 Jan 2020 19:57:08.000,53.954,-75.109,28125.469643
1 Jan 2020 19:57:38.000,55.309,-75.133,27966.405840
1 Jan 2020 19:58:08.000,56.691,-75.164,27809.968406
1 Jan 2020 19:58:38.000,58.102,-75.202,27656.361083
1 Jan 2020 19:59:08.000,59.543,-75.245,27505.787049
1 Jan 2020 19:59:38.000,61.015,-75.295,27358.448529
1 Jan 2020 20:00:08.000,62.521,-75.350,27214.546379
1 Jan 2020 20:00:38.000,64.061,-75.409,27074.279647
1 Jan 2020 20:01:08.000,65.637,-75.474,26937.844900
1 Jan 2020 20:01:38.000,67.250,-75.542,26805.436638
1 Jan 2020 20:02:08.000,68.901,-75.615,26677.245454
1 Jan 2020 20:02:38.000,70.591,-75.690,26553.458433
1 Jan 2020 20:03:08.000,72.321,-75.768,26434.258395
1 Jan 2020 20:03:38.000,74.091,-75.848,26319.823369
1 Jan 2020 20:04:08.000,75.904,-75.929,26210.326048
1 Jan 2020 20:04:38.000,77.757,-76.011,26105.933058
1 Jan 2020 20:05:08.000,79.653,-76.093,26006.805150
1 Jan 2020 20:05:38.000,81.591,-76.174,25913.095532
1 Jan 2020 20:06:08.000,83.570,-76.254,25824.950081
1 Jan 2020 20:06:38.000,85.590,-76.332,25742.506619
1 Jan 2020 20:07:08.000,87.649,-76.407,25665.894399
1 Jan 2020 20:07:38.000,89.747,-76.479,25595.233473
1 Jan 2020 20:08:08.000,91.882,-76.547,25530.634748
1 Jan 2020 20:08:38.000,94.052,-76.610,25472.198722
1 Jan 2020 20:09:08.000,96.254,-76.668,25420.015618
1 Jan 2020 20:09:38.000,98.486,-76.720,25374.164864
1 Jan 2020 20:10:08.000,100.744,-76.765,25334.714673
1 Jan 2020 20:10:38.000,103.025,-76.804,25301.722048
1 Jan 2020 20:11:08.000,105.326,-76.836,25275.232063
1 Jan 2020 20:11:38.000,107.642,-76.860,25255.277974
1 Jan 2020 20:12:08.000,109.969,-76.876,25241.880989
1 Jan 2020 20:12:38.000,112.303,-76.884,25235.050145
1 Jan 2020 20:13:08.000,114.640,-76.884,25234.782361
1 Jan 2020 20:13:38.000,116.976,-76.877,25241.062284
1 Jan 2020 20:14:08.000,119.305,-76.861,25253.862471
1 Jan 2020 20:14:38.000,121.624,-76.838,25273.143480
1 Jan 2020 20:15:08.000,123.929,-76.808,25298.854065
1 Jan 2020 20:15:38.000,126.215,-76.770,25330.931304
1 Jan 2020 20:16:08.000,128.481,-76.726,25369.301001
1 Jan 2020 20:16:38.000,130.721,-76.675,25413.877926
1 Jan 2020 20:17:08.000,132.933,-76.619,25464.566198
1 Jan 2020 20:17:38.000,135.116,-76.557,25521.259746
1 Jan 2020 20:18:08.000,137.265,-76.491,25583.842480
1 Jan 2020 20:18:38.000,139.381,-76.421,25652.189150
1 Jan 2020 20:19:08.000,141.461,-76.348,25726.165585
1 Jan 2020 20:19:38.000,143.503,-76.273,25805.629268
1 Jan 2020 20:20:08.000,145.508,-76.195,25890.429868
1 Jan 2020 20:20:38.000,147.475,-76.116,25980.409918
1 Jan 2020 20:21:08.000,149.404,-76.036,26075.404869
1 Jan 2020 20:21:38.000,151.294,-75.957,26175.244382
1 Jan 2020 20:22:08.000,153.147,-75.877,26279.752416
1 Jan 2020 20:22:38.000,154.962,-75.800,26388.747894
1 Jan 2020 20:23:08.000,156.740,-75.724,26502.045267
1 Jan 2020 20:23:38.000,158.483,-75.650,26619.455047
1 Jan 2020 20:24:08.000,160.191,-75.579,26740.784345
1 Jan 2020 20:24:38.000,161.865,-75.511,26865.837569
1 Jan 2020 20:25:08.000,163.507,-75.447,26994.416192
1 Jan 2020 20:25:38.000,165.117,-75.387,27126.320325
1 Jan 2020 20:26:08.000,166.698,-75.332,27261.348454
1 Jan 2020 20:26:38.000,168.251,-75.281,27399.298066
1 Jan 2020 20:27:08.000,169.776,-75.236,27539.966061
1 Jan 2020 20:27:38.000,171.276,-75.196,27683.149151
1 Jan 2020 20:28:08.000,172.752,-75.161,27828.644235
1 Jan 2020 20:28:38.000,174.206,-75.132,27976.248747
1 Jan 2020 20:29:08.000,175.639,-75.110,28125.760983
1 Jan 2020 20:29:38.000,177.052,-75.093,28276.980407
1 Jan 2020 20:30:08.000,178.447,-75.082,28429.707933
1 Jan 2020 20:30:38.000,179.825,-75.078,28583.746186
1 Jan 2020 20:30:43.350,180.070,-75.078,28611.337308
1 Jan 2020 21:28:46.930,7.576,-75.071,28608.815690
1 Jan 2020 21:29:16.000,8.942,-75.074,28464.616140
1 Jan 2020 21:29:46.000,10.369,-75.083,28317.274365
1 Jan 2020 21:30:16.000,11.814,-75.097,28171.621313
1 Jan 2020 21:30:46.000,13.279,-75.117,28027.852197
1 Jan 2020 21:31:16.000,14.765,-75.142,27886.163144
1 Jan 2020 21:31:46.000,16.273,-75.173,27746.750891
1 Jan 2020 21:32:16.000,17.805,-75.208,27609.812464
1 Jan 2020 21:32:46.000,19.363,-75.249,27475.544840
1 Jan 2020 21:33:16.000,20.946,-75.294,27344.144577
1 Jan 2020 21:33:46.000,22.557,-75.343,27215.807435
1 Jan 2020 21:34:16.000,24.197,-75.395,27090.727971
1 Jan 2020 21:34:46.000,25.866,-75.452,26969.099111
1 Jan 2020 21:35:16.000,27.566,-75.511,26851.111540
1 Jan 2020 21:35:46.000,29.298,-75.573,26736.953933
1 Jan 2020 21:36:16.000,31.063,-75.638,26626.811428
1 Jan 2020 21:36:46.000,32.860,-75.704,26520.865844
1 Jan 2020 21:37:16.000,34.691,-75.771,26419.294997
1 Jan 2020 21:37:46.000,36.556,-75.839,26322.272189
1 Jan 2020 21:38:16.000,38.456,-75.907,26229.965691
1 Jan 2020 21:38:46.000,40.389,-75.974,26142.538094
1 Jan 2020 21:39:16.000,42.357,-76.041,26060.146267
1 Jan 2020 21:39:46.000,44.357,-76.106,25982.940104
1 Jan 2020 21:40:16.000,46.390,-76.168,25911.062502
1 Jan 2020 21:40:46.000,48.455,-76.228,25844.648726
1 Jan 2020 21:41:16.000,50.549,-76.285,25783.825915
1 Jan 2020 21:41:46.000,52.672,-76.338,25728.712543
1 Jan 2020 21:42:16.000,54.821,-76.386,25679.418238
1 Jan 2020 21:42:46.000,56.995,-76.430,25636.042924
1 Jan 2020 21:43:16.000,59.189,-76.468,25598.676720
1 Jan 2020 21:43:46.000,61.403,-76.501,25567.399497
1 Jan 2020 21:44:16.000,63.632,-76.527,25542.280531
1 Jan 2020 21:44:46.000,65.873,-76.547,25523.378294
1 Jan 2020 21:45:16.000,68.124,-76.561,25510.740074
1 Jan 2020 21:45:46.000,70.379,-76.568,25504.401877
1 Jan 2020 21:46:16.000,72.637,-76.568,25504.388241
1 Jan 2020 21:46:46.000,74.892,-76.561,25510.712163
1 Jan 2020 21:47:16.000,77.141,-76.548,25523.374942
1 Jan 2020 21:47:46.000,79.382,-76.528,25542.366318
1 Jan 2020 21:48:16.000,81.609,-76.501,25567.664430
1 Jan 2020 21:48:46.000,83.820,-76.469,25599.235936
1 Jan 2020 21:49:16.000,86.011,-76.430,25637.036234
1 Jan 2020 21:49:46.000,88.180,-76.386,25681.009362
1 Jan 2020 21:50:16.000,90.323,-76.337,25731.088662
1 Jan 2020 21:50:46.000,92.439,-76.284,25787.196784
1 Jan 2020 21:51:16.000,94.525,-76.226,25849.246080
1 Jan 2020 21:51:46.000,96.580,-76.165,25917.138955
1 Jan 2020 21:52:16.000,98.601,-76.102,25990.768401
1 Jan 2020 21:52:46.000,100.587,-76.035,26070.017863
1 Jan 2020 21:53:16.000,102.538,-75.968,26154.762502
1 Jan 2020 21:53:46.000,104.453,-75.899,26244.869125
1 Jan 2020 21:54:16.000,106.330,-75.829,26340.196801
1 Jan 2020 21:54:46.000,108.171,-75.760,26440.597359
1 Jan 2020 21:55:16.000,109.975,-75.691,26545.916064
1 Jan 2020 21:55:46.000,111.742,-75.624,26655.991467
1 Jan 2020 21:56:16.000,113.473,-75.559,26770.656903
1 Jan 2020 21:56:46.000,115.168,-75.496,26889.740358
1 Jan 2020 21:57:16.000,116.828,-75.435,27013.065140
1 Jan 2020 21:57:46.000,118.454,-75.378,27140.450384
1 Jan 2020 21:58:16.000,120.046,-75.325,27271.711541
1 Jan 2020 21:58:46.000,121.606,-75.277,27406.660868
1 Jan 2020 21:59:16.000,123.135,-75.232,27545.108100
1 Jan 2020 21:59:46.000,124.634,-75.193,27686.860062
1 Jan 2020 22:00:16.000,126.104,-75.159,27831.722366
1 Jan 2020 22:00:46.000,127.547,-75.131,27979.498990
1 Jan 2020 22:01:16.000,128.963,-75.108,28129.992884
1 Jan 2020 22:01:46.000,130.354,-75.092,28283.006349
1 Jan 2020 22:02:16.000,131.721,-75.081,28438.341396
1 Jan 2020 22:02:46.000,133.067,-75.078,28595.800081
1 Jan 2020 22:02:48.323,133.170,-75.077,28608.072920
1 Jan 2020 23:02:27.465,322.789,-75.067,28603.136411
1 Jan 2020 23:02:57.000,323.660,-75.072,28401.965146
1 Jan 2020 23:03:27.000,324.552,-75.088,28197.777850
1 Jan 2020 23:03:57.000,325.453,-75.116,27993.960151
1 Jan 2020 23:04:27.000,326.366,-75.156,27790.731949
1 Jan 2020 23:04:57.000,327.292,-75.207,27588.317868
1 Jan 2020 23:05:27.000,328.232,-75.271,27386.947159
1 Jan 2020 23:05:57.000,329.190,-75.346,27186.853567
1 Jan 2020 23:06:27.000,330.167,-75.434,26988.275186
1 Jan 2020 23:06:57.000,331.166,-75.534,26791.454276
1 Jan 2020 23:07:27.000,332.188,-75.646,26596.637051
1 Jan 2020 23:07:57.000,333.238,-75.771,26404.073439
1 Jan 2020 23:08:27.000,334.317,-75.907,26214.016797
1 Jan 2020 23:08:57.000,335.430,-76.056,26026.723595
1 Jan 2020 23:09:27.000,336.579,-76.217,25842.453060
1 Jan 2020 23:09:57.000,337.768,-76.390,25661.466772
1 Jan 2020 23:10:27.000,339.002,-76.575,25484.027950
1 Jan 2020 23:10:57.000,340.284,-76.770,25310.402046
1 Jan 2020 23:11:27.000,341.620,-76.977,25140.854570
1 Jan 2020 23:11:57.000,343.014,-77.194,24975.651600
1 Jan 2020 23:12:27.000,344.472,-77.420,24815.058872
1 Jan 2020 23:12:57.000,346.001,-77.655,24659.341094
1 Jan 2020 23:13:27.000,347.607,-77.899,24508.761215
1 Jan 2020 23:13:57.000,349.298,-78.149,24363.579417
1 Jan 2020 23:14:27.000,351.080,-78.406,24224.053234
1 Jan 2020 23:14:57.000,352.962,-78.668,24090.435258
1 Jan 2020 23:15:27.000,354.953,-78.933,23962.973209
1 Jan 2020 23:15:57.000,357.062,-79.199,23841.908755
1 Jan 2020 23:16:27.000,359.298,-79.466,23727.476396
1 Jan 2020 23:16:57.000,1.670,-79.732,23619.903156
1 Jan 2020 23:17:27.000,4.189,-79.993,23519.406576
1 Jan 2020 23:17:57.000,6.861,-80.248,23426.194419
1 Jan 2020 23:18:27.000,9.696,-80.494,23340.463510
1 Jan 2020 23:18:57.000,12.699,-80.729,23262.398654
1 Jan 2020 23:19:27.000,15.874,-80.949,23192.172189
1 Jan 2020 23:19:57.000,19.219,-81.153,23129.942327
1 Jan 2020 23:20:27.000,22.733,-81.336,23075.852822
1 Jan 2020 23:20:57.000,26.405,-81.497,23030.031999
1 Jan 2020 23:21:27.000,30.220,-81.631,22992.592241
1 Jan 2020 23:21:57.000,34.160,-81.738,22963.629009
1 Jan 2020 23:22:27.000,38.197,-81.814,22943.220530
1 Jan 2020 23:22:57.000,42.299,-81.859,22931.427280
1 Jan 2020 23:23:27.000,46.434,-81.871,22928.291616
1 Jan 2020 23:23:57.000,50.563,-81.850,22933.837529
1 Jan 2020 23:24:27.000,54.649,-81.797,22948.070524
1 Jan 2020 23:24:57.000,58.660,-81.711,22970.977658
1 Jan 2020 23:25:27.000,62.563,-81.596,23002.527374
1 Jan 2020 23:25:57.000,66.334,-81.453,23042.670070
1 Jan 2020 23:26:27.000,69.953,-81.285,23091.338180
1 Jan 2020 23:26:57.000,73.406,-81.093,23148.446772
1 Jan 2020 23:27:27.000,76.684,-80.882,23213.893577
