STKdata/stk_90fov_6leo/Satellite-MEO_Satellite10202-To-Satellite-LEO_Satellite20000 AER.csv

"Time (UTCG)","Azimuth (deg)","Elevation (deg)","Range (km)"
1 Jan 2020 00:00:00.000,108.761,-78.701,24089.346468
1 Jan 2020 00:00:30.000,111.511,-78.798,24042.206630
1 Jan 2020 00:01:00.000,114.319,-78.880,24002.657149
1 Jan 2020 00:01:30.000,117.176,-78.948,23970.756079
1 Jan 2020 00:02:00.000,120.072,-79.001,23946.546528
1 Jan 2020 00:02:30.000,122.998,-79.036,23930.056364
1 Jan 2020 00:03:00.000,125.943,-79.056,23921.298270
1 Jan 2020 00:03:30.000,128.895,-79.058,23920.269330
1 Jan 2020 00:04:00.000,131.844,-79.043,23926.951273
1 Jan 2020 00:04:30.000,134.778,-79.012,23941.310499
1 Jan 2020 00:05:00.000,137.686,-78.964,23963.298244
1 Jan 2020 00:05:30.000,140.558,-78.901,23992.850823
1 Jan 2020 00:06:00.000,143.385,-78.823,24029.889972
1 Jan 2020 00:06:30.000,146.159,-78.731,24074.323236
1 Jan 2020 00:07:00.000,148.874,-78.627,24126.044515
1 Jan 2020 00:07:30.000,151.523,-78.511,24184.934298
1 Jan 2020 00:08:00.000,154.103,-78.385,24250.860662
1 Jan 2020 00:08:30.000,156.610,-78.250,24323.679640
1 Jan 2020 00:09:00.000,159.042,-78.107,24403.235960
1 Jan 2020 00:09:30.000,161.398,-77.959,24489.363875
1 Jan 2020 00:10:00.000,163.678,-77.805,24581.887405
1 Jan 2020 00:10:30.000,165.883,-77.648,24680.621818
1 Jan 2020 00:11:00.000,168.014,-77.489,24785.373922
1 Jan 2020 00:11:30.000,170.072,-77.328,24895.942958
1 Jan 2020 00:12:00.000,172.061,-77.168,25012.121367
1 Jan 2020 00:12:30.000,173.982,-77.009,25133.695747
1 Jan 2020 00:13:00.000,175.838,-76.852,25260.446864
1 Jan 2020 00:13:30.000,177.633,-76.698,25392.151486
1 Jan 2020 00:14:00.000,179.370,-76.548,25528.582380
1 Jan 2020 00:14:30.000,181.050,-76.402,25669.509177
1 Jan 2020 00:15:00.000,182.679,-76.262,25814.699039
1 Jan 2020 00:15:30.000,184.258,-76.128,25963.917287
1 Jan 2020 00:16:00.000,185.791,-76.001,26116.928005
1 Jan 2020 00:16:30.000,187.280,-75.880,26273.494843
1 Jan 2020 00:17:00.000,188.729,-75.767,26433.380605
1 Jan 2020 00:17:30.000,190.141,-75.662,26596.349151
1 Jan 2020 00:18:00.000,191.517,-75.565,26762.164928
1 Jan 2020 00:18:30.000,192.861,-75.476,26930.593631
1 Jan 2020 00:19:00.000,194.176,-75.396,27101.402587
1 Jan 2020 00:19:30.000,195.462,-75.325,27274.361123
1 Jan 2020 00:20:00.000,196.724,-75.263,27449.240887
1 Jan 2020 00:20:30.000,197.963,-75.209,27625.816142
1 Jan 2020 00:21:00.000,199.180,-75.165,27803.864038
1 Jan 2020 00:21:30.000,200.379,-75.129,27983.164840
1 Jan 2020 00:22:00.000,201.561,-75.103,28163.502147
1 Jan 2020 00:22:30.000,202.728,-75.086,28344.663073
1 Jan 2020 00:23:00.000,203.882,-75.077,28526.438407
1 Jan 2020 00:23:13.986,204.416,-75.076,28611.334936
1 Jan 2020 01:22:12.844,33.758,-75.074,28610.647392
1 Jan 2020 01:22:42.000,35.155,-75.077,28470.945459
1 Jan 2020 01:23:12.000,36.611,-75.085,28329.262379
1 Jan 2020 01:23:42.000,38.089,-75.098,28189.856845
1 Jan 2020 01:24:12.000,39.589,-75.117,28052.917951
1 Jan 2020 01:24:42.000,41.112,-75.140,27918.634252
1 Jan 2020 01:25:12.000,42.659,-75.167,27787.193418
1 Jan 2020 01:25:42.000,44.231,-75.199,27658.781859
1 Jan 2020 01:26:12.000,45.830,-75.235,27533.584348
1 Jan 2020 01:26:42.000,47.455,-75.274,27411.783609
1 Jan 2020 01:27:12.000,49.109,-75.316,27293.559908
1 Jan 2020 01:27:42.000,50.791,-75.362,27179.090447
1 Jan 2020 01:28:12.000,52.502,-75.410,27068.549604
1 Jan 2020 01:28:42.000,54.243,-75.460,26962.107445
1 Jan 2020 01:29:12.000,56.014,-75.511,26859.929959
1 Jan 2020 01:29:42.000,57.815,-75.564,26762.178408
1 Jan 2020 01:30:12.000,59.647,-75.617,26669.008854
1 Jan 2020 01:30:42.000,61.509,-75.671,26580.571688
1 Jan 2020 01:31:12.000,63.401,-75.724,26497.011026
1 Jan 2020 01:31:42.000,65.322,-75.776,26418.464750
1 Jan 2020 01:32:12.000,67.272,-75.827,26345.063276
1 Jan 2020 01:32:42.000,69.249,-75.877,26276.929623
1 Jan 2020 01:33:12.000,71.253,-75.924,26214.178849
1 Jan 2020 01:33:42.000,73.283,-75.968,26156.917633
1 Jan 2020 01:34:12.000,75.336,-76.009,26105.243802
1 Jan 2020 01:34:42.000,77.410,-76.047,26059.246279
1 Jan 2020 01:35:12.000,79.505,-76.080,26019.004251
1 Jan 2020 01:35:42.000,81.616,-76.110,25984.587193
1 Jan 2020 01:36:12.000,83.743,-76.134,25956.054510
1 Jan 2020 01:36:42.000,85.882,-76.154,25933.455293
1 Jan 2020 01:37:12.000,88.031,-76.169,25916.828095
1 Jan 2020 01:37:42.000,90.186,-76.178,25906.200886
1 Jan 2020 01:38:12.000,92.345,-76.183,25901.590754
1 Jan 2020 01:38:42.000,94.505,-76.181,25903.003964
1 Jan 2020 01:39:12.000,96.663,-76.175,25910.435899
1 Jan 2020 01:39:42.000,98.816,-76.163,25923.871093
1 Jan 2020 01:40:12.000,100.961,-76.146,25943.283229
1 Jan 2020 01:40:42.000,103.095,-76.124,25968.635336
1 Jan 2020 01:41:12.000,105.216,-76.097,25999.879891
1 Jan 2020 01:41:42.000,107.321,-76.066,26036.959015
1 Jan 2020 01:42:12.000,109.407,-76.031,26079.804714
1 Jan 2020 01:42:42.000,111.473,-75.992,26128.339222
1 Jan 2020 01:43:12.000,113.517,-75.949,26182.474999
1 Jan 2020 01:43:42.000,115.537,-75.904,26242.115518
1 Jan 2020 01:44:12.000,117.531,-75.856,26307.155341
1 Jan 2020 01:44:42.000,119.498,-75.806,26377.480578
1 Jan 2020 01:45:12.000,121.437,-75.755,26452.969304
1 Jan 2020 01:45:42.000,123.348,-75.702,26533.492110
1 Jan 2020 01:46:12.000,125.229,-75.649,26618.912084
1 Jan 2020 01:46:42.000,127.081,-75.596,26709.085961
1 Jan 2020 01:47:12.000,128.903,-75.543,26803.864139
1 Jan 2020 01:47:42.000,130.695,-75.492,26903.091267
1 Jan 2020 01:48:12.000,132.458,-75.441,27006.606718
1 Jan 2020 01:48:42.000,134.191,-75.392,27114.245068
1 Jan 2020 01:49:12.000,135.895,-75.346,27225.836569
1 Jan 2020 01:49:42.000,137.571,-75.302,27341.207788
1 Jan 2020 01:50:12.000,139.218,-75.261,27460.181368
1 Jan 2020 01:50:42.000,140.840,-75.223,27582.577518
1 Jan 2020 01:51:12.000,142.434,-75.190,27708.213757
1 Jan 2020 01:51:42.000,144.004,-75.160,27836.905511
1 Jan 2020 01:52:12.000,145.550,-75.134,27968.466514
1 Jan 2020 01:52:42.000,147.072,-75.113,28102.709203
1 Jan 2020 01:53:12.000,148.573,-75.097,28239.445092
1 Jan 2020 01:53:42.000,150.052,-75.086,28378.485125
1 Jan 2020 01:54:12.000,151.512,-75.080,28519.640016
1 Jan 2020 01:54:31.043,152.429,-75.079,28610.252714
1 Jan 2020 02:53:10.526,341.243,-75.068,28606.232413
1 Jan 2020 02:53:40.000,342.443,-75.072,28435.325828
1 Jan 2020 02:54:10.000,343.679,-75.084,28262.051819
1 Jan 2020 02:54:40.000,344.929,-75.104,28089.670783
1 Jan 2020 02:55:10.000,346.197,-75.132,27918.390324
1 Jan 2020 02:55:40.000,347.483,-75.169,27748.421137
1 Jan 2020 02:56:10.000,348.790,-75.213,27579.976806
1 Jan 2020 02:56:40.000,350.120,-75.265,27413.273581
1 Jan 2020 02:57:10.000,351.475,-75.325,27248.530125
1 Jan 2020 02:57:40.000,352.857,-75.393,27085.967240
1 Jan 2020 02:58:10.000,354.267,-75.468,26925.807562
1 Jan 2020 02:58:40.000,355.709,-75.551,26768.275225
1 Jan 2020 02:59:10.000,357.184,-75.640,26613.595501
1 Jan 2020 02:59:40.000,358.695,-75.736,26461.994405
1 Jan 2020 03:00:10.000,0.244,-75.839,26313.698270
1 Jan 2020 03:00:40.000,1.833,-75.947,26168.933079
1 Jan 2020 03:01:10.000,3.465,-76.061,26027.924836
1 Jan 2020 03:01:40.000,5.142,-76.179,25890.897751
1 Jan 2020 03:02:10.000,6.867,-76.302,25758.074565
1 Jan 2020 03:02:40.000,8.641,-76.428,25629.675752
1 Jan 2020 03:03:10.000,10.468,-76.557,25505.918918
1 Jan 2020 03:03:40.000,12.348,-76.689,25387.018174
1 Jan 2020 03:04:10.000,14.285,-76.821,25273.183320
1 Jan 2020 03:04:40.000,16.280,-76.954,25164.619833
1 Jan 2020 03:05:10.000,18.333,-77.086,25061.527189
1 Jan 2020 03:05:40.000,20.447,-77.217,24964.098834
1 Jan 2020 03:06:10.000,22.621,-77.345,24872.521316
1 Jan 2020 03:06:40.000,24.857,-77.469,24786.973576
1 Jan 2020 03:07:10.000,27.153,-77.589,24707.626139
1 Jan 2020 03:07:40.000,29.508,-77.703,24634.640872
1 Jan 2020 03:08:10.000,31.921,-77.810,24568.169618
1 Jan 2020 03:08:40.000,34.390,-77.909,24508.354012
1 Jan 2020 03:09:10.000,36.909,-77.999,24455.324737
1 Jan 2020 03:09:40.000,39.477,-78.078,24409.200883
1 Jan 2020 03:10:10.000,42.086,-78.148,24370.089599
1 Jan 2020 03:10:40.000,44.733,-78.205,24338.085274
1 Jan 2020 03:11:10.000,47.409,-78.250,24313.269303
1 Jan 2020 03:11:40.000,50.109,-78.283,24295.709643
1 Jan 2020 03:12:10.000,52.823,-78.302,24285.460489
1 Jan 2020 03:12:40.000,55.545,-78.307,24282.561973
1 Jan 2020 03:13:10.000,58.265,-78.299,24287.040006
1 Jan 2020 03:13:40.000,60.976,-78.277,24298.906143
1 Jan 2020 03:14:10.000,63.669,-78.242,24318.157531
1 Jan 2020 03:14:40.000,66.337,-78.194,24344.777012
1 Jan 2020 03:15:10.000,68.972,-78.134,24378.732910
1 Jan 2020 03:15:40.000,71.567,-78.061,24419.979643
1 Jan 2020 03:16:10.000,74.116,-77.978,24468.457673
1 Jan 2020 03:16:40.000,76.614,-77.884,24524.093886
1 Jan 2020 03:17:10.000,79.057,-77.782,24586.802087
1 Jan 2020 03:17:40.000,81.441,-77.671,24656.482888
1 Jan 2020 03:18:10.000,83.763,-77.553,24733.024978
1 Jan 2020 03:18:40.000,86.021,-77.429,24816.305134
1 Jan 2020 03:19:10.000,88.213,-77.300,24906.188909
1 Jan 2020 03:19:40.000,90.340,-77.168,25002.531418
1 Jan 2020 03:20:10.000,92.401,-77.033,25105.177255
1 Jan 2020 03:20:40.000,94.396,-76.896,25213.962206
1 Jan 2020 03:21:10.000,96.326,-76.759,25328.713218
1 Jan 2020 03:21:40.000,98.193,-76.623,25449.249262
1 Jan 2020 03:22:10.000,99.998,-76.488,25575.382014
1 Jan 2020 03:22:40.000,101.743,-76.356,25706.916781
1 Jan 2020 03:23:10.000,103.430,-76.226,25843.652234
1 Jan 2020 03:23:40.000,105.061,-76.101,25985.382489
1 Jan 2020 03:24:10.000,106.638,-75.981,26131.896835
1 Jan 2020 03:24:40.000,108.164,-75.866,26282.980599
1 Jan 2020 03:25:10.000,109.640,-75.757,26438.415764
1 Jan 2020 03:25:40.000,111.070,-75.655,26597.981570
1 Jan 2020 03:26:10.000,112.455,-75.560,26761.455074
1 Jan 2020 03:26:40.000,113.798,-75.472,26928.611985
1 Jan 2020 03:27:10.000,115.101,-75.393,27099.226033
1 Jan 2020 03:27:40.000,116.366,-75.321,27273.071156
1 Jan 2020 03:28:10.000,117.595,-75.259,27449.920823
1 Jan 2020 03:28:40.000,118.790,-75.205,27629.548737
1 Jan 2020 03:29:10.000,119.954,-75.160,27811.729232
1 Jan 2020 03:29:40.000,121.088,-75.125,27996.237634
1 Jan 2020 03:30:10.000,122.194,-75.099,28182.850596
1 Jan 2020 03:30:40.000,123.274,-75.083,28371.346409
1 Jan 2020 03:31:10.000,124.329,-75.076,28561.505276
1 Jan 2020 03:31:16.818,124.566,-75.075,28604.928908
1 Jan 2020 04:31:15.083,311.383,-75.065,28599.754379
1 Jan 2020 04:31:45.000,311.797,-75.072,28373.132817
1 Jan 2020 04:32:15.000,312.209,-75.092,28145.899881
1 Jan 2020 04:32:45.000,312.621,-75.127,27918.909474
1 Jan 2020 04:33:15.000,313.033,-75.177,27692.392890
1 Jan 2020 04:33:45.000,313.446,-75.241,27466.586945
1 Jan 2020 04:34:15.000,313.861,-75.321,27241.733926
1 Jan 2020 04:34:45.000,314.278,-75.416,27018.081520
1 Jan 2020 04:35:15.000,314.700,-75.528,26795.882714
1 Jan 2020 04:35:45.000,315.127,-75.655,26575.395668
1 Jan 2020 04:36:15.000,315.560,-75.799,26356.883554
1 Jan 2020 04:36:45.000,316.001,-75.959,26140.614358
1 Jan 2020 04:37:15.000,316.451,-76.137,25926.860642
1 Jan 2020 04:37:45.000,316.913,-76.331,25715.899272
1 Jan 2020 04:38:15.000,317.388,-76.543,25508.011087
1 Jan 2020 04:38:45.000,317.877,-76.772,25303.480525
1 Jan 2020 04:39:15.000,318.384,-77.019,25102.594877
1 Jan 2020 04:39:45.000,318.911,-77.283,24905.645101
1 Jan 2020 04:40:15.000,319.462,-77.565,24712.923321
1 Jan 2020 04:40:45.000,320.039,-77.864,24524.723541
1 Jan 2020 04:41:15.000,320.647,-78.181,24341.340647
1 Jan 2020 04:41:45.000,321.290,-78.514,24163.069681
1 Jan 2020 04:42:15.000,321.975,-78.865,23990.204780
1 Jan 2020 04:42:45.000,322.707,-79.232,23823.039389
1 Jan 2020 04:43:15.000,323.495,-79.615,23661.863724
1 Jan 2020 04:43:45.000,324.348,-80.014,23506.964876
1 Jan 2020 04:44:15.000,325.277,-80.428,23358.625500
1 Jan 2020 04:44:45.000,326.296,-80.856,23217.122494
1 Jan 2020 04:45:15.000,327.423,-81.297,23082.726794
1 Jan 2020 04:45:45.000,328.679,-81.751,22955.700782
1 Jan 2020 04:46:15.000,330.090,-82.215,22836.298041
1 Jan 2020 04:46:45.000,331.691,-82.688,22724.761720
1 Jan 2020 04:47:15.000,333.526,-83.169,22621.323982
1 Jan 2020 04:47:45.000,335.652,-83.655,22526.203745
1 Jan 2020 04:48:15.000,338.145,-84.142,22439.606176
1 Jan 2020 04:48:45.000,341.106,-84.627,22361.721222
1 Jan 2020 04:49:15.000,344.668,-85.106,22292.722991
1 Jan 2020 04:49:45.000,349.009,-85.570,22232.767908
1 Jan 2020 04:50:15.000,354.360,-86.011,22181.994279
1 Jan 2020 04:50:45.000,1.003,-86.416,22140.521203
1 Jan 2020 04:51:15.000,9.232,-86.766,22108.448059
1 Jan 2020 04:51:45.000,19.235,-87.039,22085.853421
1 Jan 2020 04:52:15.000,30.872,-87.210,22072.794838
1 Jan 2020 04:52:45.000,43.461,-87.258,22069.308368
1 Jan 2020 04:53:15.000,55.893,-87.176,22075.408317
1 Jan 2020 04:53:45.000,67.131,-86.975,22091.087148
1 Jan 2020 04:54:15.000,76.645,-86.678,22116.315557
1 Jan 2020 04:54:45.000,84.408,-86.310,22151.042755
1 Jan 2020 04:55:15.000,90.652,-85.893,22195.196500
1 Jan 2020 04:55:45.000,95.676,-85.444,22248.684046
1 Jan 2020 04:56:15.000,99.750,-84.973,22311.392488
1 Jan 2020 04:56:45.000,103.090,-84.491,22383.189721
1 Jan 2020 04:57:15.000,105.861,-84.003,22463.924721
1 Jan 2020 04:57:45.000,108.188,-83.513,22553.429344
1 Jan 2020 04:58:15.000,110.163,-83.027,22651.518818
1 Jan 2020 04:58:45.000,111.858,-82.546,22757.993174
1 Jan 2020 04:59:15.000,113.324,-82.072,22872.637626
1 Jan 2020 04:59:45.000,114.604,-81.608,22995.224908
1 Jan 2020 05:00:15.000,115.728,-81.156,23125.515742
1 Jan 2020 05:00:45.000,116.724,-80.716,23263.260243
1 Jan 2020 05:01:15.000,117.610,-80.289,23408.199422
1 Jan 2020 05:01:45.000,118.402,-79.877,23560.065264
1 Jan 2020 05:02:15.000,119.115,-79.480,23718.583571
1 Jan 2020 05:02:45.000,119.757,-79.099,23883.474005
1 Jan 2020 05:03:15.000,120.339,-78.735,24054.451446
1 Jan 2020 05:03:45.000,120.868,-78.387,24231.227046
1 Jan 2020 05:04:15.000,121.349,-78.056,24413.509542
1 Jan 2020 05:04:45.000,121.788,-77.743,24601.004865
1 Jan 2020 05:05:15.000,122.190,-77.448,24793.418976
1 Jan 2020 05:05:45.000,122.557,-77.170,24990.457370
1 Jan 2020 05:06:15.000,122.894,-76.910,25191.826129
1 Jan 2020 05:06:45.000,123.203,-76.668,25397.232607
1 Jan 2020 05:07:15.000,123.487,-76.444,25606.386036
1 Jan 2020 05:07:45.000,123.747,-76.238,25818.998079
1 Jan 2020 05:08:15.000,123.985,-76.049,26034.783329
1 Jan 2020 05:08:45.000,124.204,-75.878,26253.460101
1 Jan 2020 05:09:15.000,124.404,-75.723,26474.749376
1 Jan 2020 05:09:45.000,124.586,-75.586,26698.377300
1 Jan 2020 05:10:15.000,124.753,-75.466,26924.074028
1 Jan 2020 05:10:45.000,124.903,-75.362,27151.574336
1 Jan 2020 05:11:15.000,125.040,-75.275,27380.617825
1 Jan 2020 05:11:45.000,125.162,-75.203,27610.949087
1 Jan 2020 05:12:15.000,125.271,-75.147,27842.317847
1 Jan 2020 05:12:45.000,125.368,-75.107,28074.479066
1 Jan 2020 05:13:15.000,125.453,-75.082,28307.193023
1 Jan 2020 05:13:45.000,125.525,-75.071,28540.225373
1 Jan 2020 05:13:52.427,125.542,-75.071,28597.942570
1 Jan 2020 06:13:51.279,302.814,-75.063,28594.106646
1 Jan 2020 06:14:21.000,302.168,-75.069,28378.493239
1 Jan 2020 06:14:51.000,301.494,-75.088,28161.797372
1 Jan 2020 06:15:21.000,300.798,-75.119,27946.278731
1 Jan 2020 06:15:51.000,300.077,-75.164,27732.173020
1 Jan 2020 06:16:21.000,299.330,-75.221,27519.719724
1 Jan 2020 06:16:51.000,298.555,-75.291,27309.161912
1 Jan 2020 06:17:21.000,297.750,-75.375,27100.746023
1 Jan 2020 06:17:51.000,296.912,-75.471,26894.721607
1 Jan 2020 06:18:21.000,296.039,-75.580,26691.341044
1 Jan 2020 06:18:51.000,295.128,-75.703,26490.859217
1 Jan 2020 06:19:21.000,294.177,-75.838,26293.533154
1 Jan 2020 06:19:51.000,293.182,-75.985,26099.621622
1 Jan 2020 06:20:21.000,292.140,-76.145,25909.384366
1 Jan 2020 06:20:51.000,291.047,-76.317,25723.082897
1 Jan 2020 06:21:21.000,289.899,-76.500,25540.978039
1 Jan 2020 06:21:51.000,288.692,-76.694,25363.330635
1 Jan 2020 06:22:21.000,287.422,-76.899,25190.400602
1 Jan 2020 06:22:51.000,286.082,-77.114,25022.446261
1 Jan 2020 06:23:21.000,284.668,-77.338,24859.723365
1 Jan 2020 06:23:51.000,283.174,-77.570,24702.485391
1 Jan 2020 06:24:21.000,281.593,-77.810,24550.981157
1 Jan 2020 06:24:51.000,279.919,-78.055,24405.455059
1 Jan 2020 06:25:21.000,278.145,-78.306,24266.145931
1 Jan 2020 06:25:51.000,276.263,-78.560,24133.285928
1 Jan 2020 06:26:21.000,274.266,-78.816,24007.100521
1 Jan 2020 06:26:51.000,272.145,-79.072,23887.806182
1 Jan 2020 06:27:21.000,269.893,-79.327,23775.610372
1 Jan 2020 06:27:51.000,267.503,-79.578,23670.710371
1 Jan 2020 06:28:21.000,264.968,-79.823,23573.292146
1 Jan 2020 06:28:51.000,262.282,-80.060,23483.530237
1 Jan 2020 06:29:21.000,259.441,-80.287,23401.585655
1 Jan 2020 06:29:51.000,256.442,-80.501,23327.605862
1 Jan 2020 06:30:21.000,253.287,-80.698,23261.723641
1 Jan 2020 06:30:51.000,249.979,-80.878,23204.056855
1 Jan 2020 06:31:21.000,246.526,-81.036,23154.707014
1 Jan 2020 06:31:51.000,242.942,-81.172,23113.759203
1 Jan 2020 06:32:21.000,239.242,-81.282,23081.281375
1 Jan 2020 06:32:51.000,235.448,-81.364,23057.324228
1 Jan 2020 06:33:21.000,231.586,-81.418,23041.920433
1 Jan 2020 06:33:51.000,227.684,-81.442,23035.084748
1 Jan 2020 06:34:21.000,223.772,-81.436,23036.813815
1 Jan 2020 06:34:51.000,219.882,-81.400,23047.086233
1 Jan 2020 06:35:21.000,216.041,-81.335,23065.862564
1 Jan 2020 06:35:51.000,212.279,-81.242,23093.085638
1 Jan 2020 06:36:21.000,208.616,-81.123,23128.680914
1 Jan 2020 06:36:51.000,205.074,-80.979,23172.556726
1 Jan 2020 06:37:21.000,201.665,-80.814,23224.605049
1 Jan 2020 06:37:51.000,198.399,-80.629,23284.701961
1 Jan 2020 06:38:21.000,195.284,-80.428,23352.708461
1 Jan 2020 06:38:51.000,192.319,-80.212,23428.470847
1 Jan 2020 06:39:21.000,189.505,-79.985,23511.822077
1 Jan 2020 06:39:51.000,186.838,-79.749,23602.582283
1 Jan 2020 06:40:21.000,184.312,-79.506,23700.559756
1 Jan 2020 06:40:51.000,181.922,-79.258,23805.552055
1 Jan 2020 06:41:21.000,179.660,-79.008,23917.346268
1 Jan 2020 06:41:51.000,177.518,-78.758,24035.720982
1 Jan 2020 06:42:21.000,175.488,-78.508,24160.446582
1 Jan 2020 06:42:51.000,173.563,-78.261,24291.286359
1 Jan 2020 06:43:21.000,171.736,-78.018,24427.997642
1 Jan 2020 06:43:51.000,169.997,-77.780,24570.331934
1 Jan 2020 06:44:21.000,168.342,-77.548,24718.036938
1 Jan 2020 06:44:51.000,166.762,-77.324,24870.856655
1 Jan 2020 06:45:21.000,165.253,-77.108,25028.532372
1 Jan 2020 06:45:51.000,163.807,-76.901,25190.803438
1 Jan 2020 06:46:21.000,162.421,-76.703,25357.407981
1 Jan 2020 06:46:51.000,161.088,-76.515,25528.083851
1 Jan 2020 06:47:21.000,159.804,-76.339,25702.568222
1 Jan 2020 06:47:51.000,158.566,-76.172,25880.599710
1 Jan 2020 06:48:21.000,157.368,-76.018,26061.917898
1 Jan 2020 06:48:51.000,156.207,-75.874,26246.264082
1 Jan 2020 06:49:21.000,155.081,-75.743,26433.381715
1 Jan 2020 06:49:51.000,153.985,-75.623,26623.016820
1 Jan 2020 06:50:21.000,152.917,-75.515,26814.918347
1 Jan 2020 06:50:51.000,151.874,-75.418,27008.838502
1 Jan 2020 06:51:21.000,150.853,-75.334,27204.533031
1 Jan 2020 06:51:51.000,149.853,-75.261,27401.761470
1 Jan 2020 06:52:21.000,148.870,-75.200,27600.287371
1 Jan 2020 06:52:51.000,147.903,-75.151,27799.878480
1 Jan 2020 06:53:21.000,146.950,-75.113,28000.306906
1 Jan 2020 06:53:51.000,146.008,-75.086,28201.349246
1 Jan 2020 06:54:21.000,145.077,-75.071,28402.786703
1 Jan 2020 06:54:49.351,144.204,-75.066,28593.318407
1 Jan 2020 07:54:23.512,314.489,-75.065,28592.738099
1 Jan 2020 07:54:53.000,313.151,-75.067,28440.312575
1 Jan 2020 07:55:23.000,311.769,-75.077,28287.351074
1 Jan 2020 07:55:53.000,310.363,-75.092,28136.710587
1 Jan 2020 07:56:23.000,308.933,-75.113,27988.587095
1 Jan 2020 07:56:53.000,307.478,-75.140,27843.176213
1 Jan 2020 07:57:23.000,305.995,-75.172,27700.672829
1 Jan 2020 07:57:53.000,304.484,-75.209,27561.270735
1 Jan 2020 07:58:23.000,302.944,-75.251,27425.162226
1 Jan 2020 07:58:53.000,301.374,-75.298,27292.537690
1 Jan 2020 07:59:23.000,299.772,-75.348,27163.585176
1 Jan 2020 07:59:53.000,298.138,-75.403,27038.489746
1 Jan 2020 08:00:23.000,296.470,-75.460,26917.433824
1 Jan 2020 08:00:53.000,294.768,-75.520,26800.595496
1 Jan 2020 08:01:23.000,293.032,-75.582,26688.148844
1 Jan 2020 08:01:53.000,291.261,-75.646,26580.263244
1 Jan 2020 08:02:23.000,289.454,-75.711,26477.102869
1 Jan 2020 08:02:53.000,287.612,-75.777,26378.826178
1 Jan 2020 08:03:23.000,285.734,-75.843,26285.585257
1 Jan 2020 08:03:53.000,283.821,-75.908,26197.525953
1 Jan 2020 08:04:23.000,281.874,-75.972,26114.786410
1 Jan 2020 08:04:53.000,279.892,-76.035,26037.497237
1 Jan 2020 08:05:23.000,277.878,-76.095,25965.780869
1 Jan 2020 08:05:53.000,275.831,-76.153,25899.751114
1 Jan 2020 08:06:23.000,273.755,-76.207,25839.512615
1 Jan 2020 08:06:53.000,271.651,-76.257,25785.160874
1 Jan 2020 08:07:23.000,269.521,-76.302,25736.781209
1 Jan 2020 08:07:53.000,267.367,-76.343,25694.448865
1 Jan 2020 08:08:23.000,265.192,-76.379,25658.228583
1 Jan 2020 08:08:53.000,262.999,-76.409,25628.174283
1 Jan 2020 08:09:23.000,260.791,-76.433,25604.329047
1 Jan 2020 08:09:53.000,258.571,-76.451,25586.724602
1 Jan 2020 08:10:23.000,256.343,-76.463,25575.381413
1 Jan 2020 08:10:53.000,254.111,-76.468,25570.308531
1 Jan 2020 08:11:23.000,251.877,-76.467,25571.503550
1 Jan 2020 08:11:53.000,249.645,-76.459,25578.952644
1 Jan 2020 08:12:23.000,247.419,-76.445,25592.630563
1 Jan 2020 08:12:53.000,245.202,-76.424,25612.500788
1 Jan 2020 08:13:23.000,242.997,-76.398,25638.515673
1 Jan 2020 08:13:53.000,240.808,-76.366,25670.616677
1 Jan 2020 08:14:23.000,238.637,-76.329,25708.734470
1 Jan 2020 08:14:53.000,236.487,-76.287,25752.789416
1 Jan 2020 08:15:23.000,234.361,-76.240,25802.691775
1 Jan 2020 08:15:53.000,232.261,-76.189,25858.342087
1 Jan 2020 08:16:23.000,230.187,-76.134,25919.631569
1 Jan 2020 08:16:53.000,228.143,-76.077,25986.442629
1 Jan 2020 08:17:23.000,226.130,-76.017,26058.648932
1 Jan 2020 08:17:53.000,224.147,-75.955,26136.116425
1 Jan 2020 08:18:23.000,222.197,-75.891,26218.703457
1 Jan 2020 08:18:53.000,220.280,-75.827,26306.261365
1 Jan 2020 08:19:23.000,218.395,-75.762,26398.634978
1 Jan 2020 08:19:53.000,216.544,-75.698,26495.663132
1 Jan 2020 08:20:23.000,214.725,-75.634,26597.179331
1 Jan 2020 08:20:53.000,212.939,-75.572,26703.011668
1 Jan 2020 08:21:23.000,211.185,-75.512,26812.984216
1 Jan 2020 08:21:53.000,209.463,-75.454,26926.916948
1 Jan 2020 08:22:23.000,207.771,-75.398,27044.626371
1 Jan 2020 08:22:53.000,206.109,-75.346,27165.926012
1 Jan 2020 08:23:23.000,204.476,-75.297,27290.626878
1 Jan 2020 08:23:53.000,202.870,-75.252,27418.537915
1 Jan 2020 08:24:23.000,201.291,-75.211,27549.466435
1 Jan 2020 08:24:53.000,199.738,-75.174,27683.218537
1 Jan 2020 08:25:23.000,198.209,-75.143,27819.599699
1 Jan 2020 08:25:53.000,196.703,-75.116,27958.414373
1 Jan 2020 08:26:23.000,195.219,-75.095,28099.467510
1 Jan 2020 08:26:53.000,193.755,-75.078,28242.564124
1 Jan 2020 08:27:23.000,192.311,-75.068,28387.509798
1 Jan 2020 08:27:53.000,190.884,-75.063,28534.110983
1 Jan 2020 08:28:04.958,190.320,-75.062,28592.966740
1 Jan 2020 09:26:08.943,2.726,-75.070,28596.101937
1 Jan 2020 09:26:38.000,1.409,-75.073,28444.507466
1 Jan 2020 09:27:08.000,0.033,-75.083,28289.164209
1 Jan 2020 09:27:38.000,358.640,-75.099,28135.207364
1 Jan 2020 09:28:08.000,357.228,-75.121,27982.836885
1 Jan 2020 09:28:38.000,355.795,-75.149,27832.254444
1 Jan 2020 09:29:08.000,354.340,-75.183,27683.663159
1 Jan 2020 09:29:38.000,352.862,-75.224,27537.267305
1 Jan 2020 09:30:08.000,351.358,-75.269,27393.271999
1 Jan 2020 09:30:38.000,349.828,-75.321,27251.882862
1 Jan 2020 09:31:08.000,348.270,-75.377,27113.305660
1 Jan 2020 09:31:38.000,346.682,-75.439,26977.745917
1 Jan 2020 09:32:08.000,345.062,-75.505,26845.408508
1 Jan 2020 09:32:38.000,343.410,-75.574,26716.497054
1 Jan 2020 09:33:08.000,341.724,-75.648,26591.214161
1 Jan 2020 09:33:38.000,340.003,-75.725,26469.759897
1 Jan 2020 09:34:08.000,338.245,-75.804,26352.332000
1 Jan 2020 09:34:38.000,336.449,-75.886,26239.125181
1 Jan 2020 09:35:08.000,334.615,-75.970,26130.330599
1 Jan 2020 09:35:38.000,332.742,-76.054,26026.135309
1 Jan 2020 09:36:08.000,330.829,-76.139,25926.721576
1 Jan 2020 09:36:38.000,328.876,-76.223,25832.266832
1 Jan 2020 09:37:08.000,326.883,-76.307,25742.942304
1 Jan 2020 09:37:38.000,324.849,-76.389,25658.912978
1 Jan 2020 09:38:08.000,322.777,-76.468,25580.336887
1 Jan 2020 09:38:38.000,320.666,-76.545,25507.364549
1 Jan 2020 09:39:08.000,318.517,-76.618,25440.138316
1 Jan 2020 09:39:38.000,316.333,-76.686,25378.792185
1 Jan 2020 09:40:08.000,314.115,-76.749,25323.450738
1 Jan 2020 09:40:38.000,311.866,-76.807,25274.229007
1 Jan 2020 09:41:08.000,309.589,-76.859,25231.231913
1 Jan 2020 09:41:38.000,307.286,-76.903,25194.553791
1 Jan 2020 09:42:08.000,304.961,-76.941,25164.278131
1 Jan 2020 09:42:38.000,302.619,-76.970,25140.476999
1 Jan 2020 09:43:08.000,300.263,-76.992,25123.210877
1 Jan 2020 09:43:38.000,297.897,-77.006,25112.528359
1 Jan 2020 09:44:08.000,295.527,-77.011,25108.465953
1 Jan 2020 09:44:38.000,293.157,-77.007,25111.047860
1 Jan 2020 09:45:08.000,290.791,-76.995,25120.285946
1 Jan 2020 09:45:38.000,288.434,-76.975,25136.179649
1 Jan 2020 09:46:08.000,286.091,-76.947,25158.715999
1 Jan 2020 09:46:38.000,283.766,-76.910,25187.869749
1 Jan 2020 09:47:08.000,281.463,-76.866,25223.603228
1 Jan 2020 09:47:38.000,279.186,-76.815,25265.866901
1 Jan 2020 09:48:08.000,276.938,-76.758,25314.599352
1 Jan 2020 09:48:38.000,274.723,-76.694,25369.727614
1 Jan 2020 09:49:08.000,272.543,-76.625,25431.167615
1 Jan 2020 09:49:38.000,270.401,-76.551,25498.824085
1 Jan 2020 09:50:08.000,268.298,-76.473,25572.591632
1 Jan 2020 09:50:38.000,266.237,-76.392,25652.354747
1 Jan 2020 09:51:08.000,264.218,-76.308,25737.988382
1 Jan 2020 09:51:38.000,262.243,-76.222,25829.358447
1 Jan 2020 09:52:08.000,260.311,-76.136,25926.322516
1 Jan 2020 09:52:38.000,258.423,-76.048,26028.729640
1 Jan 2020 09:53:08.000,256.580,-75.961,26136.421965
1 Jan 2020 09:53:38.000,254.780,-75.875,26249.234589
1 Jan 2020 09:54:08.000,253.023,-75.790,26366.996294
1 Jan 2020 09:54:38.000,251.308,-75.708,26489.530111
1 Jan 2020 09:55:08.000,249.635,-75.628,26616.653876
1 Jan 2020 09:55:38.000,248.002,-75.552,26748.181008
1 Jan 2020 09:56:08.000,246.408,-75.480,26883.920161
1 Jan 2020 09:56:38.000,244.852,-75.412,27023.677072
1 Jan 2020 09:57:08.000,243.333,-75.349,27167.254205
1 Jan 2020 09:57:38.000,241.849,-75.292,27314.451459
1 Jan 2020 09:58:08.000,240.399,-75.240,27465.066648
1 Jan 2020 09:58:38.000,238.981,-75.195,27618.895958
1 Jan 2020 09:59:08.000,237.594,-75.155,27775.734380
1 Jan 2020 09:59:38.000,236.237,-75.123,27935.376125
1 Jan 2020 10:00:08.000,234.907,-75.097,28097.615015
1 Jan 2020 10:00:38.000,233.603,-75.079,28262.244848
1 Jan 2020 10:01:08.000,232.324,-75.068,28429.060005
1 Jan 2020 10:01:37.861,231.074,-75.064,28597.066612
1 Jan 2020 11:01:28.695,42.131,-75.075,28602.126226
1 Jan 2020 11:01:58.000,41.423,-75.080,28392.735129
1 Jan 2020 11:02:28.000,40.693,-75.099,28178.434768
1 Jan 2020 11:02:58.000,39.957,-75.129,27964.406200
1 Jan 2020 11:03:28.000,39.214,-75.173,27750.874197
1 Jan 2020 11:03:58.000,38.461,-75.230,27538.068667
1 Jan 2020 11:04:28.000,37.697,-75.300,27326.224581
1 Jan 2020 11:04:58.000,36.921,-75.384,27115.581873
1 Jan 2020 11:05:28.000,36.129,-75.482,26906.385314
1 Jan 2020 11:05:58.000,35.321,-75.594,26698.884359
1 Jan 2020 11:06:28.000,34.493,-75.719,26493.332960
1 Jan 2020 11:06:58.000,33.643,-75.859,26289.989346
1 Jan 2020 11:07:28.000,32.769,-76.013,26089.115764
1 Jan 2020 11:07:58.000,31.867,-76.182,25890.978186
1 Jan 2020 11:08:28.000,30.934,-76.365,25695.845963
1 Jan 2020 11:08:58.000,29.967,-76.562,25503.991443
1 Jan 2020 11:09:28.000,28.961,-76.773,25315.689248
1 Jan 2020 11:09:58.000,27.912,-76.998,25131.216943
1 Jan 2020 11:10:28.000,26.815,-77.236,24950.852759
1 Jan 2020 11:10:58.000,25.665,-77.488,24774.876170
1 Jan 2020 11:11:28.000,24.454,-77.753,24603.566952
1 Jan 2020 11:11:58.000,23.177,-78.030,24437.204482
1 Jan 2020 11:12:28.000,21.825,-78.318,24276.066979
1 Jan 2020 11:12:58.000,20.390,-78.617,24120.430431
1 Jan 2020 11:13:28.000,18.861,-78.926,23970.568795
1 Jan 2020 11:13:58.000,17.228,-79.244,23826.751468
1 Jan 2020 11:14:28.000,15.478,-79.570,23689.243414
1 Jan 2020 11:14:58.000,13.597,-79.901,23558.303886
1 Jan 2020 11:15:28.000,11.569,-80.236,23434.185201
1 Jan 2020 11:15:58.000,9.378,-80.574,23317.132442
1 Jan 2020 11:16:28.000,7.003,-80.912,23207.381204
1 Jan 2020 11:16:58.000,4.424,-81.248,23105.157288
1 Jan 2020 11:17:28.000,1.621,-81.578,23010.675277
1 Jan 2020 11:17:58.000,358.570,-81.899,22924.137973
1 Jan 2020 11:18:28.000,355.250,-82.207,22845.734536
1 Jan 2020 11:18:58.000,351.641,-82.499,22775.639998
1 Jan 2020 11:19:28.000,347.730,-82.769,22714.014067
1 Jan 2020 11:19:58.000,343.510,-83.013,22661.000548
1 Jan 2020 11:20:28.000,338.984,-83.227,22616.725966
1 Jan 2020 11:20:58.000,334.173,-83.404,22581.299172
1 Jan 2020 11:21:28.000,329.113,-83.540,22554.810565
1 Jan 2020 11:21:58.000,323.860,-83.632,22537.331633
1 Jan 2020 11:22:28.000,318.487,-83.677,22528.914332
1 Jan 2020 11:22:58.000,313.077,-83.673,22529.590898
1 Jan 2020 11:23:28.000,307.719,-83.621,22539.373654
1 Jan 2020 11:23:58.000,302.494,-83.521,22558.254786
1 Jan 2020 11:24:28.000,297.474,-83.378,22586.206615
1 Jan 2020 11:24:58.000,292.713,-83.193,22623.181667
1 Jan 2020 11:25:28.000,288.247,-82.974,22669.113122
1 Jan 2020 11:25:58.000,284.093,-82.723,22723.914834
1 Jan 2020 11:26:28.000,280.254,-82.446,22787.482486
1 Jan 2020 11:26:58.000,276.723,-82.149,22859.693859
1 Jan 2020 11:27:28.000,273.485,-81.834,22940.409842
1 Jan 2020 11:27:58.000,270.521,-81.508,23029.474624
1 Jan 2020 11:28:28.000,267.808,-81.172,23126.717540
1 Jan 2020 11:28:58.000,265.325,-80.832,23231.953431
1 Jan 2020 11:29:28.000,263.049,-80.489,23344.984000
1 Jan 2020 11:29:58.000,260.962,-80.146,23465.598083
1 Jan 2020 11:30:28.000,259.043,-79.806,23593.573876
1 Jan 2020 11:30:58.000,257.276,-79.471,23728.679254
1 Jan 2020 11:31:28.000,255.646,-79.141,23870.673047
1 Jan 2020 11:31:58.000,254.138,-78.820,24019.306374
1 Jan 2020 11:32:28.000,252.740,-78.508,24174.322617
1 Jan 2020 11:32:58.000,251.442,-78.206,24335.460053
1 Jan 2020 11:33:28.000,250.234,-77.915,24502.451775
1 Jan 2020 11:33:58.000,249.107,-77.636,24675.026909
1 Jan 2020 11:34:28.000,248.053,-77.370,24852.911508
1 Jan 2020 11:34:58.000,247.066,-77.118,25035.829719
1 Jan 2020 11:35:28.000,246.140,-76.879,25223.503352
1 Jan 2020 11:35:58.000,245.269,-76.654,25415.654459
1 Jan 2020 11:36:28.000,244.449,-76.444,25612.004813
1 Jan 2020 11:36:58.000,243.676,-76.249,25812.276846
1 Jan 2020 11:37:28.000,242.945,-76.069,26016.194235
1 Jan 2020 11:37:58.000,242.253,-75.904,26223.482430
1 Jan 2020 11:38:28.000,241.597,-75.754,26433.869134
1 Jan 2020 11:38:58.000,240.975,-75.619,26647.084732
1 Jan 2020 11:39:28.000,240.383,-75.499,26862.862678
1 Jan 2020 11:39:58.000,239.820,-75.394,27080.940166
1 Jan 2020 11:40:28.000,239.284,-75.304,27301.057069
1 Jan 2020 11:40:58.000,238.772,-75.229,27522.958235
1 Jan 2020 11:41:28.000,238.283,-75.169,27746.392350
1 Jan 2020 11:41:58.000,237.816,-75.123,27971.112460
1 Jan 2020 11:42:28.000,237.368,-75.091,28196.876129
1 Jan 2020 11:42:58.000,236.940,-75.073,28423.445566
1 Jan 2020 11:43:21.849,236.612,-75.068,28603.979374
1 Jan 2020 12:43:22.060,56.180,-75.077,28608.485854
1 Jan 2020 12:43:52.000,56.502,-75.084,28379.434780
1 Jan 2020 12:44:22.000,56.841,-75.105,28150.430820
1 Jan 2020 12:44:52.000,57.197,-75.141,27922.171427
1 Jan 2020 12:45:22.000,57.571,-75.191,27694.895950
1 Jan 2020 12:45:52.000,57.966,-75.256,27468.848609
1 Jan 2020 12:46:22.000,58.381,-75.336,27244.278375
1 Jan 2020 12:46:52.000,58.818,-75.432,27021.438830
1 Jan 2020 12:47:22.000,59.280,-75.543,26800.587991
1 Jan 2020 12:47:52.000,59.768,-75.670,26581.988105
1 Jan 2020 12:48:22.000,60.284,-75.812,26365.905401
1 Jan 2020 12:48:52.000,60.830,-75.971,26152.609810
1 Jan 2020 12:49:22.000,61.409,-76.145,25942.374633
1 Jan 2020 12:49:52.000,62.023,-76.335,25735.476172
1 Jan 2020 12:50:22.000,62.677,-76.541,25532.192975
1 Jan 2020 12:50:52.000,63.373,-76.763,25332.806693
1 Jan 2020 12:51:22.000,64.115,-77.001,25137.599555
1 Jan 2020 12:51:52.000,64.909,-77.254,24946.855123
1 Jan 2020 12:52:22.000,65.758,-77.522,24760.857321
1 Jan 2020 12:52:52.000,66.670,-77.804,24579.889741
1 Jan 2020 12:53:22.000,67.651,-78.101,24404.234607
1 Jan 2020 12:53:52.000,68.709,-78.411,24234.173097
1 Jan 2020 12:54:22.000,69.852,-78.735,24069.982769
1 Jan 2020 12:54:52.000,71.090,-79.070,23911.937789
1 Jan 2020 12:55:22.000,72.436,-79.417,23760.307674
1 Jan 2020 12:55:52.000,73.902,-79.773,23615.356031
1 Jan 2020 12:56:22.000,75.505,-80.138,23477.340508
1 Jan 2020 12:56:52.000,77.262,-80.509,23346.510179
1 Jan 2020 12:57:22.000,79.194,-80.886,23223.105468
1 Jan 2020 12:57:52.000,81.324,-81.265,23107.356576
1 Jan 2020 12:58:22.000,83.680,-81.644,22999.483107
1 Jan 2020 12:58:52.000,86.291,-82.021,22899.691793
1 Jan 2020 12:59:22.000,89.192,-82.391,22808.176173
1 Jan 2020 12:59:52.000,92.418,-82.751,22725.115172
1 Jan 2020 13:00:22.000,96.006,-83.096,22650.672691
1 Jan 2020 13:00:52.000,99.991,-83.421,22584.995699
1 Jan 2020 13:01:22.000,104.403,-83.719,22528.213981
1 Jan 2020 13:01:52.000,109.258,-83.985,22480.439071
1 Jan 2020 13:02:22.000,114.552,-84.212,22441.763936
1 Jan 2020 13:02:52.000,120.252,-84.392,22412.261755
1 Jan 2020 13:03:22.000,126.290,-84.520,22391.985861
1 Jan 2020 13:03:52.000,132.561,-84.591,22380.969247
1 Jan 2020 13:04:22.000,138.933,-84.602,22379.224457
1 Jan 2020 13:04:52.000,145.259,-84.553,22386.743286
1 Jan 2020 13:05:22.000,151.400,-84.446,22403.496975
1 Jan 2020 13:05:52.000,157.241,-84.286,22429.436399
1 Jan 2020 13:06:22.000,162.701,-84.076,22464.492223
1 Jan 2020 13:06:52.000,167.735,-83.826,22508.575548
1 Jan 2020 13:07:22.000,172.331,-83.541,22561.578357
1 Jan 2020 13:07:52.000,176.500,-83.227,22623.374324
1 Jan 2020 13:08:22.000,180.267,-82.892,22693.819189
1 Jan 2020 13:08:52.000,183.665,-82.540,22772.752209
1 Jan 2020 13:09:22.000,186.733,-82.177,22859.996737
1 Jan 2020 13:09:52.000,189.505,-81.806,22955.361476
1 Jan 2020 13:10:22.000,192.018,-81.431,23058.640948
1 Jan 2020 13:10:52.000,194.301,-81.056,23169.617473
1 Jan 2020 13:11:22.000,196.384,-80.682,23288.061730
1 Jan 2020 13:11:52.000,198.292,-80.313,23413.734035
1 Jan 2020 13:12:22.000,200.045,-79.950,23546.385719
1 Jan 2020 13:12:52.000,201.663,-79.595,23685.759327
1 Jan 2020 13:13:22.000,203.162,-79.248,23831.591108
1 Jan 2020 13:13:52.000,204.557,-78.913,23983.611184
1 Jan 2020 13:14:22.000,205.860,-78.589,24141.544822
1 Jan 2020 13:14:52.000,207.081,-78.277,24305.113433
1 Jan 2020 13:15:22.000,208.230,-77.978,24474.035803
1 Jan 2020 13:15:52.000,209.315,-77.693,24648.027862
1 Jan 2020 13:16:22.000,210.343,-77.422,24826.805215
1 Jan 2020 13:16:52.000,211.321,-77.165,25010.082804
1 Jan 2020 13:17:22.000,212.255,-76.923,25197.575918
1 Jan 2020 13:17:52.000,213.148,-76.696,25389.000855
1 Jan 2020 13:18:22.000,214.006,-76.484,25584.075537
1 Jan 2020 13:18:52.000,214.832,-76.288,25782.520057
1 Jan 2020 13:19:22.000,215.631,-76.106,25984.057181
1 Jan 2020 13:19:52.000,216.404,-75.940,26188.413110
1 Jan 2020 13:20:22.000,217.156,-75.789,26395.316601
1 Jan 2020 13:20:52.000,217.888,-75.653,26604.501220
1 Jan 2020 13:21:22.000,218.603,-75.532,26815.704374
1 Jan 2020 13:21:52.000,219.304,-75.425,27028.667892
1 Jan 2020 13:22:22.000,219.991,-75.334,27243.138244
1 Jan 2020 13:22:52.000,220.667,-75.256,27458.866724
1 Jan 2020 13:23:22.000,221.335,-75.193,27675.609608
1 Jan 2020 13:23:52.000,221.994,-75.143,27893.128274
1 Jan 2020 13:24:22.000,222.647,-75.107,28111.189296
1 Jan 2020 13:24:52.000,223.296,-75.084,28329.564522
1 Jan 2020 13:25:22.000,223.941,-75.074,28548.031120
1 Jan 2020 13:25:30.472,224.123,-75.073,28609.711533
1 Jan 2020 14:25:25.471,52.582,-75.077,28611.442071
1 Jan 2020 14:25:55.000,53.770,-75.081,28439.582421
1 Jan 2020 14:26:25.000,55.000,-75.093,28266.860757
1 Jan 2020 14:26:55.000,56.256,-75.113,28096.240913
1 Jan 2020 14:27:25.000,57.539,-75.140,27927.933156
1 Jan 2020 14:27:55.000,58.849,-75.176,27762.148426
1 Jan 2020 14:28:25.000,60.190,-75.218,27599.097994
1 Jan 2020 14:28:55.000,61.563,-75.267,27438.993103
1 Jan 2020 14:29:25.000,62.969,-75.323,27282.044586
1 Jan 2020 14:29:55.000,64.410,-75.386,27128.462448
1 Jan 2020 14:30:25.000,65.888,-75.454,26978.455442
1 Jan 2020 14:30:55.000,67.403,-75.528,26832.230367
1 Jan 2020 14:31:25.000,68.959,-75.607,26689.992539
1 Jan 2020 14:31:55.000,70.556,-75.691,26551.943856
1 Jan 2020 14:32:25.000,72.196,-75.779,26418.283237
1 Jan 2020 14:32:55.000,73.879,-75.870,26289.205837
1 Jan 2020 14:33:25.000,75.609,-75.964,26164.902489
1 Jan 2020 14:33:55.000,77.384,-76.060,26045.559135
1 Jan 2020 14:34:25.000,79.207,-76.158,25931.356041
1 Jan 2020 14:34:55.000,81.078,-76.256,25822.468032
1 Jan 2020 14:35:25.000,82.997,-76.355,25719.062651
1 Jan 2020 14:35:55.000,84.965,-76.452,25621.300409
1 Jan 2020 14:36:25.000,86.982,-76.548,25529.333987
1 Jan 2020 14:36:55.000,89.046,-76.642,25443.307660
1 Jan 2020 14:37:25.000,91.157,-76.732,25363.356579
1 Jan 2020 14:37:55.000,93.314,-76.818,25289.606857
1 Jan 2020 14:38:25.000,95.515,-76.900,25222.174095
1 Jan 2020 14:38:55.000,97.757,-76.976,25161.163537
1 Jan 2020 14:39:25.000,100.039,-77.045,25106.669452
1 Jan 2020 14:39:55.000,102.356,-77.107,25058.774629
1 Jan 2020 14:40:25.000,104.705,-77.162,25017.550375
1 Jan 2020 14:40:55.000,107.083,-77.209,24983.055611
1 Jan 2020 14:41:25.000,109.484,-77.247,24955.336995
1 Jan 2020 14:41:55.000,111.904,-77.276,24934.428598
1 Jan 2020 14:42:25.000,114.337,-77.296,24920.351700
1 Jan 2020 14:42:55.000,116.780,-77.306,24913.114854
1 Jan 2020 14:43:25.000,119.226,-77.306,24912.713569
1 Jan 2020 14:43:55.000,121.669,-77.297,24919.130519
1 Jan 2020 14:44:25.000,124.106,-77.279,24932.335563
1 Jan 2020 14:44:55.000,126.530,-77.251,24952.285903
1 Jan 2020 14:45:25.000,128.937,-77.215,24978.926217
1 Jan 2020 14:45:55.000,131.322,-77.170,25012.188978
1 Jan 2020 14:46:25.000,133.680,-77.116,25051.994723
1 Jan 2020 14:46:55.000,136.009,-77.056,25098.252415
1 Jan 2020 14:47:25.000,138.304,-76.989,25150.859903
1 Jan 2020 14:47:55.000,140.563,-76.915,25209.704116
1 Jan 2020 14:48:25.000,142.784,-76.836,25274.661906
1 Jan 2020 14:48:55.000,144.963,-76.753,25345.600326
1 Jan 2020 14:49:25.000,147.101,-76.665,25422.377231
1 Jan 2020 14:49:55.000,149.195,-76.575,25504.841835
1 Jan 2020 14:50:25.000,151.245,-76.482,25592.835430
1 Jan 2020 14:50:55.000,153.250,-76.387,25686.191463
1 Jan 2020 14:51:25.000,155.212,-76.292,25784.736897
1 Jan 2020 14:51:55.000,157.129,-76.197,25888.292319
1 Jan 2020 14:52:25.000,159.003,-76.102,25996.672675
1 Jan 2020 14:52:55.000,160.834,-76.008,26109.687860
1 Jan 2020 14:53:25.000,162.624,-75.916,26227.143321
1 Jan 2020 14:53:55.000,164.374,-75.827,26348.840804
1 Jan 2020 14:54:25.000,166.085,-75.741,26474.578232
1 Jan 2020 14:54:55.000,167.758,-75.659,26604.151280
1 Jan 2020 14:55:25.000,169.395,-75.580,26737.353225
1 Jan 2020 14:55:55.000,170.998,-75.507,26873.975622
1 Jan 2020 14:56:25.000,172.568,-75.438,27013.808787
1 Jan 2020 14:56:55.000,174.108,-75.374,27156.642260
1 Jan 2020 14:57:25.000,175.617,-75.316,27302.265237
1 Jan 2020 14:57:55.000,177.099,-75.264,27450.466983
1 Jan 2020 14:58:25.000,178.555,-75.218,27601.037215
1 Jan 2020 14:58:55.000,179.987,-75.178,27753.766464
1 Jan 2020 14:59:25.000,181.396,-75.144,27908.446406
1 Jan 2020 14:59:55.000,182.785,-75.118,28064.870393
1 Jan 2020 15:00:25.000,184.153,-75.098,28222.832858
1 Jan 2020 15:00:55.000,185.505,-75.084,28382.130894
1 Jan 2020 15:01:25.000,186.840,-75.078,28542.563616
1 Jan 2020 15:01:37.824,187.406,-75.077,28611.440033
1 Jan 2020 15:59:49.938,15.237,-75.072,28609.384141
1 Jan 2020 16:00:19.000,16.626,-75.075,28469.044840
1 Jan 2020 16:00:49.000,18.078,-75.083,28325.855614
1 Jan 2020 16:01:19.000,19.548,-75.097,28184.563119
1 Jan 2020 16:01:49.000,21.039,-75.115,28045.359595
1 Jan 2020 16:02:19.000,22.551,-75.139,27908.437648
1 Jan 2020 16:02:49.000,24.086,-75.168,27773.989927
1 Jan 2020 16:03:19.000,25.644,-75.201,27642.208786
1 Jan 2020 16:03:49.000,27.228,-75.238,27513.285925
1 Jan 2020 16:04:19.000,28.838,-75.279,27387.412012
1 Jan 2020 16:04:49.000,30.475,-75.325,27264.776284
1 Jan 2020 16:05:19.000,32.140,-75.373,27145.566135
1 Jan 2020 16:05:49.000,33.834,-75.424,27029.966522
1 Jan 2020 16:06:19.000,35.557,-75.478,26918.160169
1 Jan 2020 16:06:49.000,37.311,-75.534,26810.326119
1 Jan 2020 16:07:19.000,39.096,-75.592,26706.639926
1 Jan 2020 16:07:49.000,40.913,-75.651,26607.273000
1 Jan 2020 16:08:19.000,42.760,-75.711,26512.392122
1 Jan 2020 16:08:49.000,44.640,-75.770,26422.158940
1 Jan 2020 16:09:19.000,46.550,-75.830,26336.729359
1 Jan 2020 16:09:49.000,48.492,-75.889,26256.253508
1 Jan 2020 16:10:19.000,50.464,-75.946,26180.874534
1 Jan 2020 16:10:49.000,52.466,-76.001,26110.728594
1 Jan 2020 16:11:19.000,54.496,-76.054,26045.944260
1 Jan 2020 16:11:49.000,56.553,-76.104,25986.642051
1 Jan 2020 16:12:19.000,58.636,-76.151,25932.933927
1 Jan 2020 16:12:49.000,60.743,-76.194,25884.923142
1 Jan 2020 16:13:19.000,62.871,-76.232,25842.703416
1 Jan 2020 16:13:49.000,65.019,-76.266,25806.358868
1 Jan 2020 16:14:19.000,67.183,-76.294,25775.963599
1 Jan 2020 16:14:49.000,69.362,-76.318,25751.581397
1 Jan 2020 16:15:19.000,71.551,-76.335,25733.265460
1 Jan 2020 16:15:49.000,73.748,-76.347,25721.058246
1 Jan 2020 16:16:19.000,75.950,-76.353,25714.991179
1 Jan 2020 16:16:49.000,78.154,-76.353,25715.084604
1 Jan 2020 16:17:19.000,80.355,-76.347,25721.347683
1 Jan 2020 16:17:49.000,82.552,-76.335,25733.778385
1 Jan 2020 16:18:19.000,84.740,-76.318,25752.363377
1 Jan 2020 16:18:49.000,86.916,-76.294,25777.078252
1 Jan 2020 16:19:19.000,89.078,-76.265,25807.887526
1 Jan 2020 16:19:49.000,91.223,-76.231,25844.744815
1 Jan 2020 16:20:19.000,93.348,-76.193,25887.593101
1 Jan 2020 16:20:49.000,95.450,-76.149,25936.364681
1 Jan 2020 16:21:19.000,97.527,-76.102,25990.981865
1 Jan 2020 16:21:49.000,99.578,-76.052,26051.357012
1 Jan 2020 16:22:19.000,101.600,-75.998,26117.392948
1 Jan 2020 16:22:49.000,103.593,-75.942,26188.983340
1 Jan 2020 16:23:19.000,105.554,-75.884,26266.013233
1 Jan 2020 16:23:49.000,107.484,-75.824,26348.358957
1 Jan 2020 16:24:19.000,109.380,-75.764,26435.889346
1 Jan 2020 16:24:49.000,111.244,-75.703,26528.465694
1 Jan 2020 16:25:19.000,113.074,-75.643,26625.942359
1 Jan 2020 16:25:49.000,114.871,-75.583,26728.167247
1 Jan 2020 16:26:19.000,116.634,-75.525,26834.982299
1 Jan 2020 16:26:49.000,118.364,-75.468,26946.224172
1 Jan 2020 16:27:19.000,120.061,-75.414,27061.724005
1 Jan 2020 16:27:49.000,121.726,-75.362,27181.308981
1 Jan 2020 16:28:19.000,123.361,-75.314,27304.802098
1 Jan 2020 16:28:49.000,124.964,-75.269,27432.022820
1 Jan 2020 16:29:19.000,126.538,-75.228,27562.787536
1 Jan 2020 16:29:49.000,128.083,-75.191,27696.910008
1 Jan 2020 16:30:19.000,129.601,-75.159,27834.201806
1 Jan 2020 16:30:49.000,131.092,-75.132,27974.472725
1 Jan 2020 16:31:19.000,132.558,-75.110,28117.531185
1 Jan 2020 16:31:49.000,134.000,-75.094,28263.184836
1 Jan 2020 16:32:19.000,135.418,-75.083,28411.240041
1 Jan 2020 16:32:49.000,136.816,-75.078,28561.503535
1 Jan 2020 16:32:58.354,137.247,-75.078,28608.774531
1 Jan 2020 17:32:25.111,327.020,-75.067,28604.021199
1 Jan 2020 17:32:55.000,328.007,-75.072,28408.454084
1 Jan 2020 17:33:25.000,329.008,-75.087,28212.424889
1 Jan 2020 17:33:55.000,330.019,-75.113,28016.874043
1 Jan 2020 17:34:25.000,331.045,-75.150,27822.018164
1 Jan 2020 17:34:55.000,332.085,-75.197,27628.078221
1 Jan 2020 17:35:25.000,333.142,-75.255,27435.279416
1 Jan 2020 17:35:55.000,334.219,-75.324,27243.851022
1 Jan 2020 17:36:25.000,335.318,-75.404,27054.026217
1 Jan 2020 17:36:55.000,336.440,-75.495,26866.041872
1 Jan 2020 17:37:25.000,337.589,-75.597,26680.138321
1 Jan 2020 17:37:55.000,338.768,-75.710,26496.559089
1 Jan 2020 17:38:25.000,339.978,-75.834,26315.550594
1 Jan 2020 17:38:55.000,341.224,-75.968,26137.361807
1 Jan 2020 17:39:25.000,342.509,-76.112,25962.243874
1 Jan 2020 17:39:55.000,343.836,-76.267,25790.449702
1 Jan 2020 17:40:25.000,345.208,-76.431,25622.233241
1 Jan 2020 17:40:55.000,346.631,-76.605,25457.850023
1 Jan 2020 17:41:25.000,348.107,-76.787,25297.555054
1 Jan 2020 17:41:55.000,349.643,-76.978,25141.603272
1 Jan 2020 17:42:25.000,351.241,-77.176,24990.248659
1 Jan 2020 17:42:55.000,352.909,-77.380,24843.743566
1 Jan 2020 17:43:25.000,354.650,-77.591,24702.338000
1 Jan 2020 17:43:55.000,356.471,-77.806,24566.278657
1 Jan 2020 17:44:25.000,358.376,-78.025,24435.808995
1 Jan 2020 17:44:55.000,0.373,-78.246,24311.167106
1 Jan 2020 17:45:25.000,2.466,-78.469,24192.585745
1 Jan 2020 17:45:55.000,4.662,-78.691,24080.291234
1 Jan 2020 17:46:25.000,6.965,-78.911,23974.502423
1 Jan 2020 17:46:55.000,9.381,-79.127,23875.430381
1 Jan 2020 17:47:25.000,11.914,-79.338,23783.276585
1 Jan 2020 17:47:55.000,14.567,-79.540,23698.232631
1 Jan 2020 17:48:25.000,17.341,-79.734,23620.479192
1 Jan 2020 17:48:55.000,20.238,-79.915,23550.185047
1 Jan 2020 17:49:25.000,23.253,-80.082,23487.506660
1 Jan 2020 17:49:55.000,26.384,-80.234,23432.586749
1 Jan 2020 17:50:25.000,29.622,-80.367,23385.553977
1 Jan 2020 17:50:55.000,32.957,-80.480,23346.522123
1 Jan 2020 17:51:25.000,36.376,-80.572,23315.589615
1 Jan 2020 17:51:55.000,39.861,-80.640,23292.838743
1 Jan 2020 17:52:25.000,43.395,-80.685,23278.335378
1 Jan 2020 17:52:55.000,46.956,-80.704,23272.128578
1 Jan 2020 17:53:25.000,50.522,-80.697,23274.250249
1 Jan 2020 17:53:55.000,54.071,-80.666,23284.715047
1 Jan 2020 17:54:25.000,57.581,-80.609,23303.520265
1 Jan 2020 17:54:55.000,61.032,-80.528,23330.645941
1 Jan 2020 17:55:25.000,64.404,-80.425,23366.054706
1 Jan 2020 17:55:55.000,67.684,-80.300,23409.692412
1 Jan 2020 17:56:25.000,70.858,-80.155,23461.488200
1 Jan 2020 17:56:55.000,73.916,-79.993,23521.355100
1 Jan 2020 17:57:25.000,76.852,-79.816,23589.190044
1 Jan 2020 17:57:55.000,79.661,-79.625,23664.875153
1 Jan 2020 17:58:25.000,82.343,-79.423,23748.277919
1 Jan 2020 17:58:55.000,84.898,-79.211,23839.252196
1 Jan 2020 17:59:25.000,87.327,-78.993,23937.638316
1 Jan 2020 17:59:55.000,89.634,-78.770,24043.264838
1 Jan 2020 18:00:25.000,91.824,-78.543,24155.948772
1 Jan 2020 18:00:55.000,93.902,-78.315,24275.496592
1 Jan 2020 18:01:25.000,95.873,-78.088,24401.705354
1 Jan 2020 18:01:55.000,97.742,-77.862,24534.362643
1 Jan 2020 18:02:25.000,99.516,-77.640,24673.248855
1 Jan 2020 18:02:55.000,101.200,-77.421,24818.137154
1 Jan 2020 18:03:25.000,102.800,-77.209,24968.794565
1 Jan 2020 18:03:55.000,104.320,-77.003,25124.982812
1 Jan 2020 18:04:25.000,105.767,-76.805,25286.459425
1 Jan 2020 18:04:55.000,107.145,-76.615,25452.977379
1 Jan 2020 18:05:25.000,108.459,-76.434,25624.287550
1 Jan 2020 18:05:55.000,109.712,-76.263,25800.138301
1 Jan 2020 18:06:25.000,110.910,-76.102,25980.276433
1 Jan 2020 18:06:55.000,112.056,-75.952,26164.447820
1 Jan 2020 18:07:25.000,113.153,-75.813,26352.398001
1 Jan 2020 18:07:55.000,114.205,-75.685,26543.872728
1 Jan 2020 18:08:25.000,115.215,-75.569,26738.618473
1 Jan 2020 18:08:55.000,116.185,-75.465,26936.383227
1 Jan 2020 18:09:25.000,117.119,-75.374,27136.915595
1 Jan 2020 18:09:55.000,118.019,-75.294,27339.967172
1 Jan 2020 18:10:25.000,118.887,-75.227,27545.291571
1 Jan 2020 18:10:55.000,119.726,-75.172,27752.645058
1 Jan 2020 18:11:25.000,120.537,-75.129,27961.786840
1 Jan 2020 18:11:55.000,121.322,-75.098,28172.479304
1 Jan 2020 18:12:25.000,122.084,-75.080,28384.488235
1 Jan 2020 18:12:55.000,122.823,-75.074,28597.583004
1 Jan 2020 18:12:55.673,122.839,-75.074,28602.372092
1 Jan 2020 19:12:54.897,306.421,-75.064,28597.406397
1 Jan 2020 19:13:24.000,306.448,-75.071,28371.169988
1 Jan 2020 19:13:54.000,306.466,-75.092,28138.142923
1 Jan 2020 19:14:24.000,306.474,-75.128,27905.526708
1 Jan 2020 19:14:54.000,306.472,-75.180,27673.558303
1 Jan 2020 19:15:24.000,306.459,-75.247,27442.480113
1 Jan 2020 19:15:54.000,306.436,-75.331,27212.539930
1 Jan 2020 19:16:24.000,306.403,-75.430,26983.990844
1 Jan 2020 19:16:54.000,306.357,-75.546,26757.091129
1 Jan 2020 19:17:24.000,306.300,-75.680,26532.104098
1 Jan 2020 19:17:54.000,306.231,-75.830,26309.297919
1 Jan 2020 19:18:24.000,306.148,-75.998,26088.945403
1 Jan 2020 19:18:54.000,306.052,-76.183,25871.323734
1 Jan 2020 19:19:24.000,305.940,-76.386,25656.714172
1 Jan 2020 19:19:54.000,305.813,-76.607,25445.401696
1 Jan 2020 19:20:24.000,305.669,-76.847,25237.674270
1 Jan 2020 19:20:54.000,305.507,-77.105,25033.823703
1 Jan 2020 19:21:24.000,305.325,-77.381,24834.143143
1 Jan 2020 19:21:54.000,305.120,-77.675,24638.927826
1 Jan 2020 19:22:24.000,304.892,-77.988,24448.474102
1 Jan 2020 19:22:54.000,304.636,-78.318,24263.078729
1 Jan 2020 19:23:24.000,304.351,-78.667,24083.037818
1 Jan 2020 19:23:54.000,304.032,-79.034,23908.647136
1 Jan 2020 19:24:24.000,303.675,-79.419,23740.199480
1 Jan 2020 19:24:54.000,303.274,-79.820,23577.984868
1 Jan 2020 19:25:24.000,302.824,-80.239,23422.289228
1 Jan 2020 19:25:54.000,302.315,-80.674,23273.393059
1 Jan 2020 19:26:24.000,301.737,-81.124,23131.571327
1 Jan 2020 19:26:54.000,301.078,-81.589,22997.090741
1 Jan 2020 19:27:24.000,300.322,-82.069,22870.209591
1 Jan 2020 19:27:54.000,299.446,-82.561,22751.176064
1 Jan 2020 19:28:24.000,298.424,-83.066,22640.227767
1 Jan 2020 19:28:54.000,297.217,-83.581,22537.589316
1 Jan 2020 19:29:24.000,295.774,-84.105,22443.471893
1 Jan 2020 19:29:54.000,294.022,-84.635,22358.071702
1 Jan 2020 19:30:24.000,291.857,-85.170,22281.569411
1 Jan 2020 19:30:54.000,289.123,-85.705,22214.128119
1 Jan 2020 19:31:24.000,285.584,-86.236,22155.892972
1 Jan 2020 19:31:54.000,280.864,-86.754,22106.989972
1 Jan 2020 19:32:24.000,274.364,-87.248,22067.525520
1 Jan 2020 19:32:54.000,265.146,-87.697,22037.585113
1 Jan 2020 19:33:24.000,251.965,-88.062,22017.233169
1 Jan 2020 19:33:54.000,234.087,-88.286,22006.512457
1 Jan 2020 19:34:24.000,213.452,-88.310,22005.443876
1 Jan 2020 19:34:54.000,194.646,-88.127,22014.026159
1 Jan 2020 19:35:24.000,180.408,-87.788,22032.235989
1 Jan 2020 19:35:54.000,170.397,-87.355,22060.028190
1 Jan 2020 19:36:24.000,163.358,-86.870,22097.335815
1 Jan 2020 19:36:54.000,158.271,-86.356,22144.070900
1 Jan 2020 19:37:24.000,154.468,-85.828,22200.124878
1 Jan 2020 19:37:54.000,151.535,-85.294,22265.369473
1 Jan 2020 19:38:24.000,149.209,-84.760,22339.657042
1 Jan 2020 19:38:54.000,147.318,-84.230,22422.822232
1 Jan 2020 19:39:24.000,145.750,-83.706,22514.682557
1 Jan 2020 19:39:54.000,144.426,-83.190,22615.039791
1 Jan 2020 19:40:24.000,143.289,-82.684,22723.680432
1 Jan 2020 19:40:54.000,142.301,-82.191,22840.377941
1 Jan 2020 19:41:24.000,141.430,-81.710,22964.893303
1 Jan 2020 19:41:54.000,140.654,-81.243,23096.976649
1 Jan 2020 19:42:24.000,139.956,-80.790,23236.367682
1 Jan 2020 19:42:54.000,139.322,-80.353,23382.798126
1 Jan 2020 19:43:24.000,138.742,-79.933,23535.992138
1 Jan 2020 19:43:54.000,138.206,-79.529,23695.667679
1 Jan 2020 19:44:24.000,137.707,-79.142,23861.537917
1 Jan 2020 19:44:54.000,137.240,-78.772,24033.311235
1 Jan 2020 19:45:24.000,136.801,-78.420,24210.693852
1 Jan 2020 19:45:54.000,136.384,-78.086,24393.389736
1 Jan 2020 19:46:24.000,135.987,-77.770,24581.101765
1 Jan 2020 19:46:54.000,135.606,-77.472,24773.532567
1 Jan 2020 19:47:24.000,135.240,-77.193,24970.385290
1 Jan 2020 19:47:54.000,134.885,-76.931,25171.364634
1 Jan 2020 19:48:24.000,134.541,-76.688,25376.176192
1 Jan 2020 19:48:54.000,134.205,-76.463,25584.528971
1 Jan 2020 19:49:24.000,133.876,-76.255,25796.134618
1 Jan 2020 19:49:54.000,133.553,-76.066,26010.708206
1 Jan 2020 19:50:24.000,133.234,-75.893,26227.968628
1 Jan 2020 19:50:54.000,132.919,-75.738,26447.638961
1 Jan 2020 19:51:24.000,132.607,-75.600,26669.446758
1 Jan 2020 19:51:54.000,132.296,-75.479,26893.124317
1 Jan 2020 19:52:24.000,131.986,-75.374,27118.408890
1 Jan 2020 19:52:54.000,131.675,-75.285,27345.042867
1 Jan 2020 19:53:24.000,131.364,-75.212,27572.773917
1 Jan 2020 19:53:54.000,131.052,-75.154,27801.355106
1 Jan 2020 19:54:24.000,130.737,-75.112,28030.544974
1 Jan 2020 19:54:54.000,130.420,-75.084,28260.107603
1 Jan 2020 19:55:24.000,130.100,-75.070,28489.812647
1 Jan 2020 19:55:37.850,129.950,-75.069,28595.842670
1 Jan 2020 20:55:36.362,303.864,-75.063,28592.977742
1 Jan 2020 20:56:06.000,302.896,-75.068,28398.909331
1 Jan 2020 20:56:36.000,301.892,-75.083,28203.951726
1 Jan 2020 20:57:06.000,300.863,-75.108,28010.702870
1 Jan 2020 20:57:36.000,299.806,-75.144,27819.387491
1 Jan 2020 20:58:06.000,298.720,-75.189,27630.232444
1 Jan 2020 20:58:36.000,297.603,-75.244,27443.466436
1 Jan 2020 20:59:06.000,296.452,-75.309,27259.319712
1 Jan 2020 20:59:36.000,295.266,-75.384,27078.023718
1 Jan 2020 21:00:06.000,294.043,-75.468,26899.810731
1 Jan 2020 21:00:36.000,292.779,-75.561,26724.913455
1 Jan 2020 21:01:06.000,291.472,-75.662,26553.564592
1 Jan 2020 21:01:36.000,290.121,-75.772,26385.996083
1 Jan 2020 21:02:06.000,288.722,-75.889,26222.439760
1 Jan 2020 21:02:36.000,287.272,-76.014,26063.125086
1 Jan 2020 21:03:06.000,285.770,-76.145,25908.279747
1 Jan 2020 21:03:36.000,284.212,-76.282,25758.128771
1 Jan 2020 21:04:06.000,282.595,-76.424,25612.893903
1 Jan 2020 21:04:36.000,280.917,-76.571,25472.792959
1 Jan 2020 21:05:06.000,279.176,-76.722,25338.038899
1 Jan 2020 21:05:36.000,277.368,-76.875,25208.840160
1 Jan 2020 21:06:06.000,275.491,-77.030,25085.398395
1 Jan 2020 21:06:36.000,273.543,-77.186,24967.908796
1 Jan 2020 21:07:06.000,271.522,-77.341,24856.559100
1 Jan 2020 21:07:36.000,269.427,-77.494,24751.528683
1 Jan 2020 21:08:06.000,267.257,-77.645,24652.988555
1 Jan 2020 21:08:36.000,265.010,-77.791,24561.099545
1 Jan 2020 21:09:06.000,262.689,-77.932,24476.012342
1 Jan 2020 21:09:36.000,260.292,-78.066,24397.866637
1 Jan 2020 21:10:06.000,257.824,-78.192,24326.790327
1 Jan 2020 21:10:36.000,255.286,-78.309,24262.899494
1 Jan 2020 21:11:06.000,252.682,-78.416,24206.296950
1 Jan 2020 21:11:36.000,250.018,-78.511,24157.072328
1 Jan 2020 21:12:06.000,247.299,-78.593,24115.301396
1 Jan 2020 21:12:36.000,244.533,-78.661,24081.045984
1 Jan 2020 21:13:06.000,241.728,-78.716,24054.353158
1 Jan 2020 21:13:36.000,238.892,-78.755,24035.255310
1 Jan 2020 21:14:06.000,236.036,-78.778,24023.769858
1 Jan 2020 21:14:36.000,233.170,-78.787,24019.899288
1 Jan 2020 21:15:06.000,230.303,-78.779,24023.630894
1 Jan 2020 21:15:36.000,227.445,-78.755,24034.937011
1 Jan 2020 21:16:06.000,224.607,-78.717,24053.775109
1 Jan 2020 21:16:36.000,221.798,-78.663,24080.087972
1 Jan 2020 21:17:06.000,219.026,-78.596,24113.804030
1 Jan 2020 21:17:36.000,216.299,-78.515,24154.837693
1 Jan 2020 21:18:06.000,213.624,-78.422,24203.089788
1 Jan 2020 21:18:36.000,211.007,-78.318,24258.448117
1 Jan 2020 21:19:06.000,208.452,-78.204,24320.787699
1 Jan 2020 21:19:36.000,205.962,-78.080,24389.971803
1 Jan 2020 21:20:06.000,203.541,-77.950,24465.852300
1 Jan 2020 21:20:36.000,201.189,-77.812,24548.270404
1 Jan 2020 21:21:06.000,198.907,-77.670,24637.057495
1 Jan 2020 21:21:36.000,196.696,-77.524,24732.035353
1 Jan 2020 21:22:06.000,194.554,-77.375,24833.017618
1 Jan 2020 21:22:36.000,192.481,-77.225,24939.810064
1 Jan 2020 21:23:06.000,190.474,-77.074,25052.211463
1 Jan 2020 21:23:36.000,188.532,-76.924,25170.014331
1 Jan 2020 21:24:06.000,186.652,-76.775,25293.005845
1 Jan 2020 21:24:36.000,184.832,-76.629,25420.967847
1 Jan 2020 21:25:06.000,183.069,-76.486,25553.678614
1 Jan 2020 21:25:36.000,181.360,-76.348,25690.912838
1 Jan 2020 21:26:06.000,179.702,-76.214,25832.442456
1 Jan 2020 21:26:36.000,178.093,-76.085,25978.037277
1 Jan 2020 21:27:06.000,176.530,-75.963,26127.465584
1 Jan 2020 21:27:36.000,175.010,-75.847,26280.494699
1 Jan 2020 21:28:06.000,173.530,-75.738,26436.891740
1 Jan 2020 21:28:36.000,172.088,-75.637,26596.423233
1 Jan 2020 21:29:06.000,170.680,-75.543,26758.856907
1 Jan 2020 21:29:36.000,169.306,-75.457,26923.961247
1 Jan 2020 21:30:06.000,167.961,-75.379,27091.506110
1 Jan 2020 21:30:36.000,166.644,-75.310,27261.263097
1 Jan 2020 21:31:06.000,165.353,-75.249,27433.005886
1 Jan 2020 21:31:36.000,164.086,-75.197,27606.510536
1 Jan 2020 21:32:06.000,162.839,-75.153,27781.555765
1 Jan 2020 21:32:36.000,161.612,-75.118,27957.923197
1 Jan 2020 21:33:06.000,160.403,-75.092,28135.397581
1 Jan 2020 21:33:36.000,159.208,-75.075,28313.766991
1 Jan 2020 21:34:06.000,158.028,-75.066,28492.822997
1 Jan 2020 21:34:22.695,157.377,-75.065,28592.691302
1 Jan 2020 22:33:13.201,328.184,-75.066,28593.523428
1 Jan 2020 22:33:43.000,326.751,-75.069,28451.431636
1 Jan 2020 22:34:13.000,325.290,-75.077,28310.439508
1 Jan 2020 22:34:43.000,323.808,-75.090,28171.702843
1 Jan 2020 22:35:13.000,322.304,-75.108,28035.410544
1 Jan 2020 22:35:43.000,320.777,-75.130,27901.751006
1 Jan 2020 22:36:13.000,319.226,-75.157,27770.911768
1 Jan 2020 22:36:43.000,317.650,-75.189,27643.079140
1 Jan 2020 22:37:13.000,316.048,-75.224,27518.437827
1 Jan 2020 22:37:43.000,314.420,-75.263,27397.170524
1 Jan 2020 22:38:13.000,312.764,-75.305,27279.457503
1 Jan 2020 22:38:43.000,311.079,-75.349,27165.476015
1 Jan 2020 22:39:13.000,309.366,-75.397,27055.400519
1 Jan 2020 22:39:43.000,307.624,-75.446,26949.401218
1 Jan 2020 22:40:13.000,305.851,-75.497,26847.644277
1 Jan 2020 22:40:43.000,304.049,-75.549,26750.291181
1 Jan 2020 22:41:13.000,302.217,-75.602,26657.498268
1 Jan 2020 22:41:43.000,300.354,-75.655,26569.416249
1 Jan 2020 22:42:13.000,298.463,-75.707,26486.189618
1 Jan 2020 22:42:43.000,296.542,-75.759,26407.956680
1 Jan 2020 22:43:13.000,294.593,-75.810,26334.848334
1 Jan 2020 22:43:43.000,292.616,-75.858,26266.988132
1 Jan 2020 22:44:13.000,290.613,-75.905,26204.491723
1 Jan 2020 22:44:43.000,288.585,-75.949,26147.466426
1 Jan 2020 22:45:13.000,286.534,-75.989,26096.010766
1 Jan 2020 22:45:43.000,284.462,-76.026,26050.214411
1 Jan 2020 22:46:13.000,282.370,-76.059,26010.157351
1 Jan 2020 22:46:43.000,280.260,-76.088,25975.909912
1 Jan 2020 22:47:13.000,278.137,-76.113,25947.532396
1 Jan 2020 22:47:43.000,276.001,-76.132,25925.074841
1 Jan 2020 22:48:13.000,273.855,-76.146,25908.576791
1 Jan 2020 22:48:43.000,271.703,-76.156,25898.067241
1 Jan 2020 22:49:13.000,269.547,-76.159,25893.564350
1 Jan 2020 22:49:43.000,267.391,-76.158,25895.075486
1 Jan 2020 22:50:13.000,265.237,-76.151,25902.597162
1 Jan 2020 22:50:43.000,263.088,-76.139,25916.115078
1 Jan 2020 22:51:13.000,260.947,-76.122,25935.604094
1 Jan 2020 22:51:43.000,258.817,-76.100,25961.028443
1 Jan 2020 22:52:13.000,256.700,-76.073,25992.341816
1 Jan 2020 22:52:43.000,254.599,-76.042,26029.487563
1 Jan 2020 22:53:13.000,252.517,-76.007,26072.398918
1 Jan 2020 22:53:43.000,250.454,-75.968,26120.999351
1 Jan 2020 22:54:13.000,248.415,-75.926,26175.202546
1 Jan 2020 22:54:43.000,246.399,-75.880,26234.913199
1 Jan 2020 22:55:13.000,244.409,-75.833,26300.027080
1 Jan 2020 22:55:43.000,242.446,-75.783,26370.431493
1 Jan 2020 22:56:13.000,240.510,-75.732,26446.005685
1 Jan 2020 22:56:43.000,238.604,-75.679,26526.621399
1 Jan 2020 22:57:13.000,236.726,-75.626,26612.142841
1 Jan 2020 22:57:43.000,234.878,-75.574,26702.427839
1 Jan 2020 22:58:13.000,233.060,-75.521,26797.327849
1 Jan 2020 22:58:43.000,231.272,-75.469,26896.688541
1 Jan 2020 22:59:13.000,229.513,-75.419,27000.350273
1 Jan 2020 22:59:43.000,227.784,-75.371,27108.148562
1 Jan 2020 23:00:13.000,226.084,-75.325,27219.914556
1 Jan 2020 23:00:43.000,224.413,-75.281,27335.475681
1 Jan 2020 23:01:13.000,222.769,-75.240,27454.655381
1 Jan 2020 23:01:43.000,221.152,-75.203,27577.274627
1 Jan 2020 23:02:13.000,219.561,-75.170,27703.151648
1 Jan 2020 23:02:43.000,217.996,-75.140,27832.102529
1 Jan 2020 23:03:13.000,216.454,-75.115,27963.941617
1 Jan 2020 23:03:43.000,214.936,-75.095,28098.481908
1 Jan 2020 23:04:13.000,213.441,-75.079,28235.535422
1 Jan 2020 23:04:43.000,211.966,-75.068,28374.913561
1 Jan 2020 23:05:13.000,210.511,-75.063,28516.427444
1 Jan 2020 23:05:29.256,209.730,-75.062,28593.934821
2 Jan 2020 00:04:14.200,20.721,-75.072,28598.067701
2 Jan 2020 00:04:44.000,19.530,-75.076,28422.599309
2 Jan 2020 00:05:14.000,18.317,-75.089,28246.585039
2 Jan 2020 00:05:44.000,17.090,-75.109,28071.407011
2 Jan 2020 00:06:14.000,15.846,-75.138,27897.274322
