STKdata/Satellite-MEO_Satellite10004-To-Satellite-LEO_Satellite20000 AER.csv

"Time (UTCG)","Azimuth (deg)","Elevation (deg)","Range (km)"
1 Jan 2020 00:49:39.676,203.049,-75.068,28605.169236
1 Jan 2020 00:50:09.000,202.364,-75.071,28436.808131
1 Jan 2020 00:50:39.000,201.651,-75.083,28265.199101
1 Jan 2020 00:51:09.000,200.924,-75.103,28094.344968
1 Jan 2020 00:51:39.000,200.182,-75.130,27924.363496
1 Jan 2020 00:52:09.000,199.424,-75.166,27755.373741
1 Jan 2020 00:52:39.000,198.649,-75.209,27587.495982
1 Jan 2020 00:53:09.000,197.857,-75.261,27420.851658
1 Jan 2020 00:53:39.000,197.046,-75.320,27255.563289
1 Jan 2020 00:54:09.000,196.215,-75.388,27091.754394
1 Jan 2020 00:54:39.000,195.364,-75.464,26929.549396
1 Jan 2020 00:55:09.000,194.490,-75.548,26769.073527
1 Jan 2020 00:55:39.000,193.592,-75.639,26610.452715
1 Jan 2020 00:56:09.000,192.669,-75.739,26453.813470
1 Jan 2020 00:56:39.000,191.720,-75.846,26299.282752
1 Jan 2020 00:57:09.000,190.743,-75.961,26146.987839
1 Jan 2020 00:57:39.000,189.736,-76.083,25997.056177
1 Jan 2020 00:58:09.000,188.698,-76.213,25849.614933
1 Jan 2020 00:58:39.000,187.626,-76.350,25704.792005
1 Jan 2020 00:59:09.000,186.519,-76.493,25562.714068
1 Jan 2020 00:59:39.000,185.375,-76.644,25423.507581
1 Jan 2020 01:00:09.000,184.190,-76.800,25287.298285
1 Jan 2020 01:00:39.000,182.964,-76.963,25154.211003
1 Jan 2020 01:01:09.000,181.693,-77.131,25024.369417
1 Jan 2020 01:01:39.000,180.374,-77.304,24897.895848
1 Jan 2020 01:02:09.000,179.006,-77.482,24774.911016
1 Jan 2020 01:02:39.000,177.584,-77.664,24655.533555
1 Jan 2020 01:03:09.000,176.107,-77.850,24539.880764
1 Jan 2020 01:03:39.000,174.570,-78.039,24428.066832
1 Jan 2020 01:04:09.000,172.970,-78.231,24320.203600
1 Jan 2020 01:04:39.000,171.305,-78.424,24216.400035
1 Jan 2020 01:05:09.000,169.571,-78.618,24116.761959
1 Jan 2020 01:05:39.000,167.764,-78.813,24021.391785
1 Jan 2020 01:06:09.000,165.881,-79.007,23930.388052
1 Jan 2020 01:06:39.000,163.919,-79.199,23843.845910
1 Jan 2020 01:07:09.000,161.875,-79.389,23761.855712
1 Jan 2020 01:07:39.000,159.746,-79.575,23684.503519
1 Jan 2020 01:08:09.000,157.529,-79.756,23611.870645
1 Jan 2020 01:08:39.000,155.224,-79.932,23544.033413
1 Jan 2020 01:09:09.000,152.828,-80.101,23481.062913
1 Jan 2020 01:09:39.000,150.342,-80.261,23423.024636
1 Jan 2020 01:10:09.000,147.767,-80.413,23369.978819
1 Jan 2020 01:10:39.000,145.104,-80.554,23321.979392
1 Jan 2020 01:11:09.000,142.356,-80.683,23279.074370
1 Jan 2020 01:11:39.000,139.528,-80.799,23241.305549
1 Jan 2020 01:12:09.000,136.626,-80.902,23208.708352
1 Jan 2020 01:12:39.000,133.658,-80.990,23181.311648
1 Jan 2020 01:13:09.000,130.633,-81.062,23159.137913
1 Jan 2020 01:13:39.000,127.561,-81.118,23142.202738
1 Jan 2020 01:14:09.000,124.455,-81.157,23130.515059
1 Jan 2020 01:14:39.000,121.325,-81.178,23124.077053
1 Jan 2020 01:15:09.000,118.186,-81.183,23122.884136
1 Jan 2020 01:15:39.000,115.051,-81.169,23126.924975
1 Jan 2020 01:16:09.000,111.933,-81.138,23136.181555
1 Jan 2020 01:16:39.000,108.845,-81.091,23150.629201
1 Jan 2020 01:17:09.000,105.798,-81.027,23170.236714
1 Jan 2020 01:17:39.000,102.803,-80.947,23194.966472
1 Jan 2020 01:18:09.000,99.869,-80.853,23224.774566
1 Jan 2020 01:18:39.000,97.004,-80.744,23259.611023
1 Jan 2020 01:19:09.000,94.215,-80.623,23299.419753
1 Jan 2020 01:19:39.000,91.506,-80.490,23344.139074
1 Jan 2020 01:20:09.000,88.880,-80.347,23393.701719
1 Jan 2020 01:20:39.000,86.340,-80.194,23448.035111
1 Jan 2020 01:21:09.000,83.886,-80.033,23507.061606
1 Jan 2020 01:21:39.000,81.518,-79.865,23570.698747
1 Jan 2020 01:22:09.000,79.236,-79.691,23638.859659
1 Jan 2020 01:22:39.000,77.037,-79.512,23711.452794
1 Jan 2020 01:23:09.000,74.919,-79.330,23788.382978
1 Jan 2020 01:23:39.000,72.880,-79.144,23869.551190
1 Jan 2020 01:24:09.000,70.916,-78.957,23954.854962
1 Jan 2020 01:24:39.000,69.025,-78.769,24044.188669
1 Jan 2020 01:25:09.000,67.203,-78.581,24137.443804
1 Jan 2020 01:25:39.000,65.446,-78.393,24234.509260
1 Jan 2020 01:26:09.000,63.751,-78.207,24335.271800
1 Jan 2020 01:26:39.000,62.115,-78.023,24439.615562
1 Jan 2020 01:27:09.000,60.535,-77.842,24547.423458
1 Jan 2020 01:27:39.000,59.007,-77.664,24658.576683
1 Jan 2020 01:28:09.000,57.528,-77.489,24772.955149
1 Jan 2020 01:28:39.000,56.095,-77.319,24890.437727
1 Jan 2020 01:29:09.000,54.706,-77.153,25010.902475
1 Jan 2020 01:29:39.000,53.358,-76.992,25134.226863
1 Jan 2020 01:30:09.000,52.047,-76.837,25260.287980
1 Jan 2020 01:30:39.000,50.773,-76.687,25388.962739
1 Jan 2020 01:31:09.000,49.532,-76.543,25520.128062
1 Jan 2020 01:31:39.000,48.322,-76.405,25653.661061
1 Jan 2020 01:32:09.000,47.141,-76.274,25789.439469
1 Jan 2020 01:32:39.000,45.988,-76.149,25927.340744
1 Jan 2020 01:33:09.000,44.860,-76.030,26067.243789
1 Jan 2020 01:33:39.000,43.756,-75.918,26209.028043
1 Jan 2020 01:34:09.000,42.675,-75.814,26352.573867
1 Jan 2020 01:34:39.000,41.613,-75.716,26497.762659
1 Jan 2020 01:35:09.000,40.571,-75.624,26644.476956
1 Jan 2020 01:35:39.000,39.547,-75.540,26792.600539
1 Jan 2020 01:36:09.000,38.539,-75.464,26942.018510
1 Jan 2020 01:36:39.000,37.547,-75.394,27092.617380
1 Jan 2020 01:37:09.000,36.568,-75.331,27244.285135
1 Jan 2020 01:37:39.000,35.603,-75.275,27396.911298
1 Jan 2020 01:38:09.000,34.650,-75.226,27550.386988
1 Jan 2020 01:38:39.000,33.707,-75.184,27704.604968
1 Jan 2020 01:39:09.000,32.775,-75.149,27859.459684
1 Jan 2020 01:39:39.000,31.851,-75.121,28014.847308
1 Jan 2020 01:40:09.000,30.936,-75.099,28170.665759
1 Jan 2020 01:40:39.000,30.029,-75.084,28326.814739
1 Jan 2020 01:41:09.000,29.128,-75.076,28483.195745
1 Jan 2020 01:41:31.935,28.443,-75.074,28602.847669
1 Jan 2020 03:00:26.437,164.201,-75.065,28596.771259
1 Jan 2020 03:00:56.000,163.196,-75.068,28455.137589
1 Jan 2020 03:01:26.000,162.167,-75.076,28311.829270
1 Jan 2020 03:01:56.000,161.129,-75.089,28169.029299
1 Jan 2020 03:02:26.000,160.082,-75.109,28026.824494
1 Jan 2020 03:02:56.000,159.023,-75.134,27885.302818
1 Jan 2020 03:03:26.000,157.953,-75.164,27744.553349
1 Jan 2020 03:03:56.000,156.871,-75.200,27604.666243
1 Jan 2020 03:04:26.000,155.775,-75.241,27465.732695
1 Jan 2020 03:04:56.000,154.666,-75.288,27327.844900
1 Jan 2020 03:05:26.000,153.541,-75.341,27191.096001
1 Jan 2020 03:05:56.000,152.400,-75.399,27055.580037
1 Jan 2020 03:06:26.000,151.243,-75.463,26921.391885
1 Jan 2020 03:06:56.000,150.067,-75.531,26788.627196
1 Jan 2020 03:07:26.000,148.873,-75.606,26657.382326
1 Jan 2020 03:07:56.000,147.658,-75.685,26527.754261
1 Jan 2020 03:08:26.000,146.422,-75.769,26399.840535
1 Jan 2020 03:08:56.000,145.164,-75.858,26273.739144
1 Jan 2020 03:09:26.000,143.882,-75.952,26149.548451
1 Jan 2020 03:09:56.000,142.576,-76.051,26027.367085
1 Jan 2020 03:10:26.000,141.243,-76.154,25907.293836
1 Jan 2020 03:10:56.000,139.882,-76.261,25789.427296
1 Jan 2020 03:11:26.000,138.493,-76.373,25673.866722
1 Jan 2020 03:11:56.000,137.073,-76.488,25560.710429
1 Jan 2020 03:12:26.000,135.621,-76.606,25450.056647
1 Jan 2020 03:12:56.000,134.136,-76.728,25342.003130
1 Jan 2020 03:13:26.000,132.616,-76.852,25236.647018
1 Jan 2020 03:13:56.000,131.060,-76.979,25134.084676
1 Jan 2020 03:14:26.000,129.466,-77.108,25034.411539
1 Jan 2020 03:14:56.000,127.832,-77.239,24937.721952
1 Jan 2020 03:15:26.000,126.158,-77.371,24844.108997
1 Jan 2020 03:15:56.000,124.442,-77.504,24753.664145
1 Jan 2020 03:16:26.000,122.681,-77.637,24666.477786
1 Jan 2020 03:16:56.000,120.876,-77.770,24582.637979
1 Jan 2020 03:17:26.000,119.025,-77.902,24502.230989
1 Jan 2020 03:17:56.000,117.126,-78.033,24425.340914
1 Jan 2020 03:18:26.000,115.180,-78.162,24352.049504
1 Jan 2020 03:18:56.000,113.185,-78.289,24282.435967
1 Jan 2020 03:19:26.000,111.141,-78.412,24216.576787
1 Jan 2020 03:19:56.000,109.047,-78.532,24154.545418
1 Jan 2020 03:20:26.000,106.905,-78.647,24096.412564
1 Jan 2020 03:20:56.000,104.714,-78.758,24042.245294
1 Jan 2020 03:21:26.000,102.475,-78.862,23992.107340
1 Jan 2020 03:21:56.000,100.191,-78.960,23946.058806
1 Jan 2020 03:22:26.000,97.862,-79.052,23904.155999
1 Jan 2020 03:22:56.000,95.491,-79.135,23866.451275
1 Jan 2020 03:23:26.000,93.082,-79.211,23832.992883
1 Jan 2020 03:23:56.000,90.637,-79.278,23803.824777
1 Jan 2020 03:24:26.000,88.160,-79.336,23778.986700
1 Jan 2020 03:24:56.000,85.656,-79.384,23758.513723
1 Jan 2020 03:25:26.000,83.128,-79.422,23742.436378
1 Jan 2020 03:25:56.000,80.584,-79.450,23730.780495
1 Jan 2020 03:26:26.000,78.027,-79.467,23723.567127
1 Jan 2020 03:26:56.000,75.463,-79.474,23720.812478
1 Jan 2020 03:27:26.000,72.899,-79.470,23722.527866
1 Jan 2020 03:27:56.000,70.339,-79.455,23728.719628
1 Jan 2020 03:28:26.000,67.790,-79.430,23739.389173
1 Jan 2020 03:28:56.000,65.257,-79.394,23754.532925
1 Jan 2020 03:29:26.000,62.745,-79.348,23774.142348
1 Jan 2020 03:29:56.000,60.260,-79.292,23798.203962
1 Jan 2020 03:30:26.000,57.806,-79.227,23826.699379
1 Jan 2020 03:30:56.000,55.387,-79.152,23859.605441
1 Jan 2020 03:31:26.000,53.006,-79.069,23896.893969
1 Jan 2020 03:31:56.000,50.668,-78.978,23938.532297
1 Jan 2020 03:32:26.000,48.375,-78.880,23984.483075
1 Jan 2020 03:32:56.000,46.128,-78.775,24034.704441
1 Jan 2020 03:33:26.000,43.931,-78.664,24089.150141
1 Jan 2020 03:33:56.000,41.783,-78.548,24147.769652
1 Jan 2020 03:34:26.000,39.686,-78.426,24210.508327
1 Jan 2020 03:34:56.000,37.641,-78.301,24277.307688
1 Jan 2020 03:35:26.000,35.647,-78.172,24348.104973
1 Jan 2020 03:35:56.000,33.704,-78.040,24422.834201
1 Jan 2020 03:36:26.000,31.811,-77.907,24501.425745
1 Jan 2020 03:36:56.000,29.969,-77.771,24583.806652
1 Jan 2020 03:37:26.000,28.175,-77.635,24669.900813
1 Jan 2020 03:37:56.000,26.430,-77.498,24759.629147
1 Jan 2020 03:38:26.000,24.731,-77.362,24852.909782
1 Jan 2020 03:38:56.000,23.078,-77.226,24949.658233
1 Jan 2020 03:39:26.000,21.469,-77.092,25049.787800
1 Jan 2020 03:39:56.000,19.902,-76.959,25153.208900
1 Jan 2020 03:40:26.000,18.377,-76.828,25259.830511
1 Jan 2020 03:40:56.000,16.890,-76.700,25369.559511
1 Jan 2020 03:41:26.000,15.443,-76.575,25482.301065
1 Jan 2020 03:41:56.000,14.031,-76.453,25597.958793
1 Jan 2020 03:42:26.000,12.655,-76.335,25716.434936
1 Jan 2020 03:42:56.000,11.312,-76.221,25837.630521
1 Jan 2020 03:43:26.000,10.001,-76.111,25961.445522
1 Jan 2020 03:43:56.000,8.721,-76.006,26087.779006
1 Jan 2020 03:44:26.000,7.471,-75.905,26216.529286
1 Jan 2020 03:44:56.000,6.248,-75.810,26347.594061
1 Jan 2020 03:45:26.000,5.052,-75.719,26480.870550
1 Jan 2020 03:45:56.000,3.882,-75.635,26616.255902
1 Jan 2020 03:46:26.000,2.735,-75.555,26753.646210
1 Jan 2020 03:46:56.000,1.612,-75.482,26892.938285
1 Jan 2020 03:47:26.000,0.511,-75.414,27034.028669
1 Jan 2020 03:47:56.000,359.431,-75.352,27176.814011
1 Jan 2020 03:48:26.000,358.370,-75.296,27321.191165
1 Jan 2020 03:48:56.000,357.329,-75.246,27467.057288
1 Jan 2020 03:49:26.000,356.305,-75.202,27614.309923
1 Jan 2020 03:49:56.000,355.298,-75.165,27762.847081
1 Jan 2020 03:50:26.000,354.307,-75.133,27912.567316
1 Jan 2020 03:50:56.000,353.332,-75.108,28063.369799
1 Jan 2020 03:51:26.000,352.370,-75.090,28215.154379
1 Jan 2020 03:51:56.000,351.422,-75.077,28367.821645
1 Jan 2020 03:52:26.000,350.487,-75.071,28521.272983
1 Jan 2020 03:52:40.378,350.043,-75.070,28595.067999
1 Jan 2020 05:07:54.456,142.498,-75.067,28592.993013
1 Jan 2020 05:08:24.000,142.028,-75.071,28411.840312
1 Jan 2020 05:08:54.000,141.551,-75.085,28227.862666
1 Jan 2020 05:09:24.000,141.074,-75.108,28043.976737
1 Jan 2020 05:09:54.000,140.595,-75.140,27860.306554
1 Jan 2020 05:10:24.000,140.114,-75.182,27676.978759
1 Jan 2020 05:10:54.000,139.631,-75.233,27494.122587
1 Jan 2020 05:11:24.000,139.145,-75.295,27311.869858
1 Jan 2020 05:11:54.000,138.656,-75.367,27130.354942
1 Jan 2020 05:12:24.000,138.162,-75.449,26949.714737
1 Jan 2020 05:12:54.000,137.662,-75.542,26770.088620
1 Jan 2020 05:13:24.000,137.157,-75.645,26591.618398
1 Jan 2020 05:13:54.000,136.645,-75.759,26414.448248
1 Jan 2020 05:14:24.000,136.125,-75.884,26238.724645
1 Jan 2020 05:14:54.000,135.596,-76.020,26064.596274
1 Jan 2020 05:15:24.000,135.057,-76.167,25892.213934
1 Jan 2020 05:15:54.000,134.507,-76.325,25721.730429
1 Jan 2020 05:16:24.000,133.944,-76.494,25553.300438
1 Jan 2020 05:16:54.000,133.367,-76.675,25387.080378
1 Jan 2020 05:17:24.000,132.774,-76.867,25223.228241
1 Jan 2020 05:17:54.000,132.163,-77.070,25061.903424
1 Jan 2020 05:18:24.000,131.533,-77.285,24903.266215
1 Jan 2020 05:18:54.000,130.881,-77.510,24747.478864
1 Jan 2020 05:19:24.000,130.205,-77.748,24594.703420
1 Jan 2020 05:19:54.000,129.502,-77.996,24445.102777
1 Jan 2020 05:20:24.000,128.768,-78.255,24298.840079
1 Jan 2020 05:20:54.000,128.000,-78.525,24156.078428
1 Jan 2020 05:21:24.000,127.195,-78.805,24016.980579
1 Jan 2020 05:21:54.000,126.346,-79.096,23881.708607
1 Jan 2020 05:22:24.000,125.450,-79.397,23750.423318
1 Jan 2020 05:22:54.000,124.500,-79.707,23623.284853
1 Jan 2020 05:23:24.000,123.489,-80.027,23500.450835
1 Jan 2020 05:23:54.000,122.408,-80.355,23382.076952
1 Jan 2020 05:24:24.000,121.248,-80.692,23268.316289
1 Jan 2020 05:24:54.000,119.999,-81.035,23159.318902
1 Jan 2020 05:25:24.000,118.646,-81.386,23055.231369
1 Jan 2020 05:25:54.000,117.175,-81.742,22956.196142
1 Jan 2020 05:26:24.000,115.568,-82.103,22862.351894
1 Jan 2020 05:26:54.000,113.802,-82.467,22773.831828
1 Jan 2020 05:27:24.000,111.851,-82.833,22690.764043
1 Jan 2020 05:27:54.000,109.686,-83.199,22613.270863
1 Jan 2020 05:28:24.000,107.269,-83.563,22541.468380
1 Jan 2020 05:28:54.000,104.559,-83.923,22475.465881
1 Jan 2020 05:29:24.000,101.503,-84.276,22415.365939
1 Jan 2020 05:29:54.000,98.046,-84.618,22361.263195
1 Jan 2020 05:30:24.000,94.123,-84.944,22313.244513
1 Jan 2020 05:30:54.000,89.668,-85.250,22271.388471
1 Jan 2020 05:31:24.000,84.620,-85.529,22235.764962
1 Jan 2020 05:31:54.000,78.934,-85.775,22206.435126
1 Jan 2020 05:32:24.000,72.600,-85.979,22183.450703
1 Jan 2020 05:32:54.000,65.668,-86.134,22166.854063
1 Jan 2020 05:33:24.000,58.262,-86.232,22156.677938
1 Jan 2020 05:33:54.000,50.583,-86.269,22152.945283
1 Jan 2020 05:34:24.000,42.883,-86.242,22155.669155
1 Jan 2020 05:34:54.000,35.419,-86.153,22164.852655
1 Jan 2020 05:35:24.000,28.404,-86.006,22180.488924
1 Jan 2020 05:35:54.000,21.976,-85.808,22202.561174
1 Jan 2020 05:36:24.000,16.196,-85.567,22231.042833
1 Jan 2020 05:36:54.000,11.065,-85.291,22265.897401
1 Jan 2020 05:37:24.000,6.541,-84.987,22307.079005
1 Jan 2020 05:37:54.000,2.566,-84.661,22354.532362
1 Jan 2020 05:38:24.000,359.073,-84.319,22408.193086
1 Jan 2020 05:38:54.000,355.998,-83.965,22467.988103
1 Jan 2020 05:39:24.000,353.282,-83.603,22533.835469
1 Jan 2020 05:39:54.000,350.874,-83.236,22605.645450
1 Jan 2020 05:40:24.000,348.730,-82.866,22683.320424
1 Jan 2020 05:40:54.000,346.811,-82.496,22766.755391
1 Jan 2020 05:41:24.000,345.087,-82.128,22855.838397
1 Jan 2020 05:41:54.000,343.530,-81.763,22950.451171
1 Jan 2020 05:42:24.000,342.119,-81.402,23050.468745
1 Jan 2020 05:42:54.000,340.835,-81.046,23155.761129
1 Jan 2020 05:43:24.000,339.662,-80.697,23266.192958
1 Jan 2020 05:43:54.000,338.586,-80.356,23381.624157
1 Jan 2020 05:44:24.000,337.596,-80.022,23501.910384
1 Jan 2020 05:44:54.000,336.682,-79.698,23626.903487
1 Jan 2020 05:45:24.000,335.837,-79.382,23756.452215
1 Jan 2020 05:45:54.000,335.052,-79.076,23890.401567
1 Jan 2020 05:46:24.000,334.321,-78.780,24028.594819
1 Jan 2020 05:46:54.000,333.640,-78.495,24170.872863
1 Jan 2020 05:47:24.000,333.003,-78.221,24317.074863
1 Jan 2020 05:47:54.000,332.407,-77.958,24467.038621
1 Jan 2020 05:48:24.000,331.847,-77.705,24620.600935
1 Jan 2020 05:48:54.000,331.321,-77.465,24777.597929
1 Jan 2020 05:49:24.000,330.825,-77.236,24937.865370
1 Jan 2020 05:49:54.000,330.358,-77.018,25101.238965
1 Jan 2020 05:50:24.000,329.917,-76.813,25267.554978
1 Jan 2020 05:50:54.000,329.500,-76.619,25436.649123
1 Jan 2020 05:51:24.000,329.106,-76.436,25608.358839
1 Jan 2020 05:51:54.000,328.732,-76.266,25782.522157
1 Jan 2020 05:52:24.000,328.378,-76.107,25958.978235
1 Jan 2020 05:52:54.000,328.042,-75.960,26137.567544
1 Jan 2020 05:53:24.000,327.722,-75.825,26318.132032
1 Jan 2020 05:53:54.000,327.419,-75.701,26500.515271
1 Jan 2020 05:54:24.000,327.131,-75.589,26684.562597
1 Jan 2020 05:54:54.000,326.856,-75.488,26870.121225
1 Jan 2020 05:55:24.000,326.596,-75.398,27057.040354
1 Jan 2020 05:55:54.000,326.347,-75.319,27245.171263
1 Jan 2020 05:56:24.000,326.111,-75.252,27434.367389
1 Jan 2020 05:56:54.000,325.887,-75.195,27624.484397
1 Jan 2020 05:57:24.000,325.673,-75.148,27815.380239
1 Jan 2020 05:57:54.000,325.470,-75.112,28006.915199
1 Jan 2020 05:58:24.000,325.276,-75.087,28198.951942
1 Jan 2020 05:58:54.000,325.092,-75.071,28391.355537
1 Jan 2020 05:59:24.000,324.918,-75.066,28583.993485
1 Jan 2020 05:59:25.448,324.910,-75.066,28593.296691
1 Jan 2020 07:11:47.593,149.460,-75.071,28596.491176
1 Jan 2020 07:12:17.000,149.896,-75.076,28414.614894
1 Jan 2020 07:12:47.000,150.353,-75.089,28229.502800
1 Jan 2020 07:13:17.000,150.822,-75.112,28044.953165
1 Jan 2020 07:13:47.000,151.305,-75.145,27861.095918
1 Jan 2020 07:14:17.000,151.801,-75.186,27678.062911
1 Jan 2020 07:14:47.000,152.313,-75.238,27495.987865
1 Jan 2020 07:15:17.000,152.841,-75.299,27315.006316
1 Jan 2020 07:15:47.000,153.385,-75.370,27135.255545
1 Jan 2020 07:16:17.000,153.947,-75.451,26956.874506
1 Jan 2020 07:16:47.000,154.528,-75.542,26780.003735
1 Jan 2020 07:17:17.000,155.130,-75.643,26604.785259
1 Jan 2020 07:17:47.000,155.752,-75.754,26431.362486
1 Jan 2020 07:18:17.000,156.398,-75.875,26259.880086
1 Jan 2020 07:18:47.000,157.068,-76.005,26090.483863
1 Jan 2020 07:19:17.000,157.763,-76.146,25923.320604
1 Jan 2020 07:19:47.000,158.487,-76.297,25758.537930
1 Jan 2020 07:20:17.000,159.240,-76.457,25596.284117
1 Jan 2020 07:20:47.000,160.025,-76.627,25436.707586
1 Jan 2020 07:21:17.000,160.845,-76.806,25279.958025
1 Jan 2020 07:21:47.000,161.701,-76.995,25126.184179
1 Jan 2020 07:22:17.000,162.596,-77.193,24975.534953
1 Jan 2020 07:22:47.000,163.535,-77.400,24828.158836
1 Jan 2020 07:23:17.000,164.519,-77.616,24684.203636
1 Jan 2020 07:23:47.000,165.553,-77.839,24543.816208
1 Jan 2020 07:24:17.000,166.640,-78.071,24407.142162
1 Jan 2020 07:24:47.000,167.785,-78.310,24274.325303
1 Jan 2020 07:25:17.000,168.994,-78.556,24145.508352
1 Jan 2020 07:25:47.000,170.271,-78.808,24020.831048
1 Jan 2020 07:26:17.000,171.621,-79.066,23900.430863
1 Jan 2020 07:26:47.000,173.053,-79.328,23784.442383
1 Jan 2020 07:27:17.000,174.572,-79.595,23672.996952
1 Jan 2020 07:27:47.000,176.187,-79.865,23566.222307
1 Jan 2020 07:28:17.000,177.905,-80.138,23464.241987
1 Jan 2020 07:28:47.000,179.736,-80.411,23367.175849
1 Jan 2020 07:29:17.000,181.689,-80.684,23275.138352
1 Jan 2020 07:29:47.000,183.775,-80.956,23188.239087
1 Jan 2020 07:30:17.000,186.003,-81.225,23106.582188
1 Jan 2020 07:30:47.000,188.385,-81.488,23030.265971
1 Jan 2020 07:31:17.000,190.932,-81.746,22959.382434
1 Jan 2020 07:31:47.000,193.653,-81.994,22894.017541
1 Jan 2020 07:32:17.000,196.557,-82.232,22834.249959
1 Jan 2020 07:32:47.000,199.653,-82.457,22780.151397
1 Jan 2020 07:33:17.000,202.943,-82.667,22731.786164
1 Jan 2020 07:33:47.000,206.429,-82.858,22689.210916
1 Jan 2020 07:34:17.000,210.105,-83.029,22652.474341
1 Jan 2020 07:34:47.000,213.963,-83.177,22621.617322
1 Jan 2020 07:35:17.000,217.983,-83.300,22596.672204
1 Jan 2020 07:35:47.000,222.142,-83.396,22577.663050
1 Jan 2020 07:36:17.000,226.409,-83.463,22564.605438
1 Jan 2020 07:36:47.000,230.745,-83.499,22557.506376
1 Jan 2020 07:37:17.000,235.111,-83.505,22556.364366
1 Jan 2020 07:37:47.000,239.463,-83.480,22561.169251
1 Jan 2020 07:38:17.000,243.759,-83.425,22571.902381
1 Jan 2020 07:38:47.000,247.962,-83.340,22588.536654
1 Jan 2020 07:39:17.000,252.038,-83.228,22611.036635
1 Jan 2020 07:39:47.000,255.960,-83.090,22639.358760
1 Jan 2020 07:40:17.000,259.711,-82.929,22673.451308
1 Jan 2020 07:40:47.000,263.277,-82.747,22713.254909
1 Jan 2020 07:41:17.000,266.653,-82.547,22758.702602
1 Jan 2020 07:41:47.000,269.838,-82.331,22809.720145
1 Jan 2020 07:42:17.000,272.836,-82.102,22866.226311
1 Jan 2020 07:42:47.000,275.653,-81.861,22928.133319
1 Jan 2020 07:43:17.000,278.297,-81.611,22995.346696
1 Jan 2020 07:43:47.000,280.780,-81.355,23067.766315
1 Jan 2020 07:44:17.000,283.111,-81.093,23145.286311
1 Jan 2020 07:44:47.000,285.301,-80.828,23227.795553
1 Jan 2020 07:45:17.000,287.360,-80.561,23315.178031
1 Jan 2020 07:45:47.000,289.300,-80.293,23407.313233
1 Jan 2020 07:46:17.000,291.130,-80.027,23504.076726
1 Jan 2020 07:46:47.000,292.859,-79.762,23605.339766
1 Jan 2020 07:47:17.000,294.495,-79.499,23710.970824
1 Jan 2020 07:47:47.000,296.047,-79.241,23820.835204
1 Jan 2020 07:48:17.000,297.521,-78.987,23934.795601
1 Jan 2020 07:48:47.000,298.925,-78.739,24052.712456
1 Jan 2020 07:49:17.000,300.264,-78.496,24174.444305
1 Jan 2020 07:49:47.000,301.544,-78.259,24299.848114
1 Jan 2020 07:50:17.000,302.769,-78.030,24428.779603
1 Jan 2020 07:50:47.000,303.945,-77.807,24561.093820
1 Jan 2020 07:51:17.000,305.076,-77.593,24696.644378
1 Jan 2020 07:51:47.000,306.165,-77.386,24835.285311
1 Jan 2020 07:52:17.000,307.216,-77.188,24976.870292
1 Jan 2020 07:52:47.000,308.233,-76.998,25121.253140
1 Jan 2020 07:53:17.000,309.217,-76.816,25268.288053
1 Jan 2020 07:53:47.000,310.172,-76.644,25417.829823
1 Jan 2020 07:54:17.000,311.100,-76.480,25569.734037
1 Jan 2020 07:54:47.000,312.003,-76.326,25723.857259
1 Jan 2020 07:55:17.000,312.884,-76.180,25880.057207
1 Jan 2020 07:55:47.000,313.745,-76.044,26038.192898
1 Jan 2020 07:56:17.000,314.586,-75.917,26198.124801
1 Jan 2020 07:56:47.000,315.410,-75.798,26359.714955
1 Jan 2020 07:57:17.000,316.218,-75.689,26522.827090
1 Jan 2020 07:57:47.000,317.012,-75.590,26687.326729
1 Jan 2020 07:58:17.000,317.793,-75.499,26853.081278
1 Jan 2020 07:58:47.000,318.563,-75.417,27019.960108
1 Jan 2020 07:59:17.000,319.321,-75.344,27187.834624
1 Jan 2020 07:59:47.000,320.070,-75.279,27356.578325
1 Jan 2020 08:00:17.000,320.810,-75.224,27526.066857
1 Jan 2020 08:00:47.000,321.543,-75.177,27696.178054
1 Jan 2020 08:01:17.000,322.269,-75.138,27866.791979
1 Jan 2020 08:01:47.000,322.989,-75.108,28037.790942
1 Jan 2020 08:02:17.000,323.704,-75.086,28209.059534
1 Jan 2020 08:02:47.000,324.414,-75.072,28380.484632
1 Jan 2020 08:03:17.000,325.122,-75.066,28551.955416
1 Jan 2020 08:03:25.163,325.313,-75.066,28598.606249
1 Jan 2020 09:20:38.383,182.397,-75.076,28604.795236
1 Jan 2020 09:21:08.000,183.403,-75.078,28462.422836
1 Jan 2020 09:21:38.000,184.433,-75.086,28318.847675
1 Jan 2020 09:22:08.000,185.473,-75.100,28176.000568
1 Jan 2020 09:22:38.000,186.526,-75.119,28033.969728
1 Jan 2020 09:23:08.000,187.591,-75.144,27892.844133
1 Jan 2020 09:23:38.000,188.670,-75.174,27752.713479
1 Jan 2020 09:24:08.000,189.764,-75.209,27613.668140
1 Jan 2020 09:24:38.000,190.872,-75.250,27475.799108
1 Jan 2020 09:25:08.000,191.997,-75.297,27339.197942
1 Jan 2020 09:25:38.000,193.138,-75.349,27203.956703
1 Jan 2020 09:26:08.000,194.297,-75.405,27070.167896
1 Jan 2020 09:26:38.000,195.475,-75.468,26937.924388
1 Jan 2020 09:27:08.000,196.673,-75.535,26807.319346
1 Jan 2020 09:27:38.000,197.891,-75.607,26678.446148
1 Jan 2020 09:28:08.000,199.131,-75.684,26551.398301
1 Jan 2020 09:28:38.000,200.394,-75.765,26426.269349
1 Jan 2020 09:29:08.000,201.681,-75.851,26303.152781
1 Jan 2020 09:29:38.000,202.993,-75.941,26182.141926
1 Jan 2020 09:30:08.000,204.331,-76.036,26063.329603
1 Jan 2020 09:30:38.000,205.696,-76.134,25946.808998
1 Jan 2020 09:31:08.000,207.090,-76.236,25832.672057
1 Jan 2020 09:31:38.000,208.513,-76.342,25721.010363
1 Jan 2020 09:32:08.000,209.968,-76.450,25611.914758
1 Jan 2020 09:32:38.000,211.454,-76.562,25505.475210
1 Jan 2020 09:33:08.000,212.974,-76.676,25401.780684
1 Jan 2020 09:33:38.000,214.529,-76.792,25300.918993
1 Jan 2020 09:34:08.000,216.119,-76.910,25202.976660
1 Jan 2020 09:34:38.000,217.746,-77.029,25108.038769
1 Jan 2020 09:35:08.000,219.412,-77.149,25016.188631
1 Jan 2020 09:35:38.000,221.116,-77.270,24927.508373
1 Jan 2020 09:36:08.000,222.861,-77.391,24842.077658
1 Jan 2020 09:36:38.000,224.647,-77.512,24759.974286
1 Jan 2020 09:37:08.000,226.474,-77.632,24681.273847
1 Jan 2020 09:37:38.000,228.344,-77.750,24606.049559
1 Jan 2020 09:38:08.000,230.257,-77.867,24534.372113
1 Jan 2020 09:38:38.000,232.214,-77.981,24466.309519
1 Jan 2020 09:39:08.000,234.213,-78.092,24401.926946
1 Jan 2020 09:39:38.000,236.256,-78.200,24341.286446
1 Jan 2020 09:40:08.000,238.341,-78.304,24284.447336
1 Jan 2020 09:40:38.000,240.468,-78.403,24231.465241
1 Jan 2020 09:41:08.000,242.636,-78.497,24182.392506
1 Jan 2020 09:41:38.000,244.843,-78.585,24137.277928
1 Jan 2020 09:42:08.000,247.088,-78.667,24096.166624
1 Jan 2020 09:42:38.000,249.368,-78.742,24059.099917
1 Jan 2020 09:43:08.000,251.681,-78.810,24026.115227
1 Jan 2020 09:43:38.000,254.024,-78.871,23997.245906
1 Jan 2020 09:44:08.000,256.394,-78.923,23972.521403
1 Jan 2020 09:44:38.000,258.787,-78.967,23951.966788
1 Jan 2020 09:45:08.000,261.199,-79.002,23935.602957
1 Jan 2020 09:45:38.000,263.626,-79.029,23923.446500
1 Jan 2020 09:46:08.000,266.064,-79.046,23915.509657
1 Jan 2020 09:46:38.000,268.508,-79.054,23911.800282
1 Jan 2020 09:47:08.000,270.954,-79.053,23912.321822
1 Jan 2020 09:47:38.000,273.397,-79.042,23917.073323
1 Jan 2020 09:48:08.000,275.832,-79.022,23926.049382
1 Jan 2020 09:48:38.000,278.255,-78.993,23939.240223
1 Jan 2020 09:49:08.000,280.663,-78.956,23956.631695
1 Jan 2020 09:49:38.000,283.050,-78.909,23978.205321
1 Jan 2020 09:50:08.000,285.412,-78.855,24003.938346
1 Jan 2020 09:50:38.000,287.747,-78.792,24033.803800
1 Jan 2020 09:51:08.000,290.052,-78.722,24067.770581
1 Jan 2020 09:51:38.000,292.323,-78.645,24105.803619
1 Jan 2020 09:52:08.000,294.558,-78.562,24147.863638
1 Jan 2020 09:52:38.000,296.754,-78.472,24193.907756
1 Jan 2020 09:53:08.000,298.912,-78.377,24243.889276
1 Jan 2020 09:53:38.000,301.028,-78.276,24297.757890
1 Jan 2020 09:54:08.000,303.102,-78.172,24355.459803
1 Jan 2020 09:54:38.000,305.133,-78.063,24416.937872
1 Jan 2020 09:55:08.000,307.121,-77.951,24482.131749
1 Jan 2020 09:55:38.000,309.066,-77.836,24550.978023
1 Jan 2020 09:56:08.000,310.968,-77.719,24623.410534
1 Jan 2020 09:56:38.000,312.827,-77.600,24699.359886
1 Jan 2020 09:57:08.000,314.644,-77.480,24778.754550
1 Jan 2020 09:57:38.000,316.420,-77.359,24861.520401
1 Jan 2020 09:58:08.000,318.154,-77.238,24947.581024
1 Jan 2020 09:58:38.000,319.849,-77.117,25036.857875
1 Jan 2020 09:59:08.000,321.505,-76.997,25129.270440
1 Jan 2020 09:59:38.000,323.124,-76.878,25224.736386
1 Jan 2020 10:00:08.000,324.706,-76.761,25323.171723
1 Jan 2020 10:00:38.000,326.252,-76.645,25424.490948
1 Jan 2020 10:01:08.000,327.765,-76.532,25528.607202
1 Jan 2020 10:01:38.000,329.244,-76.421,25635.432635
1 Jan 2020 10:02:08.000,330.691,-76.314,25744.877652
1 Jan 2020 10:02:38.000,332.109,-76.209,25856.852394
1 Jan 2020 10:03:08.000,333.496,-76.108,25971.265978
1 Jan 2020 10:03:38.000,334.856,-76.010,26088.026854
1 Jan 2020 10:04:08.000,336.189,-75.917,26207.042921
1 Jan 2020 10:04:38.000,337.496,-75.827,26328.221652
1 Jan 2020 10:05:08.000,338.779,-75.742,26451.470206
1 Jan 2020 10:05:38.000,340.038,-75.662,26576.695537
1 Jan 2020 10:06:08.000,341.274,-75.586,26703.804498
1 Jan 2020 10:06:38.000,342.490,-75.515,26832.703938
1 Jan 2020 10:07:08.000,343.684,-75.449,26963.300794
1 Jan 2020 10:07:38.000,344.860,-75.388,27095.502183
1 Jan 2020 10:08:08.000,346.017,-75.332,27229.215480
1 Jan 2020 10:08:38.000,347.157,-75.282,27364.348397
1 Jan 2020 10:09:08.000,348.280,-75.236,27500.809056
1 Jan 2020 10:09:38.000,349.387,-75.196,27638.506055
1 Jan 2020 10:10:08.000,350.480,-75.162,27777.348532
1 Jan 2020 10:10:38.000,351.559,-75.132,27917.246221
1 Jan 2020 10:11:08.000,352.624,-75.109,28058.109511
1 Jan 2020 10:11:38.000,353.677,-75.091,28199.849488
1 Jan 2020 10:12:08.000,354.718,-75.078,28342.377986
1 Jan 2020 10:12:38.000,355.748,-75.071,28485.607628
1 Jan 2020 10:13:03.298,356.609,-75.069,28606.870472
1 Jan 2020 11:30:24.046,214.346,-75.075,28610.642884
1 Jan 2020 11:30:54.000,215.067,-75.078,28440.518862
1 Jan 2020 11:31:24.000,215.794,-75.090,28270.156098
1 Jan 2020 11:31:54.000,216.524,-75.109,28099.926370
1 Jan 2020 11:32:24.000,217.260,-75.137,27929.941221
1 Jan 2020 11:32:54.000,218.001,-75.172,27760.314444
1 Jan 2020 11:33:24.000,218.749,-75.216,27591.162068
1 Jan 2020 11:33:54.000,219.505,-75.268,27422.602334
1 Jan 2020 11:34:24.000,220.270,-75.329,27254.755668
1 Jan 2020 11:34:54.000,221.044,-75.399,27087.744651
1 Jan 2020 11:35:24.000,221.828,-75.477,26921.693972
1 Jan 2020 11:35:54.000,222.625,-75.564,26756.730385
1 Jan 2020 11:36:24.000,223.434,-75.659,26592.982644
1 Jan 2020 11:36:54.000,224.258,-75.764,26430.581442
1 Jan 2020 11:37:24.000,225.097,-75.878,26269.659328
1 Jan 2020 11:37:54.000,225.954,-76.000,26110.350625
1 Jan 2020 11:38:24.000,226.829,-76.132,25952.791327
1 Jan 2020 11:38:54.000,227.725,-76.272,25797.118990
1 Jan 2020 11:39:24.000,228.643,-76.422,25643.472608
1 Jan 2020 11:39:54.000,229.586,-76.580,25491.992479
1 Jan 2020 11:40:24.000,230.555,-76.747,25342.820055
1 Jan 2020 11:40:54.000,231.552,-76.922,25196.097499
1 Jan 2020 11:41:24.000,232.582,-77.106,25051.968626
1 Jan 2020 11:41:54.000,233.645,-77.299,24910.577024
1 Jan 2020 11:42:24.000,234.746,-77.499,24772.066981
1 Jan 2020 11:42:54.000,235.888,-77.708,24636.582969
1 Jan 2020 11:43:24.000,237.074,-77.923,24504.269412
1 Jan 2020 11:43:54.000,238.308,-78.146,24375.270433
1 Jan 2020 11:44:24.000,239.595,-78.376,24249.729578
1 Jan 2020 11:44:54.000,240.939,-78.612,24127.789542
1 Jan 2020 11:45:24.000,242.346,-78.853,24009.591636
1 Jan 2020 11:45:54.000,243.822,-79.100,23895.276391
1 Jan 2020 11:46:24.000,245.372,-79.351,23784.981854
1 Jan 2020 11:46:54.000,247.003,-79.606,23678.844178
1 Jan 2020 11:47:24.000,248.722,-79.864,23576.997043
1 Jan 2020 11:47:54.000,250.538,-80.123,23479.571293
1 Jan 2020 11:48:24.000,252.459,-80.384,23386.694583
1 Jan 2020 11:48:54.000,254.494,-80.644,23298.490836
1 Jan 2020 11:49:24.000,256.651,-80.902,23215.080535
1 Jan 2020 11:49:54.000,258.941,-81.157,23136.579345
1 Jan 2020 11:50:24.000,261.374,-81.407,23063.098417
1 Jan 2020 11:50:54.000,263.958,-81.651,22994.743842
1 Jan 2020 11:51:24.000,266.703,-81.887,22931.616295
1 Jan 2020 11:51:54.000,269.616,-82.112,22873.810572
1 Jan 2020 11:52:24.000,272.703,-82.325,22821.415655
1 Jan 2020 11:52:54.000,275.968,-82.522,22774.513762
1 Jan 2020 11:53:24.000,279.409,-82.703,22733.180457
1 Jan 2020 11:53:54.000,283.023,-82.864,22697.484248
1 Jan 2020 11:54:24.000,286.799,-83.004,22667.486320
1 Jan 2020 11:54:54.000,290.720,-83.119,22643.240257
1 Jan 2020 11:55:24.000,294.765,-83.209,22624.791963
1 Jan 2020 11:55:54.000,298.906,-83.271,22612.179247
1 Jan 2020 11:56:24.000,303.108,-83.304,22605.431831
1 Jan 2020 11:56:54.000,307.335,-83.309,22604.571178
1 Jan 2020 11:57:24.000,311.549,-83.284,22609.610406
1 Jan 2020 11:57:54.000,315.712,-83.229,22620.554276
1 Jan 2020 11:58:24.000,319.789,-83.147,22637.399002
1 Jan 2020 11:58:54.000,323.749,-83.038,22660.132502
1 Jan 2020 11:59:24.000,327.568,-82.904,22688.734301
1 Jan 2020 11:59:54.000,331.226,-82.748,22723.175657
1 Jan 2020 12:00:24.000,334.712,-82.570,22763.419669
1 Jan 2020 12:00:54.000,338.017,-82.374,22809.421557
1 Jan 2020 12:01:24.000,341.140,-82.163,22861.128371
1 Jan 2020 12:01:54.000,344.082,-81.937,22918.479887
1 Jan 2020 12:02:24.000,346.848,-81.700,22981.408401
1 Jan 2020 12:02:54.000,349.446,-81.454,23049.839097
1 Jan 2020 12:03:24.000,351.884,-81.200,23123.690336
1 Jan 2020 12:03:54.000,354.170,-80.941,23202.874129
1 Jan 2020 12:04:24.000,356.315,-80.677,23287.295770
1 Jan 2020 12:04:54.000,358.327,-80.412,23376.855190
1 Jan 2020 12:05:24.000,0.218,-80.145,23471.446630
1 Jan 2020 12:05:54.000,1.995,-79.879,23570.959165
1 Jan 2020 12:06:24.000,3.667,-79.615,23675.277057
1 Jan 2020 12:06:54.000,5.243,-79.353,23784.280123
1 Jan 2020 12:07:24.000,6.729,-79.094,23897.844341
1 Jan 2020 12:07:54.000,8.133,-78.840,24015.841239
1 Jan 2020 12:08:24.000,9.462,-78.591,24138.139702
1 Jan 2020 12:08:54.000,10.720,-78.348,24264.605367
1 Jan 2020 12:09:24.000,11.913,-78.111,24395.101208
1 Jan 2020 12:09:54.000,13.047,-77.881,24529.487869
1 Jan 2020 12:10:24.000,14.126,-77.658,24667.623994
1 Jan 2020 12:10:54.000,15.153,-77.444,24809.366540
1 Jan 2020 12:11:24.000,16.133,-77.237,24954.571082
1 Jan 2020 12:11:54.000,17.069,-77.039,25103.092402
1 Jan 2020 12:12:24.000,17.964,-76.850,25254.783562
1 Jan 2020 12:12:54.000,18.821,-76.670,25409.497964
1 Jan 2020 12:13:24.000,19.643,-76.500,25567.088404
1 Jan 2020 12:13:54.000,20.432,-76.338,25727.407601
1 Jan 2020 12:14:24.000,21.190,-76.186,25890.308417
1 Jan 2020 12:14:54.000,21.919,-76.044,26055.644057
1 Jan 2020 12:15:24.000,22.621,-75.912,26223.268260
1 Jan 2020 12:15:54.000,23.298,-75.789,26393.035473
1 Jan 2020 12:16:24.000,23.951,-75.676,26564.801014
1 Jan 2020 12:16:54.000,24.582,-75.573,26738.421220
1 Jan 2020 12:17:24.000,25.192,-75.480,26913.753578
1 Jan 2020 12:17:54.000,25.783,-75.397,27090.656856
1 Jan 2020 12:18:24.000,26.355,-75.323,27268.991205
1 Jan 2020 12:18:54.000,26.910,-75.259,27448.618269
1 Jan 2020 12:19:24.000,27.448,-75.205,27629.401266
1 Jan 2020 12:19:54.000,27.971,-75.160,27811.205073
1 Jan 2020 12:20:24.000,28.479,-75.125,27993.896298
1 Jan 2020 12:20:54.000,28.974,-75.099,28177.343335
1 Jan 2020 12:21:24.000,29.455,-75.082,28361.416425
1 Jan 2020 12:21:54.000,29.924,-75.074,28545.987697
1 Jan 2020 12:22:04.565,30.087,-75.074,28611.082569
1 Jan 2020 13:34:25.529,215.370,-75.071,28609.411716
1 Jan 2020 13:34:55.000,215.221,-75.076,28419.883823
1 Jan 2020 13:35:25.000,215.062,-75.090,28227.161023
1 Jan 2020 13:35:55.000,214.893,-75.115,28034.780516
1 Jan 2020 13:36:25.000,214.714,-75.150,27842.876999
1 Jan 2020 13:36:55.000,214.525,-75.196,27651.587592
1 Jan 2020 13:37:25.000,214.327,-75.252,27461.051809
1 Jan 2020 13:37:55.000,214.117,-75.319,27271.411517
1 Jan 2020 13:38:25.000,213.895,-75.397,27082.810891
1 Jan 2020 13:38:55.000,213.662,-75.486,26895.396361
1 Jan 2020 13:39:25.000,213.416,-75.586,26709.316540
1 Jan 2020 13:39:55.000,213.156,-75.698,26524.722151
1 Jan 2020 13:40:25.000,212.882,-75.821,26341.765935
1 Jan 2020 13:40:55.000,212.593,-75.956,26160.602549
1 Jan 2020 13:41:25.000,212.289,-76.103,25981.388450
1 Jan 2020 13:41:55.000,211.967,-76.261,25804.281767
1 Jan 2020 13:42:25.000,211.626,-76.431,25629.442149
1 Jan 2020 13:42:55.000,211.266,-76.613,25457.030608
1 Jan 2020 13:43:25.000,210.885,-76.807,25287.209338
1 Jan 2020 13:43:55.000,210.482,-77.013,25120.141172
1 Jan 2020 13:44:25.000,210.054,-77.231,24955.990756
1 Jan 2020 13:44:55.000,209.599,-77.460,24794.922225
1 Jan 2020 13:45:25.000,209.115,-77.702,24637.100345
1 Jan 2020 13:45:55.000,208.600,-77.954,24482.689895
1 Jan 2020 13:46:25.000,208.050,-78.219,24331.855371
1 Jan 2020 13:46:55.000,207.462,-78.494,24184.760673
1 Jan 2020 13:47:25.000,206.833,-78.781,24041.568777
1 Jan 2020 13:47:55.000,206.157,-79.078,23902.441108
1 Jan 2020 13:48:25.000,205.430,-79.386,23767.538273
1 Jan 2020 13:48:55.000,204.645,-79.704,23637.018012
1 Jan 2020 13:49:25.000,203.797,-80.031,23511.035910
1 Jan 2020 13:49:55.000,202.876,-80.368,23389.744701
1 Jan 2020 13:50:25.000,201.874,-80.713,23273.293835
1 Jan 2020 13:50:55.000,200.779,-81.066,23161.829038
1 Jan 2020 13:51:25.000,199.579,-81.426,23055.491629
1 Jan 2020 13:51:55.000,198.258,-81.792,22954.419008
1 Jan 2020 13:52:25.000,196.798,-82.164,22858.742762
1 Jan 2020 13:52:55.000,195.176,-82.539,22768.589172
1 Jan 2020 13:53:25.000,193.366,-82.917,22684.078516
1 Jan 2020 13:53:55.000,191.335,-83.295,22605.324615
1 Jan 2020 13:54:25.000,189.046,-83.672,22532.434239
1 Jan 2020 13:54:55.000,186.452,-84.045,22465.507334
1 Jan 2020 13:55:25.000,183.498,-84.412,22404.635618
1 Jan 2020 13:55:55.000,180.117,-84.769,22349.902875
1 Jan 2020 13:56:25.000,176.238,-85.110,22301.384426
1 Jan 2020 13:56:55.000,171.777,-85.432,22259.146717
1 Jan 2020 13:57:25.000,166.656,-85.727,22223.247372
1 Jan 2020 13:57:55.000,160.809,-85.988,22193.734393
1 Jan 2020 13:58:25.000,154.210,-86.205,22170.646313
1 Jan 2020 13:58:55.000,146.900,-86.371,22154.011924
1 Jan 2020 13:59:25.000,139.016,-86.477,22143.850117
1 Jan 2020 13:59:55.000,130.800,-86.516,22140.169896
1 Jan 2020 14:00:25.000,122.562,-86.486,22142.970166
1 Jan 2020 14:00:55.000,114.615,-86.390,22152.239858
1 Jan 2020 14:01:25.000,107.213,-86.233,22167.957952
1 Jan 2020 14:01:55.000,100.505,-86.022,22190.093610
1 Jan 2020 14:02:25.000,94.543,-85.768,22218.606164
1 Jan 2020 14:02:55.000,89.309,-85.479,22253.445520
1 Jan 2020 14:03:25.000,84.739,-85.162,22294.552250
1 Jan 2020 14:03:55.000,80.755,-84.825,22341.857892
1 Jan 2020 14:04:25.000,77.276,-84.473,22395.285350
1 Jan 2020 14:04:55.000,74.225,-84.110,22454.748842
1 Jan 2020 14:05:25.000,71.538,-83.741,22520.154831
1 Jan 2020 14:05:55.000,69.156,-83.367,22591.402052
1 Jan 2020 14:06:25.000,67.034,-82.992,22668.382010
1 Jan 2020 14:06:55.000,65.131,-82.618,22750.979419
1 Jan 2020 14:07:25.000,63.415,-82.246,22839.072818
1 Jan 2020 14:07:55.000,61.858,-81.877,22932.534324
1 Jan 2020 14:08:25.000,60.438,-81.514,23031.231144
1 Jan 2020 14:08:55.000,59.135,-81.157,23135.025349
1 Jan 2020 14:09:25.000,57.935,-80.807,23243.774513
1 Jan 2020 14:09:55.000,56.823,-80.464,23357.332174
1 Jan 2020 14:10:25.000,55.788,-80.130,23475.548290
1 Jan 2020 14:10:55.000,54.821,-79.805,23598.269932
1 Jan 2020 14:11:25.000,53.914,-79.489,23725.340746
1 Jan 2020 14:11:55.000,53.059,-79.183,23856.602823
1 Jan 2020 14:12:25.000,52.251,-78.887,23991.896151
1 Jan 2020 14:12:55.000,51.484,-78.602,24131.059240
1 Jan 2020 14:13:25.000,50.754,-78.328,24273.929496
1 Jan 2020 14:13:55.000,50.056,-78.064,24420.343576
1 Jan 2020 14:14:25.000,49.387,-77.812,24570.137721
1 Jan 2020 14:14:55.000,48.744,-77.571,24723.148070
1 Jan 2020 14:15:25.000,48.125,-77.341,24879.210956
1 Jan 2020 14:15:55.000,47.526,-77.123,25038.163494
1 Jan 2020 14:16:25.000,46.946,-76.916,25199.842578
1 Jan 2020 14:16:55.000,46.383,-76.721,25364.086995
1 Jan 2020 14:17:25.000,45.835,-76.537,25530.736394
1 Jan 2020 14:17:55.000,45.300,-76.365,25699.631789
1 Jan 2020 14:18:25.000,44.777,-76.204,25870.615744
1 Jan 2020 14:18:55.000,44.264,-76.054,26043.532529
1 Jan 2020 14:19:25.000,43.761,-75.915,26218.228265
1 Jan 2020 14:19:55.000,43.266,-75.788,26394.551058
1 Jan 2020 14:20:25.000,42.779,-75.672,26572.351106
1 Jan 2020 14:20:55.000,42.298,-75.566,26751.480806
1 Jan 2020 14:21:25.000,41.822,-75.471,26931.794835
1 Jan 2020 14:21:55.000,41.352,-75.387,27113.150230
1 Jan 2020 14:22:25.000,40.885,-75.313,27295.406449
1 Jan 2020 14:22:55.000,40.422,-75.250,27478.425424
1 Jan 2020 14:23:25.000,39.961,-75.197,27662.071603
1 Jan 2020 14:23:55.000,39.502,-75.153,27846.211989
1 Jan 2020 14:24:25.000,39.045,-75.120,28030.716160
1 Jan 2020 14:24:55.000,38.588,-75.096,28215.456292
1 Jan 2020 14:25:25.000,38.132,-75.081,28400.307170
1 Jan 2020 14:25:55.000,37.675,-75.075,28585.146190
1 Jan 2020 14:25:58.669,37.620,-75.075,28607.744154
1 Jan 2020 15:41:00.806,190.934,-75.066,28602.047163
1 Jan 2020 15:41:30.000,190.041,-75.069,28451.359545
1 Jan 2020 15:42:00.000,189.112,-75.078,28297.237271
1 Jan 2020 15:42:30.000,188.170,-75.094,28143.948905
1 Jan 2020 15:43:00.000,187.213,-75.116,27991.594368
1 Jan 2020 15:43:30.000,186.242,-75.145,27840.274365
1 Jan 2020 15:44:00.000,185.255,-75.179,27690.090326
1 Jan 2020 15:44:30.000,184.252,-75.220,27541.144342
1 Jan 2020 15:45:00.000,183.231,-75.268,27393.539101
1 Jan 2020 15:45:30.000,182.192,-75.321,27247.377810
1 Jan 2020 15:46:00.000,181.133,-75.381,27102.764118
1 Jan 2020 15:46:30.000,180.054,-75.446,26959.802032
1 Jan 2020 15:47:00.000,178.953,-75.518,26818.595825
1 Jan 2020 15:47:30.000,177.829,-75.596,26679.249940
1 Jan 2020 15:48:00.000,176.682,-75.679,26541.868887
1 Jan 2020 15:48:30.000,175.509,-75.768,26406.557134
1 Jan 2020 15:49:00.000,174.311,-75.862,26273.418990
1 Jan 2020 15:49:30.000,173.084,-75.961,26142.558486
1 Jan 2020 15:50:00.000,171.829,-76.066,26014.078970
1 Jan 2020 15:50:30.000,170.543,-76.175,25888.084075
1 Jan 2020 15:51:00.000,169.226,-76.289,25764.675921
1 Jan 2020 15:51:30.000,167.875,-76.407,25643.956076
1 Jan 2020 15:52:00.000,166.490,-76.528,25526.025126
1 Jan 2020 15:52:30.000,165.068,-76.654,25410.982519
1 Jan 2020 15:53:00.000,163.609,-76.783,25298.926399
1 Jan 2020 15:53:30.000,162.110,-76.914,25189.953441
1 Jan 2020 15:54:00.000,160.570,-77.048,25084.158675
1 Jan 2020 15:54:30.000,158.988,-77.184,24981.635315
1 Jan 2020 15:55:00.000,157.362,-77.322,24882.474356
1 Jan 2020 15:55:30.000,155.690,-77.460,24786.765276
1 Jan 2020 15:56:00.000,153.972,-77.599,24694.594521
1 Jan 2020 15:56:30.000,152.205,-77.738,24606.046210
1 Jan 2020 15:57:00.000,150.388,-77.877,24521.201730
1 Jan 2020 15:57:30.000,148.521,-78.014,24440.139547
1 Jan 2020 15:58:00.000,146.603,-78.149,24362.935027
1 Jan 2020 15:58:30.000,144.632,-78.282,24289.660249
1 Jan 2020 15:59:00.000,142.609,-78.412,24220.383681
1 Jan 2020 15:59:30.000,140.534,-78.538,24155.170618
1 Jan 2020 16:00:00.000,138.405,-78.659,24094.082084
1 Jan 2020 16:00:30.000,136.225,-78.775,24037.175300
1 Jan 2020 16:01:00.000,133.995,-78.886,23984.503368
1 Jan 2020 16:01:30.000,131.714,-78.989,23936.115131
1 Jan 2020 16:02:00.000,129.387,-79.086,23892.055034
1 Jan 2020 16:02:30.000,127.015,-79.175,23852.362918
1 Jan 2020 16:03:00.000,124.600,-79.255,23817.074252
1 Jan 2020 16:03:30.000,122.148,-79.327,23786.219497
1 Jan 2020 16:04:00.000,119.661,-79.389,23759.824383
1 Jan 2020 16:04:30.000,117.145,-79.441,23737.909744
1 Jan 2020 16:05:00.000,114.604,-79.483,23720.491457
1 Jan 2020 16:05:30.000,112.043,-79.514,23707.580394
1 Jan 2020 16:06:00.000,109.469,-79.534,23699.182375
1 Jan 2020 16:06:30.000,106.886,-79.544,23695.298247
1 Jan 2020 16:07:00.000,104.302,-79.543,23695.923727
1 Jan 2020 16:07:30.000,101.721,-79.530,23701.049535
1 Jan 2020 16:08:00.000,99.151,-79.507,23710.661392
1 Jan 2020 16:08:30.000,96.596,-79.473,23724.740072
1 Jan 2020 16:09:00.000,94.062,-79.429,23743.261462
1 Jan 2020 16:09:30.000,91.553,-79.375,23766.196681
1 Jan 2020 16:10:00.000,89.076,-79.311,23793.512012
1 Jan 2020 16:10:30.000,86.633,-79.239,23825.169233
1 Jan 2020 16:11:00.000,84.229,-79.157,23861.125591
1 Jan 2020 16:11:30.000,81.867,-79.068,23901.333966
1 Jan 2020 16:12:00.000,79.549,-78.971,23945.743006
1 Jan 2020 16:12:30.000,77.277,-78.868,23994.297285
1 Jan 2020 16:13:00.000,75.054,-78.758,24046.937449
1 Jan 2020 16:13:30.000,72.880,-78.643,24103.600514
1 Jan 2020 16:14:00.000,70.755,-78.523,24164.219564
1 Jan 2020 16:14:30.000,68.681,-78.399,24228.724620
1 Jan 2020 16:15:00.000,66.658,-78.272,24297.042372
1 Jan 2020 16:15:30.000,64.684,-78.142,24369.096482
1 Jan 2020 16:16:00.000,62.760,-78.010,24444.807765
1 Jan 2020 16:16:30.000,60.884,-77.876,24524.094390
1 Jan 2020 16:17:00.000,59.056,-77.741,24606.872064
1 Jan 2020 16:17:30.000,57.274,-77.606,24693.054231
1 Jan 2020 16:18:00.000,55.537,-77.471,24782.552434
1 Jan 2020 16:18:30.000,53.843,-77.337,24875.275801
1 Jan 2020 16:19:00.000,52.192,-77.203,24971.132281
1 Jan 2020 16:19:30.000,50.581,-77.071,25070.028133
1 Jan 2020 16:20:00.000,49.009,-76.942,25171.868275
1 Jan 2020 16:20:30.000,47.475,-76.814,25276.556460
1 Jan 2020 16:21:00.000,45.976,-76.690,25383.995441
1 Jan 2020 16:21:30.000,44.512,-76.568,25494.087142
1 Jan 2020 16:22:00.000,43.081,-76.450,25606.732805
1 Jan 2020 16:22:30.000,41.681,-76.335,25721.833152
1 Jan 2020 16:23:00.000,40.310,-76.225,25839.288521
1 Jan 2020 16:23:30.000,38.968,-76.118,25958.999011
1 Jan 2020 16:24:00.000,37.653,-76.017,26080.864611
1 Jan 2020 16:24:30.000,36.364,-75.919,26204.785571
1 Jan 2020 16:25:00.000,35.099,-75.827,26330.661538
1 Jan 2020 16:25:30.000,33.857,-75.739,26458.393136
1 Jan 2020 16:26:00.000,32.636,-75.657,26587.881096
1 Jan 2020 16:26:30.000,31.437,-75.579,26719.026596
1 Jan 2020 16:27:00.000,30.257,-75.507,26851.731352
1 Jan 2020 16:27:30.000,29.095,-75.440,26985.897703
1 Jan 2020 16:28:00.000,27.950,-75.379,27121.428691
1 Jan 2020 16:28:30.000,26.822,-75.324,27258.228133
1 Jan 2020 16:29:00.000,25.709,-75.273,27396.200688
1 Jan 2020 16:29:30.000,24.611,-75.229,27535.251916
1 Jan 2020 16:30:00.000,23.526,-75.190,27675.288338
1 Jan 2020 16:30:30.000,22.454,-75.157,27816.217484
1 Jan 2020 16:31:00.000,21.394,-75.129,27957.947937
1 Jan 2020 16:31:30.000,20.344,-75.107,28100.389378
1 Jan 2020 16:32:00.000,19.305,-75.090,28243.452620
1 Jan 2020 16:32:30.000,18.276,-75.079,28387.049641
1 Jan 2020 16:33:00.000,17.255,-75.074,28531.093611
1 Jan 2020 16:33:14.273,16.772,-75.073,28599.755128
1 Jan 2020 17:52:14.134,152.201,-75.065,28594.615361
1 Jan 2020 17:52:44.000,151.297,-75.069,28439.964450
1 Jan 2020 17:53:14.000,150.383,-75.078,28284.789766
1 Jan 2020 17:53:44.000,149.462,-75.094,28129.882336
1 Jan 2020 17:54:14.000,148.534,-75.117,27975.339904
1 Jan 2020 17:54:44.000,147.596,-75.147,27821.261971
1 Jan 2020 17:55:14.000,146.650,-75.183,27667.749779
1 Jan 2020 17:55:44.000,145.692,-75.226,27514.906281
1 Jan 2020 17:56:14.000,144.724,-75.276,27362.836111
1 Jan 2020 17:56:44.000,143.743,-75.333,27211.645545
1 Jan 2020 17:57:14.000,142.749,-75.396,27061.442459
1 Jan 2020 17:57:44.000,141.740,-75.467,26912.336280
1 Jan 2020 17:58:14.000,140.715,-75.544,26764.437925
1 Jan 2020 17:58:44.000,139.674,-75.629,26617.859743
1 Jan 2020 17:59:14.000,138.614,-75.720,26472.715439
1 Jan 2020 17:59:44.000,137.535,-75.818,26329.119994
1 Jan 2020 18:00:14.000,136.435,-75.923,26187.189580
1 Jan 2020 18:00:44.000,135.312,-76.034,26047.041459
1 Jan 2020 18:01:14.000,134.165,-76.152,25908.793880
1 Jan 2020 18:01:44.000,132.992,-76.276,25772.565960
1 Jan 2020 18:02:14.000,131.792,-76.407,25638.477562
1 Jan 2020 18:02:44.000,130.562,-76.544,25506.648907
1 Jan 2020 18:03:14.000,129.300,-76.686,25377.201426
1 Jan 2020 18:03:44.000,128.004,-76.834,25250.256103
1 Jan 2020 18:04:14.000,126.673,-76.988,25125.934310
1 Jan 2020 18:04:44.000,125.303,-77.147,25004.357382
1 Jan 2020 18:05:14.000,123.892,-77.310,24885.646423
1 Jan 2020 18:05:44.000,122.438,-77.478,24769.922109
1 Jan 2020 18:06:14.000,120.937,-77.649,24657.304480
1 Jan 2020 18:06:44.000,119.388,-77.824,24547.912718
1 Jan 2020 18:07:14.000,117.786,-78.002,24441.864924
1 Jan 2020 18:07:44.000,116.129,-78.183,24339.277670
1 Jan 2020 18:08:14.000,114.414,-78.365,24240.266574
1 Jan 2020 18:08:44.000,112.637,-78.548,24144.944812
1 Jan 2020 18:09:14.000,110.796,-78.732,24053.423687
1 Jan 2020 18:09:44.000,108.887,-78.915,23965.812149
1 Jan 2020 18:10:14.000,106.907,-79.097,23882.216534
1 Jan 2020 18:10:44.000,104.853,-79.277,23802.740280
1 Jan 2020 18:11:14.000,102.723,-79.453,23727.483656
1 Jan 2020 18:11:44.000,100.514,-79.626,23656.543351
1 Jan 2020 18:12:14.000,98.225,-79.794,23590.012745
1 Jan 2020 18:12:44.000,95.854,-79.956,23527.980797
1 Jan 2020 18:13:14.000,93.400,-80.110,23470.532349
1 Jan 2020 18:13:44.000,90.864,-80.257,23417.747712
1 Jan 2020 18:14:14.000,88.247,-80.393,23369.702419
1 Jan 2020 18:14:44.000,85.551,-80.520,23326.466972
1 Jan 2020 18:15:14.000,82.781,-80.634,23288.106550
1 Jan 2020 18:15:44.000,79.941,-80.736,23254.681048
1 Jan 2020 18:16:14.000,77.037,-80.825,23226.244465
1 Jan 2020 18:16:44.000,74.077,-80.899,23202.844991
1 Jan 2020 18:17:14.000,71.071,-80.957,23184.524771
1 Jan 2020 18:17:44.000,68.028,-81.000,23171.319747
1 Jan 2020 18:18:14.000,64.960,-81.026,23163.259529
1 Jan 2020 18:18:44.000,61.878,-81.035,23160.367288
1 Jan 2020 18:19:14.000,58.795,-81.028,23162.659652
1 Jan 2020 18:19:44.000,55.723,-81.004,23170.146664
1 Jan 2020 18:20:14.000,52.675,-80.963,23182.831733
1 Jan 2020 18:20:44.000,49.662,-80.906,23200.711619
1 Jan 2020 18:21:14.000,46.695,-80.833,23223.776507
1 Jan 2020 18:21:44.000,43.784,-80.745,23252.009790
1 Jan 2020 18:22:14.000,40.936,-80.643,23285.388484
1 Jan 2020 18:22:44.000,38.159,-80.528,23323.883078
1 Jan 2020 18:23:14.000,35.459,-80.401,23367.457694
1 Jan 2020 18:23:44.000,32.839,-80.262,23416.070207
1 Jan 2020 18:24:14.000,30.303,-80.114,23469.672392
1 Jan 2020 18:24:44.000,27.853,-79.956,23528.210233
1 Jan 2020 18:25:14.000,25.489,-79.791,23591.623520
1 Jan 2020 18:25:44.000,23.212,-79.619,23659.846907
1 Jan 2020 18:26:14.000,21.019,-79.442,23732.809561
1 Jan 2020 18:26:44.000,18.910,-79.260,23810.435525
1 Jan 2020 18:27:14.000,16.883,-79.075,23892.643948
1 Jan 2020 18:27:44.000,14.934,-78.887,23979.349334
1 Jan 2020 18:28:14.000,13.062,-78.698,24070.461992
1 Jan 2020 18:28:44.000,11.263,-78.508,24165.887510
1 Jan 2020 18:29:14.000,9.534,-78.319,24265.528178
1 Jan 2020 18:29:44.000,7.873,-78.131,24369.282488
1 Jan 2020 18:30:14.000,6.274,-77.944,24477.045587
1 Jan 2020 18:30:44.000,4.737,-77.760,24588.709545
1 Jan 2020 18:31:14.000,3.257,-77.578,24704.163615
1 Jan 2020 18:31:44.000,1.832,-77.401,24823.294498
1 Jan 2020 18:32:14.000,0.459,-77.228,24945.986592
1 Jan 2020 18:32:44.000,359.134,-77.059,25072.122519
1 Jan 2020 18:33:14.000,357.856,-76.895,25201.582290
1 Jan 2020 18:33:44.000,356.621,-76.737,25334.245146
1 Jan 2020 18:34:14.000,355.428,-76.585,25469.988726
1 Jan 2020 18:34:44.000,354.274,-76.439,25608.689552
1 Jan 2020 18:35:14.000,353.156,-76.299,25750.223237
1 Jan 2020 18:35:44.000,352.074,-76.167,25894.464693
1 Jan 2020 18:36:14.000,351.024,-76.041,26041.288320
1 Jan 2020 18:36:44.000,350.005,-75.922,26190.568191
1 Jan 2020 18:37:14.000,349.016,-75.811,26342.178224
1 Jan 2020 18:37:44.000,348.054,-75.707,26495.992348
1 Jan 2020 18:38:14.000,347.118,-75.611,26651.884653
1 Jan 2020 18:38:44.000,346.208,-75.522,26809.729538
1 Jan 2020 18:39:14.000,345.320,-75.441,26969.401844
1 Jan 2020 18:39:44.000,344.454,-75.368,27130.776978
1 Jan 2020 18:40:14.000,343.609,-75.303,27293.731349
1 Jan 2020 18:40:44.000,342.784,-75.246,27458.141198
1 Jan 2020 18:41:14.000,341.978,-75.197,27623.884609
1 Jan 2020 18:41:44.000,341.189,-75.156,27790.840332
1 Jan 2020 18:42:14.000,340.416,-75.123,27958.888173
1 Jan 2020 18:42:44.000,339.659,-75.097,28127.909078
1 Jan 2020 18:43:14.000,338.917,-75.080,28297.785198
1 Jan 2020 18:43:44.000,338.188,-75.070,28468.399949
1 Jan 2020 18:44:05.925,337.664,-75.068,28593.493382
1 Jan 2020 19:57:22.904,142.261,-75.068,28593.475470
1 Jan 2020 19:57:52.000,142.114,-75.073,28406.411400
1 Jan 2020 19:58:22.000,141.967,-75.088,28213.573393
1 Jan 2020 19:58:52.000,141.825,-75.113,28020.906463
1 Jan 2020 19:59:22.000,141.688,-75.148,27828.543722
1 Jan 2020 19:59:52.000,141.555,-75.194,27636.620970
1 Jan 2020 20:00:22.000,141.426,-75.250,27445.276679
1 Jan 2020 20:00:52.000,141.302,-75.318,27254.651974
1 Jan 2020 20:01:22.000,141.182,-75.397,27064.890597
1 Jan 2020 20:01:52.000,141.066,-75.487,26876.138872
1 Jan 2020 20:02:22.000,140.954,-75.589,26688.545647
1 Jan 2020 20:02:52.000,140.847,-75.703,26502.262243
1 Jan 2020 20:03:22.000,140.743,-75.828,26317.442373
1 Jan 2020 20:03:52.000,140.644,-75.966,26134.242062
1 Jan 2020 20:04:22.000,140.548,-76.115,25952.819543
1 Jan 2020 20:04:52.000,140.456,-76.277,25773.335149
1 Jan 2020 20:05:22.000,140.368,-76.452,25595.951179
1 Jan 2020 20:05:52.000,140.284,-76.639,25420.831753
1 Jan 2020 20:06:22.000,140.204,-76.838,25248.142653
1 Jan 2020 20:06:52.000,140.128,-77.051,25078.050821
1 Jan 2020 20:07:22.000,140.055,-77.276,24910.725423
1 Jan 2020 20:07:52.000,139.987,-77.514,24746.335728
1 Jan 2020 20:08:22.000,139.922,-77.765,24585.052139
1 Jan 2020 20:08:52.000,139.861,-78.029,24427.045608
1 Jan 2020 20:09:22.000,139.805,-78.306,24272.487355
1 Jan 2020 20:09:52.000,139.752,-78.595,24121.548557
1 Jan 2020 20:10:22.000,139.704,-78.897,23974.400026
1 Jan 2020 20:10:52.000,139.660,-79.212,23831.211586
1 Jan 2020 20:11:22.000,139.621,-79.539,23692.152780
1 Jan 2020 20:11:52.000,139.586,-79.879,23557.390852
1 Jan 2020 20:12:22.000,139.556,-80.231,23427.091425
1 Jan 2020 20:12:52.000,139.531,-80.594,23301.417794
1 Jan 2020 20:13:22.000,139.512,-80.970,23180.530478
1 Jan 2020 20:13:52.000,139.498,-81.356,23064.586759
1 Jan 2020 20:14:22.000,139.491,-81.754,22953.739967
1 Jan 2020 20:14:52.000,139.492,-82.163,22848.139942
1 Jan 2020 20:15:22.000,139.500,-82.582,22747.931098
1 Jan 2020 20:15:52.000,139.517,-83.011,22653.252897
1 Jan 2020 20:16:22.000,139.544,-83.449,22564.239098
1 Jan 2020 20:16:52.000,139.584,-83.896,22481.017262
1 Jan 2020 20:17:22.000,139.639,-84.352,22403.708096
1 Jan 2020 20:17:52.000,139.711,-84.816,22332.425632
1 Jan 2020 20:18:22.000,139.807,-85.287,22267.275752
1 Jan 2020 20:18:52.000,139.933,-85.764,22208.356427
1 Jan 2020 20:19:22.000,140.101,-86.248,22155.757117
1 Jan 2020 20:19:52.000,140.328,-86.737,22109.558294
1 Jan 2020 20:20:22.000,140.645,-87.231,22069.831428
1 Jan 2020 20:20:52.000,141.111,-87.729,22036.638116
1 Jan 2020 20:21:22.000,141.851,-88.230,22010.030167
1 Jan 2020 20:21:52.000,143.190,-88.733,21990.049264
1 Jan 2020 20:22:22.000,146.310,-89.236,21976.726744
1 Jan 2020 20:22:52.000,161.127,-89.730,21970.083542
1 Jan 2020 20:23:22.000,296.547,-89.722,21970.129925
1 Jan 2020 20:23:52.000,310.761,-89.228,21976.865567
1 Jan 2020 20:24:22.000,313.835,-88.724,21990.279515
1 Jan 2020 20:24:52.000,315.173,-88.221,22010.350291
1 Jan 2020 20:25:22.000,315.927,-87.721,22037.045819
1 Jan 2020 20:25:52.000,316.415,-87.223,22070.323821
1 Jan 2020 20:26:22.000,316.761,-86.729,22110.131877
1 Jan 2020 20:26:52.000,317.022,-86.240,22156.407698
1 Jan 2020 20:27:22.000,317.229,-85.756,22209.079530
1 Jan 2020 20:27:52.000,317.401,-85.279,22268.066056
1 Jan 2020 20:28:22.000,317.547,-84.808,22333.277385
1 Jan 2020 20:28:52.000,317.676,-84.345,22404.615045
1 Jan 2020 20:29:22.000,317.792,-83.889,22481.972506
1 Jan 2020 20:29:52.000,317.898,-83.442,22565.235629
1 Jan 2020 20:30:22.000,317.997,-83.004,22654.283332
1 Jan 2020 20:30:52.000,318.092,-82.575,22748.987292
1 Jan 2020 20:31:22.000,318.182,-82.157,22849.213587
1 Jan 2020 20:31:52.000,318.271,-81.748,22954.822445
1 Jan 2020 20:32:22.000,318.357,-81.351,23065.668929
1 Jan 2020 20:32:52.000,318.443,-80.964,23181.603433
1 Jan 2020 20:33:22.000,318.528,-80.589,23302.472183
1 Jan 2020 20:33:52.000,318.613,-80.226,23428.117996
1 Jan 2020 20:34:22.000,318.699,-79.874,23558.379674
1 Jan 2020 20:34:52.000,318.785,-79.535,23693.094075
1 Jan 2020 20:35:22.000,318.872,-79.208,23832.095498
1 Jan 2020 20:35:52.000,318.961,-78.893,23975.216378
1 Jan 2020 20:36:22.000,319.051,-78.591,24122.287698
1 Jan 2020 20:36:52.000,319.144,-78.302,24273.139379
1 Jan 2020 20:37:22.000,319.237,-78.026,24427.600651
1 Jan 2020 20:37:52.000,319.333,-77.762,24585.500401
1 Jan 2020 20:38:22.000,319.432,-77.512,24746.667825
1 Jan 2020 20:38:52.000,319.532,-77.274,24910.931452
1 Jan 2020 20:39:22.000,319.635,-77.049,25078.121335
1 Jan 2020 20:39:52.000,319.740,-76.836,25248.068047
1 Jan 2020 20:40:22.000,319.848,-76.637,25420.603237
1 Jan 2020 20:40:52.000,319.959,-76.450,25595.559850
1 Jan 2020 20:41:22.000,320.073,-76.275,25772.772324
1 Jan 2020 20:41:52.000,320.190,-76.114,25952.076774
1 Jan 2020 20:42:22.000,320.310,-75.964,26133.311152
1 Jan 2020 20:42:52.000,320.433,-75.826,26316.315392
1 Jan 2020 20:43:22.000,320.559,-75.701,26500.931538
1 Jan 2020 20:43:52.000,320.688,-75.587,26687.003857
1 Jan 2020 20:44:22.000,320.822,-75.486,26874.378937
1 Jan 2020 20:44:52.000,320.958,-75.395,27062.905771
1 Jan 2020 20:45:22.000,321.099,-75.316,27252.435829
1 Jan 2020 20:45:52.000,321.243,-75.249,27442.823117
1 Jan 2020 20:46:22.000,321.391,-75.192,27633.924230
1 Jan 2020 20:46:52.000,321.543,-75.146,27825.598385
1 Jan 2020 20:47:22.000,321.699,-75.110,28017.707459
1 Jan 2020 20:47:52.000,321.860,-75.085,28210.116004
1 Jan 2020 20:48:22.000,322.024,-75.070,28402.691267
1 Jan 2020 20:48:51.880,322.193,-75.065,28594.533834
1 Jan 2020 22:02:13.023,158.217,-75.073,28599.254987
1 Jan 2020 22:02:43.000,158.948,-75.077,28429.210189
1 Jan 2020 22:03:13.000,159.694,-75.088,28259.696062
1 Jan 2020 22:03:43.000,160.454,-75.108,28090.960195
1 Jan 2020 22:04:13.000,161.228,-75.135,27923.118663
1 Jan 2020 22:04:43.000,162.019,-75.170,27756.288754
1 Jan 2020 22:05:13.000,162.826,-75.213,27590.588901
1 Jan 2020 22:05:43.000,163.651,-75.263,27426.138618
1 Jan 2020 22:06:13.000,164.495,-75.322,27263.058416
1 Jan 2020 22:06:43.000,165.359,-75.388,27101.469722
1 Jan 2020 22:07:13.000,166.243,-75.462,26941.494787
1 Jan 2020 22:07:43.000,167.151,-75.543,26783.256583
1 Jan 2020 22:08:13.000,168.082,-75.633,26626.878696
1 Jan 2020 22:08:43.000,169.037,-75.730,26472.485205
1 Jan 2020 22:09:13.000,170.020,-75.834,26320.200561
1 Jan 2020 22:09:43.000,171.030,-75.946,26170.149446
1 Jan 2020 22:10:13.000,172.070,-76.065,26022.456628
1 Jan 2020 22:10:43.000,173.141,-76.191,25877.246520
1 Jan 2020 22:11:13.000,174.246,-76.323,25734.644179
1 Jan 2020 22:11:43.000,175.386,-76.462,25594.773374
1 Jan 2020 22:12:13.000,176.563,-76.608,25457.757583
1 Jan 2020 22:12:43.000,177.779,-76.759,25323.719500
1 Jan 2020 22:13:13.000,179.037,-76.916,25192.780835
1 Jan 2020 22:13:43.000,180.338,-77.078,25065.062106
1 Jan 2020 22:14:13.000,181.687,-77.245,24940.682414
1 Jan 2020 22:14:43.000,183.084,-77.417,24819.759221
1 Jan 2020 22:15:13.000,184.533,-77.592,24702.407869
1 Jan 2020 22:15:43.000,186.037,-77.771,24588.742321
1 Jan 2020 22:16:13.000,187.599,-77.953,24478.873430
1 Jan 2020 22:16:43.000,189.220,-78.136,24372.909686
1 Jan 2020 22:17:13.000,190.906,-78.321,24270.956705
1 Jan 2020 22:17:43.000,192.658,-78.507,24173.116975
1 Jan 2020 22:18:13.000,194.479,-78.693,24079.489595
1 Jan 2020 22:18:43.000,196.373,-78.878,23990.169833
1 Jan 2020 22:19:13.000,198.341,-79.061,23905.249604
1 Jan 2020 22:19:43.000,200.388,-79.241,23824.816101
1 Jan 2020 22:20:13.000,202.514,-79.418,23748.952293
1 Jan 2020 22:20:43.000,204.721,-79.590,23677.736496
1 Jan 2020 22:21:13.000,207.011,-79.756,23611.242132
1 Jan 2020 22:21:43.000,209.385,-79.915,23549.537508
1 Jan 2020 22:22:13.000,211.842,-80.067,23492.685462
1 Jan 2020 22:22:43.000,214.381,-80.209,23440.743709
1 Jan 2020 22:23:13.000,216.999,-80.341,23393.763821
1 Jan 2020 22:23:43.000,219.694,-80.462,23351.791620
1 Jan 2020 22:24:13.000,222.461,-80.571,23314.866881
1 Jan 2020 22:24:43.000,225.294,-80.667,23283.023199
1 Jan 2020 22:25:13.000,228.185,-80.749,23256.287809
1 Jan 2020 22:25:43.000,231.128,-80.816,23234.681756
1 Jan 2020 22:26:13.000,234.111,-80.867,23218.219415
1 Jan 2020 22:26:43.000,237.125,-80.903,23206.908729
1 Jan 2020 22:27:13.000,240.158,-80.922,23200.751104
1 Jan 2020 22:27:43.000,243.199,-80.926,23199.741412
1 Jan 2020 22:28:13.000,246.237,-80.912,23203.868010
1 Jan 2020 22:28:43.000,249.258,-80.883,23213.112801
1 Jan 2020 22:29:13.000,252.253,-80.837,23227.451264
1 Jan 2020 22:29:43.000,255.210,-80.777,23246.852582
1 Jan 2020 22:30:13.000,258.121,-80.701,23271.279743
1 Jan 2020 22:30:43.000,260.977,-80.612,23300.689674
1 Jan 2020 22:31:13.000,263.770,-80.510,23335.033392
1 Jan 2020 22:31:43.000,266.496,-80.395,23374.256260
1 Jan 2020 22:32:13.000,269.148,-80.270,23418.297868
1 Jan 2020 22:32:43.000,271.725,-80.134,23467.092680
1 Jan 2020 22:33:13.000,274.224,-79.989,23520.569971
1 Jan 2020 22:33:43.000,276.643,-79.837,23578.654123
1 Jan 2020 22:34:13.000,278.983,-79.677,23641.264874
1 Jan 2020 22:34:43.000,281.244,-79.512,23708.317562
1 Jan 2020 22:35:13.000,283.427,-79.342,23779.723522
1 Jan 2020 22:35:43.000,285.534,-79.168,23855.389819
1 Jan 2020 22:36:13.000,287.568,-78.992,23935.220299
1 Jan 2020 22:36:43.000,289.530,-78.813,24019.115344
1 Jan 2020 22:37:13.000,291.424,-78.634,24106.972271
1 Jan 2020 22:37:43.000,293.252,-78.454,24198.685602
1 Jan 2020 22:38:13.000,295.018,-78.274,24294.147326
1 Jan 2020 22:38:43.000,296.724,-78.096,24393.247174
1 Jan 2020 22:39:13.000,298.373,-77.920,24495.872865
1 Jan 2020 22:39:43.000,299.969,-77.745,24601.910588
1 Jan 2020 22:40:13.000,301.514,-77.574,24711.244384
1 Jan 2020 22:40:43.000,303.012,-77.407,24823.757664
1 Jan 2020 22:41:13.000,304.464,-77.243,24939.332595
1 Jan 2020 22:41:43.000,305.874,-77.083,25057.850531
1 Jan 2020 22:42:13.000,307.244,-76.928,25179.192232
1 Jan 2020 22:42:43.000,308.576,-76.778,25303.238057
1 Jan 2020 22:43:13.000,309.873,-76.633,25429.868166
1 Jan 2020 22:43:43.000,311.137,-76.494,25558.962700
