STKdata/Satellite-MEO_Satellite10107-To-Satellite-LEO_Satellite20000 AER.csv

"Time (UTCG)","Azimuth (deg)","Elevation (deg)","Range (km)"
1 Jan 2020 00:24:05.287,312.777,-75.067,28593.847616
1 Jan 2020 00:24:35.000,314.139,-75.069,28457.840558
1 Jan 2020 00:25:05.000,315.522,-75.077,28320.811047
1 Jan 2020 00:25:35.000,316.916,-75.089,28184.225796
1 Jan 2020 00:26:05.000,318.321,-75.106,28048.240693
1 Jan 2020 00:26:35.000,319.739,-75.129,27913.014110
1 Jan 2020 00:27:05.000,321.170,-75.156,27778.706766
1 Jan 2020 00:27:35.000,322.617,-75.189,27645.481574
1 Jan 2020 00:28:05.000,324.081,-75.226,27513.503473
1 Jan 2020 00:28:35.000,325.562,-75.268,27382.939248
1 Jan 2020 00:29:05.000,327.063,-75.315,27253.957329
1 Jan 2020 00:29:35.000,328.584,-75.367,27126.727583
1 Jan 2020 00:30:05.000,330.126,-75.423,27001.421073
1 Jan 2020 00:30:35.000,331.693,-75.482,26878.209818
1 Jan 2020 00:31:05.000,333.283,-75.546,26757.266522
1 Jan 2020 00:31:35.000,334.899,-75.614,26638.764292
1 Jan 2020 00:32:05.000,336.543,-75.685,26522.876335
1 Jan 2020 00:32:35.000,338.215,-75.759,26409.775638
1 Jan 2020 00:33:05.000,339.917,-75.836,26299.634492
1 Jan 2020 00:33:35.000,341.649,-75.915,26192.624710
1 Jan 2020 00:34:05.000,343.413,-75.996,26088.916385
1 Jan 2020 00:34:35.000,345.210,-76.079,25988.678096
1 Jan 2020 00:35:05.000,347.041,-76.163,25892.076351
1 Jan 2020 00:35:35.000,348.906,-76.247,25799.275183
1 Jan 2020 00:36:05.000,350.806,-76.331,25710.435718
1 Jan 2020 00:36:35.000,352.742,-76.415,25625.715745
1 Jan 2020 00:37:05.000,354.713,-76.498,25545.269177
1 Jan 2020 00:37:35.000,356.719,-76.579,25469.245982
1 Jan 2020 00:38:05.000,358.761,-76.658,25397.791153
1 Jan 2020 00:38:35.000,0.837,-76.734,25331.044650
1 Jan 2020 00:39:05.000,2.947,-76.806,25269.140844
1 Jan 2020 00:39:35.000,5.090,-76.875,25212.208080
1 Jan 2020 00:40:05.000,7.263,-76.938,25160.368232
1 Jan 2020 00:40:35.000,9.466,-76.997,25113.736243
1 Jan 2020 00:41:05.000,11.695,-77.050,25072.419874
1 Jan 2020 00:41:35.000,13.948,-77.097,25036.519056
1 Jan 2020 00:42:05.000,16.223,-77.138,25006.125694
1 Jan 2020 00:42:35.000,18.517,-77.171,24981.323276
1 Jan 2020 00:43:05.000,20.824,-77.197,24962.186545
1 Jan 2020 00:43:35.000,23.143,-77.215,24948.781238
1 Jan 2020 00:44:05.000,25.469,-77.225,24941.163741
1 Jan 2020 00:44:35.000,27.798,-77.228,24939.380972
1 Jan 2020 00:45:05.000,30.126,-77.222,24943.470138
1 Jan 2020 00:45:35.000,32.448,-77.208,24953.458590
1 Jan 2020 00:46:05.000,34.761,-77.187,24969.363725
1 Jan 2020 00:46:35.000,37.060,-77.157,24991.192998
1 Jan 2020 00:47:05.000,39.341,-77.120,25018.943566
1 Jan 2020 00:47:35.000,41.601,-77.075,25052.602784
1 Jan 2020 00:48:05.000,43.837,-77.024,25092.147955
1 Jan 2020 00:48:35.000,46.044,-76.966,25137.546498
1 Jan 2020 00:49:05.000,48.220,-76.902,25188.756087
1 Jan 2020 00:49:35.000,50.362,-76.833,25245.724971
1 Jan 2020 00:50:05.000,52.468,-76.758,25308.391611
1 Jan 2020 00:50:35.000,54.535,-76.680,25376.685769
1 Jan 2020 00:51:05.000,56.563,-76.598,25450.528232
1 Jan 2020 00:51:35.000,58.550,-76.512,25529.831249
1 Jan 2020 00:52:05.000,60.495,-76.425,25614.498863
1 Jan 2020 00:52:35.000,62.397,-76.335,25704.427450
1 Jan 2020 00:53:05.000,64.256,-76.245,25799.505360
1 Jan 2020 00:53:35.000,66.072,-76.154,25899.614390
1 Jan 2020 00:54:05.000,67.845,-76.063,26004.629469
1 Jan 2020 00:54:35.000,69.574,-75.974,26114.419255
1 Jan 2020 00:55:05.000,71.261,-75.885,26228.846549
1 Jan 2020 00:55:35.000,72.907,-75.799,26347.768723
1 Jan 2020 00:56:05.000,74.511,-75.716,26471.038372
1 Jan 2020 00:56:35.000,76.076,-75.635,26598.502831
1 Jan 2020 00:57:05.000,77.601,-75.559,26730.005956
1 Jan 2020 00:57:35.000,79.088,-75.486,26865.387636
1 Jan 2020 00:58:05.000,80.539,-75.418,27004.484430
1 Jan 2020 00:58:35.000,81.953,-75.355,27147.129962
1 Jan 2020 00:59:05.000,83.334,-75.297,27293.155310
1 Jan 2020 00:59:35.000,84.681,-75.245,27442.389382
1 Jan 2020 01:00:05.000,85.996,-75.199,27594.659279
1 Jan 2020 01:00:35.000,87.281,-75.159,27749.790638
1 Jan 2020 01:01:05.000,88.537,-75.126,27907.608245
1 Jan 2020 01:01:35.000,89.765,-75.100,28067.935255
1 Jan 2020 01:02:05.000,90.965,-75.080,28230.595124
1 Jan 2020 01:02:35.000,92.141,-75.068,28395.410813
1 Jan 2020 01:03:05.000,93.292,-75.063,28562.205323
1 Jan 2020 01:03:10.793,93.512,-75.063,28594.623761
1 Jan 2020 02:06:49.143,285.720,-75.071,28599.114685
1 Jan 2020 02:07:19.000,286.020,-75.078,28380.725795
1 Jan 2020 02:07:49.000,286.315,-75.097,28161.241240
1 Jan 2020 02:08:19.000,286.603,-75.129,27941.909717
1 Jan 2020 02:08:49.000,286.886,-75.175,27722.936075
1 Jan 2020 02:09:19.000,287.164,-75.236,27504.529959
1 Jan 2020 02:09:49.000,287.437,-75.310,27286.905777
1 Jan 2020 02:10:19.000,287.706,-75.399,27070.282640
1 Jan 2020 02:10:49.000,287.971,-75.502,26854.884295
1 Jan 2020 02:11:19.000,288.232,-75.621,26640.939025
1 Jan 2020 02:11:49.000,288.491,-75.756,26428.679529
1 Jan 2020 02:12:19.000,288.747,-75.905,26218.342770
1 Jan 2020 02:12:49.000,289.002,-76.071,26010.169802
1 Jan 2020 02:13:19.000,289.255,-76.253,25804.405556
1 Jan 2020 02:13:49.000,289.508,-76.452,25601.298593
1 Jan 2020 02:14:19.000,289.761,-76.666,25401.100823
1 Jan 2020 02:14:49.000,290.015,-76.898,25204.067176
1 Jan 2020 02:15:19.000,290.270,-77.146,25010.454913
1 Jan 2020 02:15:49.000,290.528,-77.411,24820.524527
1 Jan 2020 02:16:19.000,290.790,-77.693,24634.537301
1 Jan 2020 02:16:49.000,291.056,-77.992,24452.756126
1 Jan 2020 02:17:19.000,291.329,-78.307,24275.444612
1 Jan 2020 02:17:49.000,291.610,-78.640,24102.866474
1 Jan 2020 02:18:19.000,291.900,-78.989,23935.284874
1 Jan 2020 02:18:49.000,292.202,-79.355,23772.961411
1 Jan 2020 02:19:19.000,292.519,-79.737,23616.156542
1 Jan 2020 02:19:49.000,292.853,-80.135,23465.126978
1 Jan 2020 02:20:19.000,293.208,-80.548,23320.126030
1 Jan 2020 02:20:49.000,293.589,-80.977,23181.402403
1 Jan 2020 02:21:19.000,294.001,-81.421,23049.199040
1 Jan 2020 02:21:49.000,294.453,-81.879,22923.753032
1 Jan 2020 02:22:19.000,294.953,-82.351,22805.293281
1 Jan 2020 02:22:49.000,295.512,-82.836,22694.040389
1 Jan 2020 02:23:19.000,296.149,-83.332,22590.205408
1 Jan 2020 02:23:49.000,296.883,-83.840,22493.988633
1 Jan 2020 02:24:19.000,297.746,-84.359,22405.579334
1 Jan 2020 02:24:49.000,298.780,-84.886,22325.153630
1 Jan 2020 02:25:19.000,300.051,-85.421,22252.874303
1 Jan 2020 02:25:49.000,301.658,-85.962,22188.889594
1 Jan 2020 02:26:19.000,303.764,-86.507,22133.332769
1 Jan 2020 02:26:49.000,306.649,-87.052,22086.320678
1 Jan 2020 02:27:19.000,310.839,-87.591,22047.953504
1 Jan 2020 02:27:49.000,317.410,-88.116,22018.313988
1 Jan 2020 02:28:19.000,328.778,-88.600,21997.467107
1 Jan 2020 02:28:49.000,350.149,-88.980,21985.459349
1 Jan 2020 02:29:19.000,24.911,-89.105,21982.318646
1 Jan 2020 02:29:49.000,56.357,-88.885,21988.054158
1 Jan 2020 02:30:19.000,74.024,-88.463,22002.656142
1 Jan 2020 02:30:49.000,83.560,-87.962,22026.096105
1 Jan 2020 02:31:19.000,89.228,-87.431,22058.326944
1 Jan 2020 02:31:49.000,92.916,-86.889,22099.283348
1 Jan 2020 02:32:19.000,95.486,-86.343,22148.881877
1 Jan 2020 02:32:49.000,97.369,-85.798,22207.021960
1 Jan 2020 02:33:19.000,98.804,-85.258,22273.586217
1 Jan 2020 02:33:49.000,99.929,-84.724,22348.441377
1 Jan 2020 02:34:19.000,100.832,-84.198,22431.438516
1 Jan 2020 02:34:49.000,101.569,-83.682,22522.414721
1 Jan 2020 02:35:19.000,102.180,-83.176,22621.193479
1 Jan 2020 02:35:49.000,102.692,-82.682,22727.585937
1 Jan 2020 02:36:19.000,103.125,-82.200,22841.391186
1 Jan 2020 02:36:49.000,103.493,-81.731,22962.398317
1 Jan 2020 02:37:19.000,103.808,-81.276,23090.386756
1 Jan 2020 02:37:49.000,104.077,-80.835,23225.127452
1 Jan 2020 02:38:19.000,104.308,-80.410,23366.384149
1 Jan 2020 02:38:49.000,104.506,-80.000,23513.913353
1 Jan 2020 02:39:19.000,104.676,-79.605,23667.466817
1 Jan 2020 02:39:49.000,104.819,-79.227,23826.791476
1 Jan 2020 02:40:19.000,104.940,-78.865,23991.630588
1 Jan 2020 02:40:49.000,105.041,-78.520,24161.724587
1 Jan 2020 02:41:19.000,105.123,-78.192,24336.812191
1 Jan 2020 02:41:49.000,105.189,-77.880,24516.629971
1 Jan 2020 02:42:19.000,105.238,-77.586,24700.914829
1 Jan 2020 02:42:49.000,105.274,-77.309,24889.403479
1 Jan 2020 02:43:19.000,105.296,-77.048,25081.833348
1 Jan 2020 02:43:49.000,105.305,-76.805,25277.943124
1 Jan 2020 02:44:19.000,105.302,-76.578,25477.473263
1 Jan 2020 02:44:49.000,105.288,-76.368,25680.166443
1 Jan 2020 02:45:19.000,105.263,-76.175,25885.767969
1 Jan 2020 02:45:49.000,105.227,-75.998,26094.026138
1 Jan 2020 02:46:19.000,105.181,-75.838,26304.692908
1 Jan 2020 02:46:49.000,105.125,-75.693,26517.522788
1 Jan 2020 02:47:19.000,105.060,-75.564,26732.275159
1 Jan 2020 02:47:49.000,104.985,-75.451,26948.713101
1 Jan 2020 02:48:19.000,104.900,-75.353,27166.603914
1 Jan 2020 02:48:49.000,104.806,-75.269,27385.719261
1 Jan 2020 02:49:19.000,104.703,-75.201,27605.835292
1 Jan 2020 02:49:49.000,104.591,-75.147,27826.732737
1 Jan 2020 02:50:19.000,104.469,-75.107,28048.196976
1 Jan 2020 02:50:49.000,104.338,-75.080,28270.018094
1 Jan 2020 02:51:19.000,104.198,-75.067,28491.990916
1 Jan 2020 02:51:33.754,104.126,-75.066,28601.148737
1 Jan 2020 03:54:55.586,274.657,-75.075,28606.360737
1 Jan 2020 03:55:25.000,273.658,-75.080,28429.467454
1 Jan 2020 03:55:55.000,272.615,-75.092,28250.707035
1 Jan 2020 03:56:25.000,271.547,-75.113,28073.804997
1 Jan 2020 03:56:55.000,270.452,-75.143,27898.949903
1 Jan 2020 03:57:25.000,269.328,-75.180,27726.331066
1 Jan 2020 03:57:55.000,268.175,-75.226,27556.138293
1 Jan 2020 03:58:25.000,266.990,-75.280,27388.561598
1 Jan 2020 03:58:55.000,265.771,-75.341,27223.790907
1 Jan 2020 03:59:25.000,264.518,-75.410,27062.015736
1 Jan 2020 03:59:55.000,263.228,-75.485,26903.424854
1 Jan 2020 04:00:25.000,261.900,-75.567,26748.205921
1 Jan 2020 04:00:55.000,260.532,-75.656,26596.544826
1 Jan 2020 04:01:25.000,259.122,-75.751,26448.626423
1 Jan 2020 04:01:55.000,257.669,-75.851,26304.632407
1 Jan 2020 04:02:25.000,256.171,-75.956,26164.742029
1 Jan 2020 04:02:55.000,254.625,-76.065,26029.131350
1 Jan 2020 04:03:25.000,253.032,-76.178,25897.972788
1 Jan 2020 04:03:55.000,251.387,-76.294,25771.434638
1 Jan 2020 04:04:25.000,249.692,-76.413,25649.680356
1 Jan 2020 04:04:55.000,247.943,-76.534,25532.869006
1 Jan 2020 04:05:25.000,246.141,-76.655,25421.153344
1 Jan 2020 04:05:55.000,244.283,-76.777,25314.680276
1 Jan 2020 04:06:25.000,242.370,-76.898,25213.590120
1 Jan 2020 04:06:55.000,240.401,-77.017,25118.016115
1 Jan 2020 04:07:25.000,238.376,-77.135,25028.083759
1 Jan 2020 04:07:55.000,236.294,-77.249,24943.911092
1 Jan 2020 04:08:25.000,234.158,-77.359,24865.607101
1 Jan 2020 04:08:55.000,231.969,-77.464,24793.272061
1 Jan 2020 04:09:25.000,229.727,-77.563,24726.996939
1 Jan 2020 04:09:55.000,227.436,-77.656,24666.862891
1 Jan 2020 04:10:25.000,225.098,-77.741,24612.941433
1 Jan 2020 04:10:55.000,222.716,-77.817,24565.293349
1 Jan 2020 04:11:25.000,220.296,-77.885,24523.968958
1 Jan 2020 04:11:55.000,217.840,-77.944,24489.007753
1 Jan 2020 04:12:25.000,215.355,-77.992,24460.438142
1 Jan 2020 04:12:55.000,212.846,-78.030,24438.277644
1 Jan 2020 04:13:25.000,210.318,-78.058,24422.532297
1 Jan 2020 04:13:55.000,207.778,-78.074,24413.196974
1 Jan 2020 04:14:25.000,205.231,-78.079,24410.255307
1 Jan 2020 04:14:55.000,202.685,-78.073,24413.679731
1 Jan 2020 04:15:25.000,200.145,-78.055,24423.431712
1 Jan 2020 04:15:55.000,197.616,-78.028,24439.461724
1 Jan 2020 04:16:25.000,195.106,-77.989,24461.709601
1 Jan 2020 04:16:55.000,192.619,-77.941,24490.104750
1 Jan 2020 04:17:25.000,190.159,-77.883,24524.566485
1 Jan 2020 04:17:55.000,187.733,-77.816,24565.004266
1 Jan 2020 04:18:25.000,185.343,-77.741,24611.318201
1 Jan 2020 04:18:55.000,182.992,-77.659,24663.399381
1 Jan 2020 04:19:25.000,180.684,-77.570,24721.130330
1 Jan 2020 04:19:55.000,178.421,-77.474,24784.385465
1 Jan 2020 04:20:25.000,176.204,-77.374,24853.031671
1 Jan 2020 04:20:55.000,174.034,-77.269,24926.928447
1 Jan 2020 04:21:25.000,171.912,-77.161,25005.928924
1 Jan 2020 04:21:55.000,169.838,-77.050,25089.880056
1 Jan 2020 04:22:25.000,167.813,-76.938,25178.623224
1 Jan 2020 04:22:55.000,165.835,-76.824,25271.994759
1 Jan 2020 04:23:25.000,163.904,-76.709,25369.826463
1 Jan 2020 04:23:55.000,162.019,-76.595,25471.946270
1 Jan 2020 04:24:25.000,160.178,-76.482,25578.178191
1 Jan 2020 04:24:55.000,158.380,-76.371,25688.343639
1 Jan 2020 04:25:25.000,156.624,-76.261,25802.261372
1 Jan 2020 04:25:55.000,154.907,-76.154,25919.748087
1 Jan 2020 04:26:25.000,153.229,-76.051,26040.618877
1 Jan 2020 04:26:55.000,151.587,-75.951,26164.687661
1 Jan 2020 04:27:25.000,149.980,-75.855,26291.767593
1 Jan 2020 04:27:55.000,148.405,-75.764,26421.671458
1 Jan 2020 04:28:25.000,146.861,-75.677,26554.212039
1 Jan 2020 04:28:55.000,145.347,-75.596,26689.202656
1 Jan 2020 04:29:25.000,143.860,-75.520,26826.456740
1 Jan 2020 04:29:55.000,142.398,-75.449,26965.789264
1 Jan 2020 04:30:25.000,140.960,-75.384,27107.016278
1 Jan 2020 04:30:55.000,139.544,-75.325,27249.955362
1 Jan 2020 04:31:25.000,138.149,-75.272,27394.425866
1 Jan 2020 04:31:55.000,136.772,-75.225,27540.249131
1 Jan 2020 04:32:25.000,135.413,-75.184,27687.248699
1 Jan 2020 04:32:55.000,134.069,-75.149,27835.250489
1 Jan 2020 04:33:25.000,132.739,-75.121,27984.082973
1 Jan 2020 04:33:55.000,131.423,-75.099,28133.577322
1 Jan 2020 04:34:25.000,130.117,-75.083,28283.567543
1 Jan 2020 04:34:55.000,128.822,-75.073,28433.890598
1 Jan 2020 04:35:25.000,127.535,-75.069,28584.386510
1 Jan 2020 04:35:29.631,127.337,-75.069,28607.623501
1 Jan 2020 06:57:57.295,24.773,-75.076,28611.107031
1 Jan 2020 06:58:27.000,23.226,-75.077,28512.042684
1 Jan 2020 06:58:57.000,21.654,-75.081,28412.919922
1 Jan 2020 06:59:27.000,20.073,-75.088,28314.862165
1 Jan 2020 06:59:57.000,18.480,-75.097,28218.006397
1 Jan 2020 07:00:27.000,16.876,-75.108,28122.490301
1 Jan 2020 07:00:57.000,15.259,-75.122,28028.452059
1 Jan 2020 07:01:27.000,13.630,-75.138,27936.030151
1 Jan 2020 07:01:57.000,11.987,-75.156,27845.363137
1 Jan 2020 07:02:27.000,10.330,-75.176,27756.589430
1 Jan 2020 07:02:57.000,8.659,-75.198,27669.847061
1 Jan 2020 07:03:27.000,6.974,-75.221,27585.273436
1 Jan 2020 07:03:57.000,5.273,-75.246,27503.005075
1 Jan 2020 07:04:27.000,3.557,-75.272,27423.177355
1 Jan 2020 07:04:57.000,1.824,-75.299,27345.924236
1 Jan 2020 07:05:27.000,0.076,-75.327,27271.377979
1 Jan 2020 07:05:57.000,358.312,-75.355,27199.668795
1 Jan 2020 07:06:27.000,356.532,-75.384,27130.924840
1 Jan 2020 07:06:57.000,354.736,-75.413,27065.271479
1 Jan 2020 07:07:27.000,352.924,-75.442,27002.831284
1 Jan 2020 07:07:57.000,351.097,-75.471,26943.723659
1 Jan 2020 07:08:27.000,349.254,-75.499,26888.064533
1 Jan 2020 07:08:57.000,347.397,-75.526,26835.966065
1 Jan 2020 07:09:27.000,345.526,-75.552,26787.536337
1 Jan 2020 07:09:57.000,343.641,-75.577,26742.879062
1 Jan 2020 07:10:27.000,341.743,-75.600,26702.093266
1 Jan 2020 07:10:57.000,339.833,-75.622,26665.273103
1 Jan 2020 07:11:27.000,337.913,-75.641,26632.507424
1 Jan 2020 07:11:57.000,335.983,-75.659,26603.879618
1 Jan 2020 07:12:27.000,334.044,-75.674,26579.467331
1 Jan 2020 07:12:57.000,332.099,-75.686,26559.342223
1 Jan 2020 07:13:27.000,330.147,-75.696,26543.569746
1 Jan 2020 07:13:57.000,328.191,-75.704,26532.208929
1 Jan 2020 07:14:27.000,326.233,-75.708,26525.312228
1 Jan 2020 07:14:57.000,324.273,-75.710,26522.925219
1 Jan 2020 07:15:27.000,322.313,-75.708,26525.086635
1 Jan 2020 07:15:57.000,320.355,-75.704,26531.828116
1 Jan 2020 07:16:27.000,318.401,-75.697,26543.174136
1 Jan 2020 07:16:57.000,316.452,-75.687,26559.141913
1 Jan 2020 07:17:27.000,314.510,-75.674,26579.741354
1 Jan 2020 07:17:57.000,312.577,-75.658,26604.975099
1 Jan 2020 07:18:27.000,310.653,-75.640,26634.838192
1 Jan 2020 07:18:57.000,308.741,-75.620,26669.318561
1 Jan 2020 07:19:27.000,306.842,-75.597,26708.396752
1 Jan 2020 07:19:57.000,304.957,-75.573,26752.046064
1 Jan 2020 07:20:27.000,303.087,-75.546,26800.232636
1 Jan 2020 07:20:57.000,301.234,-75.518,26852.915550
1 Jan 2020 07:21:27.000,299.399,-75.489,26910.047088
1 Jan 2020 07:21:57.000,297.583,-75.458,26971.572386
1 Jan 2020 07:22:27.000,295.786,-75.427,27037.430335
1 Jan 2020 07:22:57.000,294.010,-75.396,27107.553281
1 Jan 2020 07:23:27.000,292.254,-75.364,27181.867354
1 Jan 2020 07:23:57.000,290.520,-75.333,27260.292680
1 Jan 2020 07:24:27.000,288.808,-75.302,27342.743613
1 Jan 2020 07:24:57.000,287.118,-75.272,27429.128980
1 Jan 2020 07:25:27.000,285.451,-75.243,27519.352506
1 Jan 2020 07:25:57.000,283.806,-75.215,27613.312386
1 Jan 2020 07:26:27.000,282.183,-75.189,27710.902579
1 Jan 2020 07:26:57.000,280.583,-75.165,27812.012408
1 Jan 2020 07:27:27.000,279.005,-75.144,27916.526998
1 Jan 2020 07:27:57.000,277.450,-75.125,28024.327563
1 Jan 2020 07:28:27.000,275.916,-75.109,28135.291683
1 Jan 2020 07:28:57.000,274.403,-75.096,28249.293588
1 Jan 2020 07:29:27.000,272.912,-75.087,28366.204431
1 Jan 2020 07:29:57.000,271.441,-75.081,28485.892570
1 Jan 2020 07:30:27.000,269.990,-75.078,28608.223837
1 Jan 2020 07:30:27.618,269.960,-75.078,28610.769059
1 Jan 2020 08:35:23.671,68.905,-75.071,28607.039817
1 Jan 2020 08:35:53.000,68.211,-75.076,28408.151858
1 Jan 2020 08:36:23.000,67.499,-75.092,28204.550761
1 Jan 2020 08:36:53.000,66.786,-75.120,28000.974160
1 Jan 2020 08:37:23.000,66.069,-75.160,27797.614751
1 Jan 2020 08:37:53.000,65.348,-75.211,27594.669807
1 Jan 2020 08:38:23.000,64.620,-75.275,27392.341137
1 Jan 2020 08:38:53.000,63.885,-75.351,27190.835032
1 Jan 2020 08:39:23.000,63.141,-75.440,26990.362183
1 Jan 2020 08:39:53.000,62.386,-75.541,26791.137592
1 Jan 2020 08:40:23.000,61.618,-75.655,26593.380447
1 Jan 2020 08:40:53.000,60.836,-75.783,26397.313981
1 Jan 2020 08:41:23.000,60.037,-75.924,26203.165302
1 Jan 2020 08:41:53.000,59.219,-76.078,26011.165196
1 Jan 2020 08:42:23.000,58.380,-76.246,25821.547894
1 Jan 2020 08:42:53.000,57.517,-76.427,25634.550809
1 Jan 2020 08:43:23.000,56.626,-76.622,25450.414240
1 Jan 2020 08:43:53.000,55.705,-76.830,25269.381033
1 Jan 2020 08:44:23.000,54.749,-77.051,25091.695920
1 Jan 2020 08:44:53.000,53.754,-77.285,24917.606254
1 Jan 2020 08:45:23.000,52.717,-77.533,24747.359815
1 Jan 2020 08:45:53.000,51.631,-77.792,24581.205465
1 Jan 2020 08:46:23.000,50.490,-78.065,24419.392317
1 Jan 2020 08:46:53.000,49.289,-78.349,24262.169133
1 Jan 2020 08:47:23.000,48.019,-78.644,24109.783695
1 Jan 2020 08:47:53.000,46.673,-78.949,23962.481880
1 Jan 2020 08:48:23.000,45.240,-79.265,23820.507913
1 Jan 2020 08:48:53.000,43.710,-79.589,23684.102126
1 Jan 2020 08:49:23.000,42.070,-79.921,23553.501153
1 Jan 2020 08:49:53.000,40.306,-80.259,23428.936846
1 Jan 2020 08:50:23.000,38.402,-80.603,23310.635240
1 Jan 2020 08:50:53.000,36.340,-80.949,23198.816366
1 Jan 2020 08:51:23.000,34.100,-81.297,23093.692285
1 Jan 2020 08:51:53.000,31.659,-81.644,22995.466897
1 Jan 2020 08:52:23.000,28.992,-81.987,22904.334838
1 Jan 2020 08:52:53.000,26.072,-82.324,22820.480445
1 Jan 2020 08:53:23.000,22.872,-82.650,22744.077408
1 Jan 2020 08:53:53.000,19.363,-82.962,22675.287059
1 Jan 2020 08:54:23.000,15.521,-83.255,22614.258116
1 Jan 2020 08:54:53.000,11.326,-83.525,22561.125681
1 Jan 2020 08:55:23.000,6.770,-83.766,22516.010781
1 Jan 2020 08:55:53.000,1.858,-83.973,22479.019268
1 Jan 2020 08:56:23.000,356.617,-84.140,22450.241518
1 Jan 2020 08:56:53.000,351.099,-84.263,22429.751832
1 Jan 2020 08:57:23.000,345.381,-84.338,22417.608054
1 Jan 2020 08:57:53.000,339.559,-84.361,22413.851138
1 Jan 2020 08:58:23.000,333.743,-84.332,22418.504994
1 Jan 2020 08:58:53.000,328.042,-84.253,22431.576377
1 Jan 2020 08:59:23.000,322.553,-84.125,22453.054674
1 Jan 2020 08:59:53.000,317.351,-83.952,22482.912233
1 Jan 2020 09:00:23.000,312.487,-83.740,22521.104384
1 Jan 2020 09:00:53.000,307.986,-83.493,22567.569858
1 Jan 2020 09:01:23.000,303.856,-83.217,22622.230744
1 Jan 2020 09:01:53.000,300.085,-82.918,22684.993558
1 Jan 2020 09:02:23.000,296.654,-82.600,22755.749396
1 Jan 2020 09:02:53.000,293.539,-82.268,22834.374813
1 Jan 2020 09:03:23.000,290.711,-81.926,22920.731902
1 Jan 2020 09:03:53.000,288.143,-81.577,23014.669932
1 Jan 2020 09:04:23.000,285.808,-81.224,23116.025570
1 Jan 2020 09:04:53.000,283.682,-80.870,23224.623853
1 Jan 2020 09:05:23.000,281.741,-80.517,23340.279301
1 Jan 2020 09:05:53.000,279.966,-80.168,23462.795842
1 Jan 2020 09:06:23.000,278.339,-79.823,23591.969124
1 Jan 2020 09:06:53.000,276.843,-79.486,23727.586484
1 Jan 2020 09:07:23.000,275.466,-79.156,23869.428067
1 Jan 2020 09:07:53.000,274.194,-78.836,24017.267960
1 Jan 2020 09:08:23.000,273.017,-78.526,24170.874035
1 Jan 2020 09:08:53.000,271.925,-78.227,24330.010291
1 Jan 2020 09:09:23.000,270.911,-77.939,24494.436659
1 Jan 2020 09:09:53.000,269.966,-77.664,24663.910015
1 Jan 2020 09:10:23.000,269.085,-77.402,24838.184911
1 Jan 2020 09:10:53.000,268.262,-77.153,25017.014262
1 Jan 2020 09:11:23.000,267.492,-76.917,25200.150321
1 Jan 2020 09:11:53.000,266.770,-76.696,25387.343978
1 Jan 2020 09:12:23.000,266.092,-76.488,25578.347269
1 Jan 2020 09:12:53.000,265.455,-76.295,25772.912601
1 Jan 2020 09:13:23.000,264.856,-76.116,25970.793544
1 Jan 2020 09:13:53.000,264.292,-75.952,26171.745267
1 Jan 2020 09:14:23.000,263.760,-75.802,26375.524927
1 Jan 2020 09:14:53.000,263.258,-75.667,26581.892021
1 Jan 2020 09:15:23.000,262.784,-75.545,26790.608699
1 Jan 2020 09:15:53.000,262.337,-75.439,27001.440050
1 Jan 2020 09:16:23.000,261.914,-75.346,27214.154337
1 Jan 2020 09:16:53.000,261.514,-75.267,27428.523223
1 Jan 2020 09:17:23.000,261.136,-75.202,27644.321948
1 Jan 2020 09:17:53.000,260.778,-75.151,27861.329491
1 Jan 2020 09:18:23.000,260.440,-75.113,28079.328704
1 Jan 2020 09:18:53.000,260.120,-75.088,28298.106420
1 Jan 2020 09:19:23.000,259.818,-75.077,28517.453547
1 Jan 2020 09:19:34.988,259.702,-75.076,28605.216392
1 Jan 2020 10:22:34.129,82.232,-75.066,28599.983497
1 Jan 2020 10:23:04.000,82.852,-75.072,28392.957137
1 Jan 2020 10:23:34.000,83.495,-75.089,28185.990033
1 Jan 2020 10:24:04.000,84.162,-75.118,27980.178611
1 Jan 2020 10:24:34.000,84.854,-75.159,27775.729886
1 Jan 2020 10:25:04.000,85.571,-75.211,27572.853790
1 Jan 2020 10:25:34.000,86.316,-75.275,27371.763003
1 Jan 2020 10:26:04.000,87.090,-75.351,27172.672761
1 Jan 2020 10:26:34.000,87.896,-75.439,26975.800638
1 Jan 2020 10:27:04.000,88.735,-75.538,26781.366302
1 Jan 2020 10:27:34.000,89.610,-75.649,26589.591243
1 Jan 2020 10:28:04.000,90.523,-75.772,26400.698476
1 Jan 2020 10:28:34.000,91.476,-75.905,26214.912208
1 Jan 2020 10:29:04.000,92.473,-76.050,26032.457173
1 Jan 2020 10:29:34.000,93.517,-76.206,25853.559460
1 Jan 2020 10:30:04.000,94.610,-76.372,25678.444248
1 Jan 2020 10:30:34.000,95.757,-76.548,25507.336576
1 Jan 2020 10:31:04.000,96.961,-76.734,25340.460543
1 Jan 2020 10:31:34.000,98.226,-76.928,25178.038780
1 Jan 2020 10:32:04.000,99.556,-77.131,25020.291896
1 Jan 2020 10:32:34.000,100.957,-77.342,24867.437602
1 Jan 2020 10:33:04.000,102.433,-77.560,24719.691238
1 Jan 2020 10:33:34.000,103.989,-77.784,24577.263402
1 Jan 2020 10:34:04.000,105.631,-78.012,24440.360439
1 Jan 2020 10:34:34.000,107.365,-78.245,24309.183459
1 Jan 2020 10:35:04.000,109.197,-78.480,24183.927633
1 Jan 2020 10:35:34.000,111.132,-78.717,24064.781223
1 Jan 2020 10:36:04.000,113.177,-78.953,23951.925860
1 Jan 2020 10:36:34.000,115.338,-79.188,23845.534295
1 Jan 2020 10:37:04.000,117.620,-79.420,23745.770697
1 Jan 2020 10:37:34.000,120.029,-79.646,23652.789687
1 Jan 2020 10:38:04.000,122.568,-79.865,23566.735456
1 Jan 2020 10:38:34.000,125.241,-80.074,23487.741828
1 Jan 2020 10:39:04.000,128.048,-80.273,23415.930510
1 Jan 2020 10:39:34.000,130.989,-80.458,23351.411238
1 Jan 2020 10:40:04.000,134.061,-80.628,23294.281039
1 Jan 2020 10:40:34.000,137.258,-80.780,23244.623600
1 Jan 2020 10:41:04.000,140.571,-80.912,23202.509334
1 Jan 2020 10:41:34.000,143.986,-81.023,23167.994217
1 Jan 2020 10:42:04.000,147.489,-81.112,23141.120016
1 Jan 2020 10:42:34.000,151.061,-81.176,23121.913864
1 Jan 2020 10:43:04.000,154.680,-81.214,23110.388314
1 Jan 2020 10:43:34.000,158.323,-81.228,23106.540921
1 Jan 2020 10:44:04.000,161.967,-81.215,23110.354479
1 Jan 2020 10:44:34.000,165.588,-81.177,23121.797038
1 Jan 2020 10:45:04.000,169.162,-81.113,23140.822086
1 Jan 2020 10:45:34.000,172.670,-81.027,23167.368738
1 Jan 2020 10:46:04.000,176.094,-80.917,23201.362095
1 Jan 2020 10:46:34.000,179.418,-80.787,23242.713615
1 Jan 2020 10:47:04.000,182.632,-80.638,23291.321630
1 Jan 2020 10:47:34.000,185.726,-80.473,23347.071594
1 Jan 2020 10:48:04.000,188.696,-80.292,23409.837026
1 Jan 2020 10:48:34.000,191.540,-80.099,23479.479886
1 Jan 2020 10:49:04.000,194.258,-79.895,23555.851284
1 Jan 2020 10:49:34.000,196.850,-79.683,23638.792294
1 Jan 2020 10:50:04.000,199.321,-79.464,23728.134179
1 Jan 2020 10:50:34.000,201.676,-79.241,23823.699842
1 Jan 2020 10:51:04.000,203.919,-79.014,23925.304105
1 Jan 2020 10:51:34.000,206.055,-78.786,24032.754573
1 Jan 2020 10:52:04.000,208.093,-78.558,24145.852389
1 Jan 2020 10:52:34.000,210.036,-78.331,24264.393168
1 Jan 2020 10:53:04.000,211.892,-78.107,24388.166966
1 Jan 2020 10:53:34.000,213.667,-77.886,24516.960129
1 Jan 2020 10:54:04.000,215.366,-77.670,24650.555242
1 Jan 2020 10:54:34.000,216.996,-77.460,24788.731980
1 Jan 2020 10:55:04.000,218.560,-77.256,24931.267756
1 Jan 2020 10:55:34.000,220.065,-77.060,25077.938330
1 Jan 2020 10:56:04.000,221.514,-76.870,25228.518389
1 Jan 2020 10:56:34.000,222.913,-76.689,25382.782348
1 Jan 2020 10:57:04.000,224.265,-76.517,25540.503861
1 Jan 2020 10:57:34.000,225.575,-76.354,25701.457790
1 Jan 2020 10:58:04.000,226.846,-76.200,25865.419663
1 Jan 2020 10:58:34.000,228.080,-76.055,26032.166329
1 Jan 2020 10:59:04.000,229.283,-75.920,26201.476329
1 Jan 2020 10:59:34.000,230.455,-75.796,26373.130244
1 Jan 2020 11:00:04.000,231.601,-75.681,26546.911003
1 Jan 2020 11:00:34.000,232.723,-75.576,26722.604162
1 Jan 2020 11:01:04.000,233.822,-75.481,26899.998159
1 Jan 2020 11:01:34.000,234.902,-75.397,27078.884534
1 Jan 2020 11:02:04.000,235.964,-75.322,27259.058127
1 Jan 2020 11:02:34.000,237.010,-75.258,27440.317251
1 Jan 2020 11:03:04.000,238.043,-75.203,27622.463843
1 Jan 2020 11:03:34.000,239.064,-75.158,27805.303593
1 Jan 2020 11:04:04.000,240.074,-75.123,27988.646048
1 Jan 2020 11:04:34.000,241.076,-75.097,28172.304711
1 Jan 2020 11:05:04.000,242.071,-75.080,28356.097108
1 Jan 2020 11:05:34.000,243.060,-75.073,28539.844853
1 Jan 2020 11:05:43.538,243.374,-75.073,28598.226080
1 Jan 2020 12:12:29.977,93.826,-75.063,28593.876953
1 Jan 2020 12:12:59.000,95.391,-75.064,28516.644206
1 Jan 2020 12:13:29.000,97.023,-75.067,28439.813034
1 Jan 2020 12:13:59.000,98.668,-75.070,28366.117131
1 Jan 2020 12:14:29.000,100.327,-75.075,28295.637579
1 Jan 2020 12:14:59.000,101.999,-75.081,28228.451028
1 Jan 2020 12:15:29.000,103.684,-75.088,28164.629508
1 Jan 2020 12:15:59.000,105.381,-75.096,28104.240250
1 Jan 2020 12:16:29.000,107.091,-75.104,28047.345522
1 Jan 2020 12:16:59.000,108.813,-75.112,27994.002465
1 Jan 2020 12:17:29.000,110.546,-75.121,27944.262844
1 Jan 2020 12:17:59.000,112.289,-75.130,27898.173335
1 Jan 2020 12:18:29.000,114.043,-75.138,27855.774760
1 Jan 2020 12:18:59.000,115.806,-75.146,27817.102415
1 Jan 2020 12:19:29.000,117.578,-75.154,27782.185862
1 Jan 2020 12:19:59.000,119.357,-75.161,27751.048853
1 Jan 2020 12:20:29.000,121.144,-75.168,27723.709266
1 Jan 2020 12:20:59.000,122.937,-75.174,27700.179060
1 Jan 2020 12:21:29.000,124.736,-75.179,27680.464185
1 Jan 2020 12:21:59.000,126.539,-75.183,27664.564809
1 Jan 2020 12:22:29.000,128.346,-75.186,27652.474954
1 Jan 2020 12:22:59.000,130.156,-75.188,27644.182769
1 Jan 2020 12:23:29.000,131.968,-75.190,27639.670505
1 Jan 2020 12:23:59.000,133.781,-75.190,27638.914567
1 Jan 2020 12:24:29.000,135.594,-75.189,27641.885587
1 Jan 2020 12:24:59.000,137.406,-75.188,27648.548514
1 Jan 2020 12:25:29.000,139.217,-75.185,27658.862699
1 Jan 2020 12:25:59.000,141.025,-75.182,27672.782081
1 Jan 2020 12:26:29.000,142.830,-75.177,27690.255213
1 Jan 2020 12:26:59.000,144.632,-75.172,27711.225484
1 Jan 2020 12:27:29.000,146.428,-75.167,27735.631258
1 Jan 2020 12:27:59.000,148.220,-75.160,27763.406042
1 Jan 2020 12:28:29.000,150.006,-75.153,27794.478672
1 Jan 2020 12:28:59.000,151.785,-75.146,27828.773500
1 Jan 2020 12:29:29.000,153.557,-75.139,27866.210594
1 Jan 2020 12:29:59.000,155.322,-75.131,27906.705948
1 Jan 2020 12:30:29.000,157.079,-75.123,27950.171728
1 Jan 2020 12:30:59.000,158.828,-75.115,27996.516355
1 Jan 2020 12:31:29.000,160.568,-75.108,28045.644929
1 Jan 2020 12:31:59.000,162.300,-75.101,28097.459323
1 Jan 2020 12:32:29.000,164.024,-75.094,28151.858450
1 Jan 2020 12:32:59.000,165.738,-75.088,28208.738488
1 Jan 2020 12:33:29.000,167.443,-75.082,28267.993110
1 Jan 2020 12:33:59.000,169.139,-75.077,28329.513720
1 Jan 2020 12:34:29.000,170.827,-75.074,28393.189677
1 Jan 2020 12:34:59.000,172.505,-75.071,28458.908520
1 Jan 2020 12:35:29.000,174.175,-75.069,28526.556198
1 Jan 2020 12:35:58.093,175.786,-75.069,28593.891355
1 Jan 2020 13:37:21.485,15.906,-75.062,28592.371447
1 Jan 2020 13:37:51.000,17.564,-75.062,28535.069881
1 Jan 2020 13:38:21.000,19.256,-75.064,28478.971965
1 Jan 2020 13:38:51.000,20.956,-75.066,28425.139893
1 Jan 2020 13:39:21.000,22.663,-75.068,28373.674660
1 Jan 2020 13:39:51.000,24.378,-75.071,28324.674756
1 Jan 2020 13:40:21.000,26.101,-75.075,28278.235953
1 Jan 2020 13:40:51.000,27.830,-75.079,28234.451087
1 Jan 2020 13:41:21.000,29.567,-75.083,28193.409853
1 Jan 2020 13:41:51.000,31.310,-75.087,28155.198588
1 Jan 2020 13:42:21.000,33.059,-75.091,28119.900069
1 Jan 2020 13:42:51.000,34.814,-75.096,28087.593310
1 Jan 2020 13:43:21.000,36.574,-75.100,28058.353359
1 Jan 2020 13:43:51.000,38.340,-75.103,28032.251144
1 Jan 2020 13:44:21.000,40.110,-75.107,28009.353231
1 Jan 2020 13:44:51.000,41.884,-75.110,27989.721692
1 Jan 2020 13:45:21.000,43.661,-75.113,27973.413932
1 Jan 2020 13:45:51.000,45.440,-75.115,27960.482532
1 Jan 2020 13:46:21.000,47.222,-75.117,27950.975105
1 Jan 2020 13:46:51.000,49.004,-75.118,27944.934168
1 Jan 2020 13:47:21.000,50.788,-75.118,27942.397019
1 Jan 2020 13:47:51.000,52.571,-75.118,27943.395666
1 Jan 2020 13:48:21.000,54.353,-75.117,27947.956609
1 Jan 2020 13:48:51.000,56.133,-75.116,27956.100942
1 Jan 2020 13:49:21.000,57.911,-75.114,27967.844180
1 Jan 2020 13:49:51.000,59.685,-75.111,27983.196232
1 Jan 2020 13:50:21.000,61.456,-75.108,28002.161373
1 Jan 2020 13:50:51.000,63.222,-75.104,28024.738228
1 Jan 2020 13:51:21.000,64.982,-75.101,28050.919768
1 Jan 2020 13:51:51.000,66.736,-75.096,28080.693329
1 Jan 2020 13:52:21.000,68.483,-75.092,28114.040720
1 Jan 2020 13:52:51.000,70.223,-75.087,28150.937950
1 Jan 2020 13:53:21.000,71.955,-75.083,28191.355761
1 Jan 2020 13:53:51.000,73.678,-75.078,28235.259390
1 Jan 2020 13:54:21.000,75.392,-75.074,28282.608739
1 Jan 2020 13:54:51.000,77.096,-75.070,28333.358470
1 Jan 2020 13:55:21.000,78.790,-75.067,28387.458127
1 Jan 2020 13:55:51.000,80.474,-75.064,28444.852255
1 Jan 2020 13:56:21.000,82.146,-75.063,28505.480543
1 Jan 2020 13:56:51.000,83.808,-75.062,28569.277970
1 Jan 2020 13:57:01.566,84.391,-75.062,28592.489894
1 Jan 2020 15:04:38.443,298.691,-75.069,28595.295227
1 Jan 2020 15:05:08.000,299.739,-75.073,28421.338035
1 Jan 2020 15:05:38.000,300.809,-75.085,28244.712210
1 Jan 2020 15:06:08.000,301.886,-75.106,28068.196456
1 Jan 2020 15:06:38.000,302.973,-75.135,27891.967647
1 Jan 2020 15:07:08.000,304.070,-75.173,27716.206482
1 Jan 2020 15:07:38.000,305.180,-75.220,27541.097402
1 Jan 2020 15:08:08.000,306.303,-75.276,27366.828499
1 Jan 2020 15:08:38.000,307.443,-75.342,27193.591402
1 Jan 2020 15:09:08.000,308.601,-75.416,27021.581145
1 Jan 2020 15:09:38.000,309.778,-75.499,26850.996019
1 Jan 2020 15:10:08.000,310.977,-75.592,26682.037394
1 Jan 2020 15:10:38.000,312.201,-75.693,26514.909533
1 Jan 2020 15:11:08.000,313.452,-75.804,26349.819363
1 Jan 2020 15:11:38.000,314.731,-75.923,26186.976235
1 Jan 2020 15:12:08.000,316.043,-76.051,26026.591652
1 Jan 2020 15:12:38.000,317.389,-76.187,25868.878967
1 Jan 2020 15:13:08.000,318.773,-76.332,25714.053056
1 Jan 2020 15:13:38.000,320.198,-76.484,25562.329956
1 Jan 2020 15:14:08.000,321.667,-76.644,25413.926241
1 Jan 2020 15:14:38.000,323.184,-76.811,25269.059549
1 Jan 2020 15:15:08.000,324.752,-76.984,25127.946696
1 Jan 2020 15:15:38.000,326.376,-77.163,24990.804154
1 Jan 2020 15:16:08.000,328.059,-77.348,24857.847294
1 Jan 2020 15:16:38.000,329.806,-77.537,24729.289839
1 Jan 2020 15:17:08.000,331.621,-77.729,24605.343296
1 Jan 2020 15:17:38.000,333.509,-77.924,24486.216182
1 Jan 2020 15:18:08.000,335.473,-78.121,24372.114085
1 Jan 2020 15:18:38.000,337.517,-78.319,24263.237980
1 Jan 2020 15:19:08.000,339.648,-78.516,24159.784263
1 Jan 2020 15:19:38.000,341.867,-78.711,24061.943896
1 Jan 2020 15:20:08.000,344.178,-78.902,23969.901717
1 Jan 2020 15:20:38.000,346.586,-79.089,23883.835620
1 Jan 2020 15:21:08.000,349.090,-79.269,23803.916360
1 Jan 2020 15:21:38.000,351.693,-79.442,23730.306101
1 Jan 2020 15:22:08.000,354.395,-79.605,23663.158249
1 Jan 2020 15:22:38.000,357.193,-79.757,23602.616669
1 Jan 2020 15:23:08.000,0.085,-79.895,23548.814977
1 Jan 2020 15:23:38.000,3.065,-80.020,23501.876184
1 Jan 2020 15:24:08.000,6.126,-80.128,23461.911738
1 Jan 2020 15:24:38.000,9.259,-80.219,23429.021267
1 Jan 2020 15:25:08.000,12.452,-80.291,23403.292022
1 Jan 2020 15:25:38.000,15.692,-80.344,23384.798464
1 Jan 2020 15:26:08.000,18.965,-80.376,23373.601886
1 Jan 2020 15:26:38.000,22.255,-80.387,23369.750104
1 Jan 2020 15:27:08.000,25.544,-80.376,23373.277236
1 Jan 2020 15:27:38.000,28.817,-80.345,23384.203534
1 Jan 2020 15:28:08.000,32.057,-80.293,23402.535362
1 Jan 2020 15:28:38.000,35.249,-80.220,23428.264884
1 Jan 2020 15:29:08.000,38.378,-80.129,23461.370533
1 Jan 2020 15:29:38.000,41.433,-80.019,23501.816871
1 Jan 2020 15:30:08.000,44.403,-79.892,23549.554846
1 Jan 2020 15:30:38.000,47.280,-79.751,23604.522197
1 Jan 2020 15:31:08.000,50.058,-79.595,23666.643218
1 Jan 2020 15:31:38.000,52.733,-79.427,23735.829966
1 Jan 2020 15:32:08.000,55.302,-79.249,23811.982170
1 Jan 2020 15:32:38.000,57.765,-79.063,23894.987849
1 Jan 2020 15:33:08.000,60.121,-78.869,23984.724044
1 Jan 2020 15:33:38.000,62.373,-78.670,24081.056624
1 Jan 2020 15:34:08.000,64.523,-78.467,24183.842020
1 Jan 2020 15:34:38.000,66.574,-78.262,24292.927117
1 Jan 2020 15:35:08.000,68.529,-78.056,24408.150083
1 Jan 2020 15:35:38.000,70.393,-77.850,24529.341031
1 Jan 2020 15:36:08.000,72.170,-77.646,24656.322959
1 Jan 2020 15:36:38.000,73.865,-77.445,24788.911356
1 Jan 2020 15:37:08.000,75.480,-77.248,24926.916450
1 Jan 2020 15:37:38.000,77.022,-77.056,25070.142824
1 Jan 2020 15:38:08.000,78.493,-76.869,25218.390322
1 Jan 2020 15:38:38.000,79.898,-76.689,25371.454677
1 Jan 2020 15:39:08.000,81.240,-76.516,25529.128122
1 Jan 2020 15:39:38.000,82.524,-76.351,25691.200281
1 Jan 2020 15:40:08.000,83.753,-76.194,25857.457531
1 Jan 2020 15:40:38.000,84.930,-76.047,26027.685327
1 Jan 2020 15:41:08.000,86.059,-75.908,26201.667526
1 Jan 2020 15:41:38.000,87.141,-75.780,26379.187158
1 Jan 2020 15:42:08.000,88.181,-75.661,26560.026879
1 Jan 2020 15:42:38.000,89.180,-75.553,26743.969389
1 Jan 2020 15:43:08.000,90.141,-75.455,26930.797823
1 Jan 2020 15:43:38.000,91.066,-75.368,27120.296108
1 Jan 2020 15:44:08.000,91.958,-75.292,27312.249300
1 Jan 2020 15:44:38.000,92.818,-75.227,27506.443885
1 Jan 2020 15:45:08.000,93.649,-75.172,27702.668054
1 Jan 2020 15:45:38.000,94.451,-75.129,27900.712290
1 Jan 2020 15:46:08.000,95.228,-75.097,28100.368267
1 Jan 2020 15:46:38.000,95.979,-75.075,28301.431035
1 Jan 2020 15:47:08.000,96.708,-75.065,28503.697881
1 Jan 2020 15:47:21.745,97.034,-75.064,28596.716452
1 Jan 2020 16:50:22.552,281.122,-75.073,28601.708766
1 Jan 2020 16:50:52.000,280.932,-75.079,28384.426426
1 Jan 2020 16:51:22.000,280.723,-75.098,28163.432882
1 Jan 2020 16:51:52.000,280.498,-75.131,27943.008877
1 Jan 2020 16:52:22.000,280.257,-75.177,27723.365661
1 Jan 2020 16:52:52.000,279.997,-75.238,27504.718732
1 Jan 2020 16:53:22.000,279.719,-75.312,27287.287749
1 Jan 2020 16:53:52.000,279.421,-75.401,27071.296431
1 Jan 2020 16:54:22.000,279.102,-75.504,26856.972423
1 Jan 2020 16:54:52.000,278.761,-75.622,26644.547149
1 Jan 2020 16:55:22.000,278.397,-75.755,26434.255622
1 Jan 2020 16:55:52.000,278.007,-75.903,26226.336238
1 Jan 2020 16:56:22.000,277.590,-76.066,26021.030529
1 Jan 2020 16:56:52.000,277.144,-76.244,25818.582885
1 Jan 2020 16:57:22.000,276.667,-76.437,25619.240237
1 Jan 2020 16:57:52.000,276.156,-76.646,25423.251374
1 Jan 2020 16:58:22.000,275.608,-76.869,25230.867870
1 Jan 2020 16:58:52.000,275.019,-77.108,25042.341651
1 Jan 2020 16:59:22.000,274.387,-77.362,24857.925850
1 Jan 2020 16:59:52.000,273.706,-77.630,24677.873942
1 Jan 2020 17:00:22.000,272.973,-77.913,24502.439168
1 Jan 2020 17:00:52.000,272.180,-78.210,24331.873923
1 Jan 2020 17:01:22.000,271.323,-78.520,24166.428772
1 Jan 2020 17:01:52.000,270.393,-78.844,24006.352990
1 Jan 2020 17:02:22.000,269.382,-79.180,23851.891927
1 Jan 2020 17:02:52.000,268.280,-79.528,23703.287477
1 Jan 2020 17:03:22.000,267.075,-79.887,23560.776926
1 Jan 2020 17:03:52.000,265.753,-80.255,23424.591855
1 Jan 2020 17:04:22.000,264.300,-80.632,23294.958197
1 Jan 2020 17:04:52.000,262.695,-81.017,23172.093881
1 Jan 2020 17:05:22.000,260.918,-81.407,23056.208875
1 Jan 2020 17:05:52.000,258.941,-81.800,22947.503999
1 Jan 2020 17:06:22.000,256.735,-82.195,22846.169788
1 Jan 2020 17:06:52.000,254.265,-82.588,22752.386398
1 Jan 2020 17:07:22.000,251.488,-82.976,22666.321427
1 Jan 2020 17:07:52.000,248.359,-83.356,22588.129903
1 Jan 2020 17:08:22.000,244.827,-83.723,22517.953100
1 Jan 2020 17:08:52.000,240.837,-84.072,22455.918279
1 Jan 2020 17:09:22.000,236.337,-84.397,22402.137155
1 Jan 2020 17:09:52.000,231.287,-84.689,22356.705800
1 Jan 2020 17:10:22.000,225.664,-84.942,22319.703850
1 Jan 2020 17:10:52.000,219.487,-85.148,22291.194338
1 Jan 2020 17:11:22.000,212.824,-85.298,22271.222807
1 Jan 2020 17:11:52.000,205.804,-85.386,22259.817372
1 Jan 2020 17:12:22.000,198.609,-85.408,22256.988431
1 Jan 2020 17:12:52.000,191.452,-85.363,22262.728661
1 Jan 2020 17:13:22.000,184.535,-85.253,22277.012928
1 Jan 2020 17:13:52.000,178.023,-85.084,22299.798537
1 Jan 2020 17:14:22.000,172.023,-84.862,22331.025498
1 Jan 2020 17:14:52.000,166.581,-84.596,22370.616711
1 Jan 2020 17:15:22.000,161.699,-84.294,22418.478662
1 Jan 2020 17:15:52.000,157.346,-83.963,22474.501825
1 Jan 2020 17:16:22.000,153.476,-83.611,22538.561432
1 Jan 2020 17:16:52.000,150.035,-83.242,22610.517776
1 Jan 2020 17:17:22.000,146.970,-82.863,22690.217566
1 Jan 2020 17:17:52.000,144.230,-82.477,22777.494380
1 Jan 2020 17:18:22.000,141.773,-82.088,22872.169633
1 Jan 2020 17:18:52.000,139.558,-81.698,22974.053672
1 Jan 2020 17:19:22.000,137.552,-81.311,23082.945962
1 Jan 2020 17:19:52.000,135.726,-80.928,23198.637137
1 Jan 2020 17:20:22.000,134.057,-80.552,23320.909228
1 Jan 2020 17:20:52.000,132.522,-80.183,23449.536793
1 Jan 2020 17:21:22.000,131.105,-79.823,23584.288064
1 Jan 2020 17:21:52.000,129.790,-79.473,23724.925007
1 Jan 2020 17:22:22.000,128.564,-79.134,23871.205489
1 Jan 2020 17:22:52.000,127.417,-78.806,24022.883292
1 Jan 2020 17:23:22.000,126.338,-78.491,24179.709143
1 Jan 2020 17:23:52.000,125.320,-78.189,24341.431499
1 Jan 2020 17:24:22.000,124.354,-77.900,24507.797285
1 Jan 2020 17:24:52.000,123.436,-77.626,24678.552880
1 Jan 2020 17:25:22.000,122.560,-77.365,24853.443592
1 Jan 2020 17:25:52.000,121.720,-77.118,25032.216010
1 Jan 2020 17:26:22.000,120.912,-76.885,25214.617396
1 Jan 2020 17:26:52.000,120.134,-76.667,25400.396479
1 Jan 2020 17:27:22.000,119.380,-76.464,25589.303918
1 Jan 2020 17:27:52.000,118.649,-76.275,25781.092717
1 Jan 2020 17:28:22.000,117.938,-76.100,25975.518599
1 Jan 2020 17:28:52.000,117.243,-75.940,26172.340341
1 Jan 2020 17:29:22.000,116.564,-75.793,26371.320065
1 Jan 2020 17:29:52.000,115.897,-75.661,26572.223503
1 Jan 2020 17:30:22.000,115.242,-75.543,26774.820213
1 Jan 2020 17:30:52.000,114.596,-75.439,26978.883779
1 Jan 2020 17:31:22.000,113.958,-75.348,27184.191969
1 Jan 2020 17:31:52.000,113.326,-75.270,27390.526873
1 Jan 2020 17:32:22.000,112.699,-75.205,27597.675015
1 Jan 2020 17:32:52.000,112.076,-75.153,27805.427443
1 Jan 2020 17:33:22.000,111.456,-75.114,28013.579793
1 Jan 2020 17:33:52.000,110.837,-75.086,28221.932345
1 Jan 2020 17:34:22.000,110.218,-75.071,28430.290049
1 Jan 2020 17:34:46.993,109.701,-75.067,28603.738321
1 Jan 2020 18:39:19.053,270.925,-75.077,28608.614962
1 Jan 2020 18:39:49.000,269.540,-75.079,28475.052619
1 Jan 2020 18:40:19.000,268.130,-75.086,28343.741678
1 Jan 2020 18:40:49.000,266.699,-75.097,28215.067068
1 Jan 2020 18:41:19.000,265.245,-75.112,28089.172927
1 Jan 2020 18:41:49.000,263.768,-75.132,27966.201189
1 Jan 2020 18:42:19.000,262.267,-75.155,27846.291287
1 Jan 2020 18:42:49.000,260.741,-75.181,27729.579871
1 Jan 2020 18:43:19.000,259.191,-75.210,27616.200499
1 Jan 2020 18:43:49.000,257.615,-75.243,27506.283341
1 Jan 2020 18:44:19.000,256.013,-75.277,27399.954681
1 Jan 2020 18:44:49.000,254.386,-75.314,27297.337368
1 Jan 2020 18:45:19.000,252.732,-75.353,27198.549368
1 Jan 2020 18:45:49.000,251.052,-75.393,27103.704221
1 Jan 2020 18:46:19.000,249.347,-75.434,27012.910546
1 Jan 2020 18:46:49.000,247.615,-75.475,26926.271746
1 Jan 2020 18:47:19.000,245.858,-75.517,26843.885714
1 Jan 2020 18:47:49.000,244.075,-75.559,26765.844403
1 Jan 2020 18:48:19.000,242.269,-75.601,26692.234153
1 Jan 2020 18:48:49.000,240.438,-75.642,26623.134524
1 Jan 2020 18:49:19.000,238.584,-75.681,26558.618661
1 Jan 2020 18:49:49.000,236.708,-75.719,26498.752911
1 Jan 2020 18:50:19.000,234.811,-75.756,26443.596610
1 Jan 2020 18:50:49.000,232.895,-75.790,26393.201893
1 Jan 2020 18:51:19.000,230.960,-75.821,26347.613409
1 Jan 2020 18:51:49.000,229.008,-75.850,26306.868631
1 Jan 2020 18:52:19.000,227.041,-75.876,26270.997032
1 Jan 2020 18:52:49.000,225.060,-75.899,26240.020459
1 Jan 2020 18:53:19.000,223.067,-75.919,26213.952941
1 Jan 2020 18:53:49.000,221.065,-75.935,26192.800638
1 Jan 2020 18:54:19.000,219.055,-75.947,26176.561768
1 Jan 2020 18:54:49.000,217.038,-75.956,26165.226848
1 Jan 2020 18:55:19.000,215.018,-75.961,26158.778364
1 Jan 2020 18:55:49.000,212.996,-75.962,26157.191084
1 Jan 2020 18:56:19.000,210.973,-75.959,26160.432083
1 Jan 2020 18:56:49.000,208.953,-75.953,26168.460860
1 Jan 2020 18:57:19.000,206.936,-75.943,26181.229474
1 Jan 2020 18:57:49.000,204.926,-75.929,26198.682705
1 Jan 2020 18:58:19.000,202.922,-75.913,26220.758284
1 Jan 2020 18:58:49.000,200.928,-75.892,26247.387025
1 Jan 2020 18:59:19.000,198.945,-75.869,26278.493116
1 Jan 2020 18:59:49.000,196.974,-75.843,26313.994353
1 Jan 2020 19:00:19.000,195.016,-75.815,26353.802398
1 Jan 2020 19:00:49.000,193.072,-75.784,26397.823069
1 Jan 2020 19:01:19.000,191.145,-75.751,26445.956665
1 Jan 2020 19:01:49.000,189.234,-75.717,26498.098123
1 Jan 2020 19:02:19.000,187.340,-75.681,26554.137548
1 Jan 2020 19:02:49.000,185.464,-75.644,26613.960394
1 Jan 2020 19:03:19.000,183.607,-75.606,26677.447823
1 Jan 2020 19:03:49.000,181.769,-75.568,26744.477036
1 Jan 2020 19:04:19.000,179.949,-75.529,26814.921600
1 Jan 2020 19:04:49.000,178.149,-75.490,26888.651781
1 Jan 2020 19:05:19.000,176.368,-75.452,26965.534872
1 Jan 2020 19:05:49.000,174.607,-75.414,27045.435611
1 Jan 2020 19:06:19.000,172.864,-75.377,27128.216138
1 Jan 2020 19:06:49.000,171.139,-75.342,27213.736847
1 Jan 2020 19:07:19.000,169.434,-75.308,27301.856343
1 Jan 2020 19:07:49.000,167.745,-75.275,27392.431827
1 Jan 2020 19:08:19.000,166.075,-75.244,27485.319387
1 Jan 2020 19:08:49.000,164.421,-75.215,27580.374283
1 Jan 2020 19:09:19.000,162.784,-75.189,27677.451215
1 Jan 2020 19:09:49.000,161.162,-75.164,27776.404587
1 Jan 2020 19:10:19.000,159.555,-75.143,27877.088753
1 Jan 2020 19:10:49.000,157.962,-75.123,27979.358260
1 Jan 2020 19:11:19.000,156.383,-75.107,28083.068070
1 Jan 2020 19:11:49.000,154.816,-75.094,28188.073780
1 Jan 2020 19:12:19.000,153.261,-75.083,28294.231823
1 Jan 2020 19:12:49.000,151.718,-75.076,28401.399658
1 Jan 2020 19:13:19.000,150.185,-75.071,28509.435957
1 Jan 2020 19:13:46.507,148.787,-75.070,28609.136944
1 Jan 2020 21:35:17.049,49.333,-75.073,28610.105171
1 Jan 2020 21:35:47.000,47.991,-75.076,28468.184038
1 Jan 2020 21:36:17.000,46.639,-75.084,28326.265527
1 Jan 2020 21:36:47.000,45.277,-75.098,28184.739049
1 Jan 2020 21:37:17.000,43.903,-75.117,28043.762978
1 Jan 2020 21:37:47.000,42.516,-75.141,27903.498366
1 Jan 2020 21:38:17.000,41.115,-75.171,27764.108812
1 Jan 2020 21:38:47.000,39.699,-75.207,27625.760315
1 Jan 2020 21:39:17.000,38.266,-75.247,27488.621115
1 Jan 2020 21:39:47.000,36.815,-75.293,27352.861518
1 Jan 2020 21:40:17.000,35.345,-75.344,27218.653699
1 Jan 2020 21:40:47.000,33.853,-75.400,27086.171498
1 Jan 2020 21:41:17.000,32.338,-75.461,26955.590187
1 Jan 2020 21:41:47.000,30.800,-75.527,26827.086227
1 Jan 2020 21:42:17.000,29.236,-75.597,26700.837003
1 Jan 2020 21:42:47.000,27.645,-75.671,26577.020538
1 Jan 2020 21:43:17.000,26.025,-75.749,26455.815195
1 Jan 2020 21:43:47.000,24.376,-75.831,26337.399347
1 Jan 2020 21:44:17.000,22.695,-75.916,26221.950894
1 Jan 2020 21:44:47.000,20.981,-76.004,26109.647506
1 Jan 2020 21:45:17.000,19.233,-76.094,26000.665325
1 Jan 2020 21:45:47.000,17.449,-76.186,25895.179188
1 Jan 2020 21:46:17.000,15.629,-76.279,25793.362063
1 Jan 2020 21:46:47.000,13.772,-76.374,25695.384617
1 Jan 2020 21:47:17.000,11.876,-76.468,25601.414777
1 Jan 2020 21:47:47.000,9.941,-76.563,25511.617279
1 Jan 2020 21:48:17.000,7.967,-76.656,25426.153098
1 Jan 2020 21:48:47.000,5.953,-76.749,25345.179399
1 Jan 2020 21:49:17.000,3.899,-76.839,25268.848420
1 Jan 2020 21:49:47.000,1.806,-76.926,25197.307430
1 Jan 2020 21:50:17.000,359.675,-77.009,25130.698135
1 Jan 2020 21:50:47.000,357.505,-77.089,25069.156208
1 Jan 2020 21:51:17.000,355.300,-77.164,25012.810768
1 Jan 2020 21:51:47.000,353.060,-77.233,24961.784130
1 Jan 2020 21:52:17.000,350.789,-77.297,24916.191038
1 Jan 2020 21:52:47.000,348.487,-77.353,24876.138463
1 Jan 2020 21:53:17.000,346.160,-77.403,24841.725136
1 Jan 2020 21:53:47.000,343.809,-77.445,24813.041165
1 Jan 2020 21:54:17.000,341.440,-77.479,24790.167690
1 Jan 2020 21:54:47.000,339.055,-77.504,24773.176546
1 Jan 2020 21:55:17.000,336.659,-77.520,24762.129973
1 Jan 2020 21:55:47.000,334.258,-77.528,24757.080375
1 Jan 2020 21:56:17.000,331.855,-77.527,24758.070096
1 Jan 2020 21:56:47.000,329.456,-77.516,24765.131251
1 Jan 2020 21:57:17.000,327.064,-77.497,24778.285664
1 Jan 2020 21:57:47.000,324.687,-77.468,24797.544505
1 Jan 2020 21:58:17.000,322.326,-77.431,24822.908644
1 Jan 2020 21:58:47.000,319.988,-77.385,24854.368399
1 Jan 2020 21:59:17.000,317.677,-77.332,24891.903643
1 Jan 2020 21:59:47.000,315.395,-77.271,24935.483896
1 Jan 2020 22:00:17.000,313.147,-77.202,24985.068590
1 Jan 2020 22:00:47.000,310.935,-77.128,25040.606710
1 Jan 2020 22:01:17.000,308.764,-77.048,25102.037798
1 Jan 2020 22:01:47.000,306.633,-76.962,25169.291683
1 Jan 2020 22:02:17.000,304.547,-76.872,25242.288898
1 Jan 2020 22:02:47.000,302.505,-76.778,25320.940994
1 Jan 2020 22:03:17.000,300.510,-76.682,25405.151068
1 Jan 2020 22:03:47.000,298.562,-76.583,25494.813405
1 Jan 2020 22:04:17.000,296.661,-76.482,25589.814954
1 Jan 2020 22:04:47.000,294.808,-76.381,25690.035023
1 Jan 2020 22:05:17.000,293.002,-76.280,25795.345883
1 Jan 2020 22:05:47.000,291.243,-76.179,25905.613203
1 Jan 2020 22:06:17.000,289.530,-76.079,26020.696498
1 Jan 2020 22:06:47.000,287.863,-75.982,26140.449817
1 Jan 2020 22:07:17.000,286.241,-75.886,26264.721239
1 Jan 2020 22:07:47.000,284.662,-75.794,26393.354754
1 Jan 2020 22:08:17.000,283.126,-75.706,26526.189762
1 Jan 2020 22:08:47.000,281.631,-75.622,26663.061751
1 Jan 2020 22:09:17.000,280.175,-75.542,26803.802731
1 Jan 2020 22:09:47.000,278.758,-75.468,26948.241659
1 Jan 2020 22:10:17.000,277.379,-75.399,27096.204844
1 Jan 2020 22:10:47.000,276.035,-75.336,27247.516351
1 Jan 2020 22:11:17.000,274.725,-75.279,27401.998659
1 Jan 2020 22:11:47.000,273.448,-75.229,27559.471927
1 Jan 2020 22:12:17.000,272.202,-75.186,27719.755988
1 Jan 2020 22:12:47.000,270.986,-75.149,27882.669594
1 Jan 2020 22:13:17.000,269.799,-75.120,28048.031005
1 Jan 2020 22:13:47.000,268.639,-75.098,28215.658282
1 Jan 2020 22:14:17.000,267.505,-75.084,28385.369577
1 Jan 2020 22:14:47.000,266.395,-75.078,28556.983388
1 Jan 2020 22:14:56.067,266.064,-75.078,28609.198906
1 Jan 2020 23:18:29.256,74.868,-75.069,28604.682035
1 Jan 2020 23:18:59.000,74.625,-75.076,28386.020743
1 Jan 2020 23:19:29.000,74.387,-75.095,28165.459772
1 Jan 2020 23:19:59.000,74.156,-75.128,27945.083940
1 Jan 2020 23:20:29.000,73.933,-75.175,27725.099071
1 Jan 2020 23:20:59.000,73.715,-75.235,27505.715777
1 Jan 2020 23:21:29.000,73.505,-75.311,27287.149429
1 Jan 2020 23:21:59.000,73.300,-75.400,27069.620097
1 Jan 2020 23:22:29.000,73.101,-75.505,26853.352474
1 Jan 2020 23:22:59.000,72.908,-75.625,26638.575782
1 Jan 2020 23:23:29.000,72.719,-75.761,26425.523642
1 Jan 2020 23:23:59.000,72.536,-75.912,26214.433925
1 Jan 2020 23:24:29.000,72.358,-76.079,26005.548570
1 Jan 2020 23:24:59.000,72.184,-76.263,25799.113368
1 Jan 2020 23:25:29.000,72.014,-76.463,25595.377714
1 Jan 2020 23:25:59.000,71.848,-76.680,25394.594314
1 Jan 2020 23:26:29.000,71.685,-76.913,25197.018858
1 Jan 2020 23:26:59.000,71.526,-77.163,25002.909311
1 Jan 2020 23:27:29.000,71.370,-77.431,24812.526846
1 Jan 2020 23:27:59.000,71.216,-77.715,24626.133338
1 Jan 2020 23:28:29.000,71.064,-78.016,24443.992215
1 Jan 2020 23:28:59.000,70.914,-78.335,24266.367550
1 Jan 2020 23:29:29.000,70.766,-78.670,24093.523440
1 Jan 2020 23:29:59.000,70.617,-79.022,23925.723338
1 Jan 2020 23:30:29.000,70.469,-79.391,23763.229031
1 Jan 2020 23:30:59.000,70.319,-79.776,23606.301072
1 Jan 2020 23:31:29.000,70.168,-80.178,23455.196138
1 Jan 2020 23:31:59.000,70.013,-80.595,23310.167384
1 Jan 2020 23:32:29.000,69.854,-81.028,23171.463231
1 Jan 2020 23:32:59.000,69.689,-81.476,23039.326190
1 Jan 2020 23:33:29.000,69.516,-81.939,22913.992785
1 Jan 2020 23:33:59.000,69.331,-82.415,22795.691186
1 Jan 2020 23:34:29.000,69.132,-82.905,22684.641108
1 Jan 2020 23:34:59.000,68.912,-83.408,22581.052547
1 Jan 2020 23:35:29.000,68.667,-83.922,22485.124578
1 Jan 2020 23:35:59.000,68.385,-84.448,22397.045083
1 Jan 2020 23:36:29.000,68.055,-84.984,22316.988617
1 Jan 2020 23:36:59.000,67.654,-85.530,22245.116233
1 Jan 2020 23:37:29.000,67.151,-86.083,22181.574271
1 Jan 2020 23:37:59.000,66.491,-86.644,22126.493940
1 Jan 2020 23:38:29.000,65.574,-87.211,22079.989874
1 Jan 2020 23:38:59.000,64.195,-87.782,22042.159893
1 Jan 2020 23:39:29.000,61.863,-88.356,22013.084236
1 Jan 2020 23:39:59.000,57.047,-88.927,21992.825255
1 Jan 2020 23:40:29.000,41.778,-89.476,21981.426697
1 Jan 2020 23:40:59.000,314.249,-89.717,21978.913656
1 Jan 2020 23:41:29.000,270.289,-89.246,21985.292368
1 Jan 2020 23:41:59.000,261.734,-88.682,22000.550105
1 Jan 2020 23:42:29.000,258.347,-88.109,22024.655333
1 Jan 2020 23:42:59.000,256.550,-87.536,22057.557883
1 Jan 2020 23:43:29.000,255.442,-86.966,22099.189357
1 Jan 2020 23:43:59.000,254.697,-86.401,22149.463238
1 Jan 2020 23:44:29.000,254.166,-85.843,22208.275896
1 Jan 2020 23:44:59.000,253.772,-85.293,22275.506927
1 Jan 2020 23:45:29.000,253.473,-84.751,22351.020094
1 Jan 2020 23:45:59.000,253.241,-84.219,22434.663574
1 Jan 2020 23:46:29.000,253.060,-83.698,22526.271634
1 Jan 2020 23:46:59.000,252.919,-83.188,22625.665038
1 Jan 2020 23:47:29.000,252.809,-82.690,22732.652315
1 Jan 2020 23:47:59.000,252.725,-82.206,22847.030051
1 Jan 2020 23:48:29.000,252.662,-81.735,22968.584954
1 Jan 2020 23:48:59.000,252.618,-81.278,23097.094198
1 Jan 2020 23:49:29.000,252.589,-80.837,23232.326611
1 Jan 2020 23:49:59.000,252.575,-80.410,23374.043952
1 Jan 2020 23:50:29.000,252.573,-79.999,23522.000887
1 Jan 2020 23:50:59.000,252.582,-79.605,23675.947466
1 Jan 2020 23:51:29.000,252.602,-79.226,23835.629058
1 Jan 2020 23:51:59.000,252.631,-78.864,24000.787498
1 Jan 2020 23:52:29.000,252.670,-78.519,24171.161933
1 Jan 2020 23:52:59.000,252.717,-78.191,24346.489924
1 Jan 2020 23:53:29.000,252.773,-77.880,24526.507027
1 Jan 2020 23:53:59.000,252.836,-77.586,24710.949244
1 Jan 2020 23:54:29.000,252.907,-77.309,24899.552517
1 Jan 2020 23:54:59.000,252.986,-77.049,25092.053616
1 Jan 2020 23:55:29.000,253.072,-76.806,25288.190687
1 Jan 2020 23:55:59.000,253.165,-76.580,25487.703751
1 Jan 2020 23:56:29.000,253.265,-76.371,25690.335153
1 Jan 2020 23:56:59.000,253.372,-76.178,25895.829963
1 Jan 2020 23:57:29.000,253.486,-76.002,26103.936337
1 Jan 2020 23:57:59.000,253.608,-75.842,26314.406171
1 Jan 2020 23:58:29.000,253.736,-75.698,26526.994015
1 Jan 2020 23:58:59.000,253.872,-75.570,26741.459351
1 Jan 2020 23:59:29.000,254.014,-75.457,26957.565438
1 Jan 2020 23:59:59.000,254.165,-75.359,27175.079827
2 Jan 2020 00:00:29.000,254.322,-75.277,27393.774498
2 Jan 2020 00:00:59.000,254.487,-75.209,27613.425978
2 Jan 2020 00:01:29.000,254.660,-75.155,27833.815435
2 Jan 2020 00:01:59.000,254.841,-75.115,28054.728740
2 Jan 2020 00:02:29.000,255.030,-75.089,28275.956525
2 Jan 2020 00:02:59.000,255.227,-75.076,28497.294207
2 Jan 2020 00:03:13.274,255.323,-75.075,28602.589545
2 Jan 2020 01:06:41.820,85.754,-75.065,28597.427748
2 Jan 2020 01:07:11.000,86.790,-75.069,28426.378458
2 Jan 2020 01:07:41.000,87.879,-75.081,28252.263912
2 Jan 2020 01:08:11.000,88.994,-75.101,28080.099767
2 Jan 2020 01:08:41.000,90.135,-75.129,27910.070686
2 Jan 2020 01:09:11.000,91.305,-75.165,27742.361772
2 Jan 2020 01:09:41.000,92.504,-75.208,27577.158302
2 Jan 2020 01:10:11.000,93.734,-75.259,27414.645439
2 Jan 2020 01:10:41.000,94.998,-75.316,27255.007928
2 Jan 2020 01:11:11.000,96.295,-75.381,27098.429767
2 Jan 2020 01:11:41.000,97.629,-75.451,26945.093872
2 Jan 2020 01:12:11.000,99.000,-75.528,26795.181709
2 Jan 2020 01:12:41.000,100.409,-75.611,26648.872641
2 Jan 2020 01:13:11.000,101.860,-75.699,26506.344648
2 Jan 2020 01:13:41.000,103.352,-75.792,26367.772236
2 Jan 2020 01:14:11.000,104.888,-75.889,26233.327133
2 Jan 2020 01:14:41.000,106.468,-75.990,26103.177571
2 Jan 2020 01:15:11.000,108.095,-76.094,25977.487835
2 Jan 2020 01:15:41.000,109.769,-76.200,25856.417805
2 Jan 2020 01:16:11.000,111.492,-76.309,25740.122262
2 Jan 2020 01:16:41.000,113.264,-76.418,25628.751325
2 Jan 2020 01:17:11.000,115.087,-76.529,25522.448611
2 Jan 2020 01:17:41.000,116.960,-76.639,25421.351683
2 Jan 2020 01:18:11.000,118.885,-76.748,25325.591352
2 Jan 2020 01:18:41.000,120.860,-76.855,25235.291224
2 Jan 2020 01:19:11.000,122.886,-76.959,25150.567070
2 Jan 2020 01:19:41.000,124.962,-77.060,25071.527120
2 Jan 2020 01:20:11.000,127.087,-77.157,24998.270560
2 Jan 2020 01:20:41.000,129.259,-77.249,24930.887878
2 Jan 2020 01:21:11.000,131.476,-77.336,24869.460316
2 Jan 2020 01:21:41.000,133.736,-77.416,24814.059425
2 Jan 2020 01:22:11.000,136.036,-77.489,24764.747238
2 Jan 2020 01:22:41.000,138.372,-77.554,24721.575280
2 Jan 2020 01:23:11.000,140.740,-77.610,24684.584843
2 Jan 2020 01:23:41.000,143.137,-77.658,24653.806672
2 Jan 2020 01:24:11.000,145.557,-77.697,24629.260760
2 Jan 2020 01:24:41.000,147.996,-77.726,24610.956549
2 Jan 2020 01:25:11.000,150.448,-77.746,24598.892425
2 Jan 2020 01:25:41.000,152.909,-77.755,24593.056030
2 Jan 2020 01:26:11.000,155.372,-77.755,24593.424234
2 Jan 2020 01:26:41.000,157.832,-77.744,24599.963204
2 Jan 2020 01:27:11.000,160.285,-77.724,24612.628638
2 Jan 2020 01:27:41.000,162.725,-77.695,24631.365795
2 Jan 2020 01:28:11.000,165.146,-77.656,24656.109838
2 Jan 2020 01:28:41.000,167.546,-77.608,24686.786067
2 Jan 2020 01:29:11.000,169.919,-77.552,24723.310232
2 Jan 2020 01:29:41.000,172.262,-77.489,24765.588911
2 Jan 2020 01:30:11.000,174.572,-77.418,24813.519725
2 Jan 2020 01:30:41.000,176.846,-77.341,24866.991970
2 Jan 2020 01:31:11.000,179.081,-77.259,24925.886898
2 Jan 2020 01:31:41.000,181.276,-77.171,24990.078199
2 Jan 2020 01:32:11.000,183.430,-77.079,25059.432473
2 Jan 2020 01:32:41.000,185.541,-76.983,25133.809790
2 Jan 2020 01:33:11.000,187.609,-76.885,25213.063833
2 Jan 2020 01:33:41.000,189.634,-76.784,25297.042909
2 Jan 2020 01:34:11.000,191.616,-76.682,25385.590113
2 Jan 2020 01:34:41.000,193.555,-76.579,25478.543902
2 Jan 2020 01:35:11.000,195.453,-76.476,25575.738597
2 Jan 2020 01:35:41.000,197.309,-76.374,25677.004868
2 Jan 2020 01:36:11.000,199.125,-76.273,25782.170210
2 Jan 2020 01:36:41.000,200.902,-76.173,25891.059575
2 Jan 2020 01:37:11.000,202.642,-76.076,26003.495199
2 Jan 2020 01:37:41.000,204.346,-75.981,26119.297966
2 Jan 2020 01:38:11.000,206.015,-75.890,26238.287224
2 Jan 2020 01:38:41.000,207.651,-75.802,26360.281341
2 Jan 2020 01:39:11.000,209.256,-75.718,26485.098089
2 Jan 2020 01:39:41.000,210.831,-75.638,26612.555014
2 Jan 2020 01:40:11.000,212.378,-75.562,26742.469782
2 Jan 2020 01:40:41.000,213.899,-75.492,26874.660508
2 Jan 2020 01:41:11.000,215.394,-75.426,27008.946061
2 Jan 2020 01:41:41.000,216.867,-75.366,27145.146350
2 Jan 2020 01:42:11.000,218.317,-75.311,27283.082595
2 Jan 2020 01:42:41.000,219.748,-75.262,27422.577571
2 Jan 2020 01:43:11.000,221.159,-75.218,27563.455837
2 Jan 2020 01:43:41.000,222.554,-75.180,27705.543948
2 Jan 2020 01:44:11.000,223.933,-75.147,27848.670641
2 Jan 2020 01:44:41.000,225.298,-75.121,27992.667227
2 Jan 2020 01:45:11.000,226.649,-75.100,28137.366909
2 Jan 2020 01:45:41.000,227.990,-75.085,28282.606176
2 Jan 2020 01:46:11.000,229.320,-75.075,28428.224103
2 Jan 2020 01:46:41.000,230.641,-75.072,28574.062667
2 Jan 2020 01:46:45.558,230.841,-75.072,28596.228692
2 Jan 2020 04:08:35.062,331.404,-75.065,28593.023557
2 Jan 2020 04:09:05.000,332.941,-75.066,28488.166965
2 Jan 2020 04:09:35.000,334.492,-75.071,28383.909634
2 Jan 2020 04:10:05.000,336.053,-75.078,28280.606954
2 Jan 2020 04:10:35.000,337.625,-75.088,28178.398563
2 Jan 2020 04:11:05.000,339.208,-75.100,28077.425085
2 Jan 2020 04:11:35.000,340.805,-75.115,27977.827942
2 Jan 2020 04:12:05.000,342.414,-75.133,27879.749156
2 Jan 2020 04:12:35.000,344.037,-75.153,27783.331140
2 Jan 2020 04:13:05.000,345.675,-75.175,27688.716478
2 Jan 2020 04:13:35.000,347.328,-75.200,27596.047693
2 Jan 2020 04:14:05.000,348.997,-75.226,27505.467003
2 Jan 2020 04:14:35.000,350.681,-75.254,27417.116072
2 Jan 2020 04:15:05.000,352.383,-75.284,27331.135746
2 Jan 2020 04:15:35.000,354.101,-75.315,27247.665780
2 Jan 2020 04:16:05.000,355.836,-75.347,27166.844557
2 Jan 2020 04:16:35.000,357.590,-75.380,27088.808798
2 Jan 2020 04:17:05.000,359.360,-75.414,27013.693188
2 Jan 2020 04:17:35.000,1.149,-75.448,26941.630398
2 Jan 2020 04:18:05.000,2.955,-75.482,26872.750276
2 Jan 2020 04:18:35.000,4.779,-75.516,26807.179871
2 Jan 2020 04:19:05.000,6.620,-75.550,26745.043035
2 Jan 2020 04:19:35.000,8.478,-75.583,26686.460103
2 Jan 2020 04:20:05.000,10.353,-75.615,26631.547575
2 Jan 2020 04:20:35.000,12.244,-75.646,26580.417802
2 Jan 2020 04:21:05.000,14.150,-75.675,26533.178671
2 Jan 2020 04:21:35.000,16.071,-75.703,26489.933269
2 Jan 2020 04:22:05.000,18.004,-75.728,26450.779700
2 Jan 2020 04:22:35.000,19.951,-75.752,26415.810609
2 Jan 2020 04:23:05.000,21.908,-75.772,26385.113022
2 Jan 2020 04:23:35.000,23.876,-75.791,26358.768051
2 Jan 2020 04:24:05.000,25.851,-75.806,26336.850632
2 Jan 2020 04:24:35.000,27.834,-75.818,26319.429284
2 Jan 2020 04:25:05.000,29.822,-75.827,26306.565911
2 Jan 2020 04:25:35.000,31.814,-75.833,26298.315518
2 Jan 2020 04:26:05.000,33.807,-75.836,26294.726131
2 Jan 2020 04:26:35.000,35.801,-75.835,26295.838575
2 Jan 2020 04:27:05.000,37.793,-75.831,26301.686349
2 Jan 2020 04:27:35.000,39.781,-75.823,26312.295508
2 Jan 2020 04:28:05.000,41.764,-75.812,26327.684575
2 Jan 2020 04:28:35.000,43.740,-75.798,26347.864555
2 Jan 2020 04:29:05.000,45.707,-75.780,26372.838593
2 Jan 2020 04:29:35.000,47.663,-75.760,26402.602400
2 Jan 2020 04:30:05.000,49.606,-75.737,26437.143983
2 Jan 2020 04:30:35.000,51.536,-75.711,26476.443754
2 Jan 2020 04:31:05.000,53.450,-75.682,26520.474592
2 Jan 2020 04:31:35.000,55.347,-75.652,26569.201934
2 Jan 2020 04:32:05.000,57.227,-75.619,26622.584017
2 Jan 2020 04:32:35.000,59.086,-75.585,26680.571508
