STKdata/Satellite-MEO_Satellite10101-To-Satellite-LEO_Satellite20000 AER.csv

"Time (UTCG)","Azimuth (deg)","Elevation (deg)","Range (km)"
1 Jan 2020 00:13:52.685,275.529,-75.075,28605.721198
1 Jan 2020 00:14:22.000,274.638,-75.080,28420.487884
1 Jan 2020 00:14:52.000,273.702,-75.094,28232.373046
1 Jan 2020 00:15:22.000,272.741,-75.117,28045.911851
1 Jan 2020 00:15:52.000,271.753,-75.150,27861.299889
1 Jan 2020 00:16:22.000,270.737,-75.192,27678.734182
1 Jan 2020 00:16:52.000,269.690,-75.243,27498.412942
1 Jan 2020 00:17:22.000,268.612,-75.303,27320.535313
1 Jan 2020 00:17:52.000,267.500,-75.373,27145.301090
1 Jan 2020 00:18:22.000,266.352,-75.450,26972.910415
1 Jan 2020 00:18:52.000,265.167,-75.537,26803.563450
1 Jan 2020 00:19:22.000,263.943,-75.631,26637.460027
1 Jan 2020 00:19:52.000,262.677,-75.733,26474.798991
1 Jan 2020 00:20:22.000,261.367,-75.842,26315.778939
1 Jan 2020 00:20:52.000,260.011,-75.958,26160.596089
1 Jan 2020 00:21:22.000,258.607,-76.081,26009.444986
1 Jan 2020 00:21:52.000,257.153,-76.209,25862.517748
1 Jan 2020 00:22:22.000,255.645,-76.343,25720.003582
1 Jan 2020 00:22:52.000,254.083,-76.481,25582.088288
1 Jan 2020 00:23:22.000,252.463,-76.624,25448.953485
1 Jan 2020 00:23:52.000,250.783,-76.769,25320.777088
1 Jan 2020 00:24:22.000,249.041,-76.917,25197.731244
1 Jan 2020 00:24:52.000,247.235,-77.066,25079.982800
1 Jan 2020 00:25:22.000,245.363,-77.215,24967.692490
1 Jan 2020 00:25:52.000,243.424,-77.365,24861.014375
1 Jan 2020 00:26:22.000,241.417,-77.512,24760.095079
1 Jan 2020 00:26:52.000,239.340,-77.658,24665.074087
1 Jan 2020 00:27:22.000,237.193,-77.799,24576.081923
1 Jan 2020 00:27:52.000,234.977,-77.936,24493.240494
1 Jan 2020 00:28:22.000,232.692,-78.067,24416.662372
1 Jan 2020 00:28:52.000,230.340,-78.192,24346.450174
1 Jan 2020 00:29:22.000,227.922,-78.308,24282.696704
1 Jan 2020 00:29:52.000,225.443,-78.415,24225.483649
1 Jan 2020 00:30:22.000,222.906,-78.512,24174.881814
1 Jan 2020 00:30:52.000,220.315,-78.599,24130.950640
1 Jan 2020 00:31:22.000,217.677,-78.673,24093.737831
1 Jan 2020 00:31:52.000,214.998,-78.735,24063.279519
1 Jan 2020 00:32:22.000,212.286,-78.783,24039.599476
1 Jan 2020 00:32:52.000,209.548,-78.818,24022.709410
1 Jan 2020 00:33:22.000,206.792,-78.839,24012.608797
1 Jan 2020 00:33:52.000,204.027,-78.846,24009.284837
1 Jan 2020 00:34:22.000,201.262,-78.839,24012.712664
1 Jan 2020 00:34:52.000,198.506,-78.817,24022.855199
1 Jan 2020 00:35:22.000,195.766,-78.782,24039.663501
1 Jan 2020 00:35:52.000,193.052,-78.734,24063.076939
1 Jan 2020 00:36:22.000,190.369,-78.673,24093.023487
1 Jan 2020 00:36:52.000,187.725,-78.600,24129.419972
1 Jan 2020 00:37:22.000,185.126,-78.516,24172.172541
1 Jan 2020 00:37:52.000,182.576,-78.422,24221.177020
1 Jan 2020 00:38:22.000,180.079,-78.318,24276.319372
1 Jan 2020 00:38:52.000,177.640,-78.206,24337.476257
1 Jan 2020 00:39:22.000,175.260,-78.086,24404.515263
1 Jan 2020 00:39:52.000,172.940,-77.961,24477.295847
1 Jan 2020 00:40:22.000,170.682,-77.830,24555.669629
1 Jan 2020 00:40:52.000,168.486,-77.695,24639.481027
1 Jan 2020 00:41:22.000,166.352,-77.557,24728.567834
1 Jan 2020 00:41:52.000,164.278,-77.417,24822.761938
1 Jan 2020 00:42:22.000,162.263,-77.275,24921.889385
1 Jan 2020 00:42:52.000,160.307,-77.133,25025.771726
1 Jan 2020 00:43:22.000,158.406,-76.992,25134.226088
1 Jan 2020 00:43:52.000,156.560,-76.852,25247.065869
1 Jan 2020 00:44:22.000,154.765,-76.715,25364.101279
1 Jan 2020 00:44:52.000,153.019,-76.580,25485.139879
1 Jan 2020 00:45:22.000,151.321,-76.448,25609.987097
1 Jan 2020 00:45:52.000,149.667,-76.321,25738.446914
1 Jan 2020 00:46:22.000,148.056,-76.198,25870.321573
1 Jan 2020 00:46:52.000,146.484,-76.080,26005.413168
1 Jan 2020 00:47:22.000,144.950,-75.967,26143.523316
1 Jan 2020 00:47:52.000,143.450,-75.860,26284.453745
1 Jan 2020 00:48:22.000,141.984,-75.759,26428.006672
1 Jan 2020 00:48:52.000,140.548,-75.664,26573.985151
1 Jan 2020 00:49:22.000,139.141,-75.576,26722.193404
1 Jan 2020 00:49:52.000,137.760,-75.495,26872.437118
1 Jan 2020 00:50:22.000,136.403,-75.421,27024.523726
1 Jan 2020 00:50:52.000,135.069,-75.353,27178.262661
1 Jan 2020 00:51:22.000,133.755,-75.293,27333.465588
1 Jan 2020 00:51:52.000,132.460,-75.240,27489.946615
1 Jan 2020 00:52:22.000,131.182,-75.194,27647.522483
1 Jan 2020 00:52:52.000,129.919,-75.155,27806.012737
1 Jan 2020 00:53:22.000,128.670,-75.124,27965.239877
1 Jan 2020 00:53:52.000,127.433,-75.100,28125.029493
1 Jan 2020 00:54:22.000,126.207,-75.082,28285.210385
1 Jan 2020 00:54:52.000,124.990,-75.072,28445.614664
1 Jan 2020 00:55:22.000,123.780,-75.069,28606.077843
1 Jan 2020 00:55:22.203,123.772,-75.069,28607.161694
1 Jan 2020 02:06:08.484,256.858,-75.077,28610.987940
1 Jan 2020 02:06:38.000,255.164,-75.077,28585.347763
1 Jan 2020 02:07:08.000,253.438,-75.078,28562.510616
1 Jan 2020 02:07:38.000,251.708,-75.078,28542.937851
1 Jan 2020 02:08:08.000,249.975,-75.078,28526.639314
1 Jan 2020 02:08:38.000,248.238,-75.078,28513.619673
1 Jan 2020 02:09:08.000,246.500,-75.078,28503.878408
1 Jan 2020 02:09:38.000,244.759,-75.078,28497.409818
1 Jan 2020 02:10:08.000,243.018,-75.078,28494.203040
1 Jan 2020 02:10:38.000,241.276,-75.078,28494.242082
1 Jan 2020 02:11:08.000,239.534,-75.078,28497.505848
1 Jan 2020 02:11:38.000,237.792,-75.078,28503.968272
1 Jan 2020 02:12:08.000,236.052,-75.077,28513.598277
1 Jan 2020 02:12:38.000,234.313,-75.077,28526.359934
1 Jan 2020 02:13:08.000,232.576,-75.077,28542.212542
1 Jan 2020 02:13:38.000,230.842,-75.076,28561.110730
1 Jan 2020 02:14:08.000,229.111,-75.076,28583.004579
1 Jan 2020 02:14:38.000,227.383,-75.076,28607.839747
1 Jan 2020 02:14:41.485,227.183,-75.076,28610.912510
1 Jan 2020 03:19:33.961,15.554,-75.076,28611.280719
1 Jan 2020 03:20:03.000,14.004,-75.077,28524.857286
1 Jan 2020 03:20:33.000,12.392,-75.081,28436.759461
1 Jan 2020 03:21:03.000,10.770,-75.086,28349.996295
1 Jan 2020 03:21:33.000,9.139,-75.093,28264.698314
1 Jan 2020 03:22:03.000,7.496,-75.102,28180.996026
1 Jan 2020 03:22:33.000,5.842,-75.112,28099.019711
1 Jan 2020 03:23:03.000,4.176,-75.124,28018.899201
1 Jan 2020 03:23:33.000,2.498,-75.138,27940.763657
1 Jan 2020 03:24:03.000,0.808,-75.153,27864.741326
1 Jan 2020 03:24:33.000,359.106,-75.169,27790.959310
1 Jan 2020 03:25:03.000,357.390,-75.186,27719.543310
1 Jan 2020 03:25:33.000,355.662,-75.204,27650.617375
1 Jan 2020 03:26:03.000,353.921,-75.222,27584.303639
1 Jan 2020 03:26:33.000,352.167,-75.241,27520.722064
1 Jan 2020 03:27:03.000,350.401,-75.260,27459.990112
1 Jan 2020 03:27:33.000,348.622,-75.280,27402.222695
1 Jan 2020 03:28:03.000,346.830,-75.299,27347.531572
1 Jan 2020 03:28:33.000,345.026,-75.318,27296.025300
1 Jan 2020 03:29:03.000,343.211,-75.337,27247.808908
1 Jan 2020 03:29:33.000,341.384,-75.355,27202.983627
1 Jan 2020 03:30:03.000,339.547,-75.372,27161.646624
1 Jan 2020 03:30:33.000,337.699,-75.388,27123.890741
1 Jan 2020 03:31:03.000,335.843,-75.403,27089.804241
1 Jan 2020 03:31:33.000,333.978,-75.417,27059.470554
1 Jan 2020 03:32:03.000,332.105,-75.429,27032.968071
1 Jan 2020 03:32:33.000,330.226,-75.440,27010.369861
1 Jan 2020 03:33:03.000,328.341,-75.448,26991.743496
1 Jan 2020 03:33:33.000,326.452,-75.456,26977.150838
1 Jan 2020 03:34:03.000,324.559,-75.461,26966.647853
1 Jan 2020 03:34:33.000,322.664,-75.464,26960.284434
1 Jan 2020 03:35:03.000,320.769,-75.465,26958.104249
1 Jan 2020 03:35:33.000,318.873,-75.464,26960.144646
1 Jan 2020 03:36:03.000,316.980,-75.461,26966.436363
1 Jan 2020 03:36:33.000,315.089,-75.456,26977.003675
1 Jan 2020 03:37:03.000,313.202,-75.449,26991.864159
1 Jan 2020 03:37:33.000,311.321,-75.440,27011.028670
1 Jan 2020 03:38:03.000,309.447,-75.429,27034.501305
1 Jan 2020 03:38:33.000,307.581,-75.416,27062.279387
1 Jan 2020 03:39:03.000,305.724,-75.402,27094.353466
1 Jan 2020 03:39:33.000,303.877,-75.386,27130.707454
1 Jan 2020 03:40:03.000,302.042,-75.369,27171.318264
1 Jan 2020 03:40:33.000,300.220,-75.350,27216.156471
1 Jan 2020 03:41:03.000,298.411,-75.331,27265.186014
1 Jan 2020 03:41:33.000,296.616,-75.311,27318.364391
1 Jan 2020 03:42:03.000,294.837,-75.290,27375.642789
1 Jan 2020 03:42:33.000,293.073,-75.269,27436.966224
1 Jan 2020 03:43:03.000,291.326,-75.248,27502.273698
1 Jan 2020 03:43:33.000,289.596,-75.227,27571.498514
1 Jan 2020 03:44:03.000,287.884,-75.207,27644.567902
1 Jan 2020 03:44:33.000,286.190,-75.187,27721.404050
1 Jan 2020 03:45:03.000,284.514,-75.168,27801.923769
1 Jan 2020 03:45:33.000,282.857,-75.150,27886.038843
1 Jan 2020 03:46:03.000,281.219,-75.134,27973.656266
1 Jan 2020 03:46:33.000,279.599,-75.119,28064.678470
1 Jan 2020 03:47:03.000,277.998,-75.106,28159.003572
1 Jan 2020 03:47:33.000,276.416,-75.096,28256.525620
1 Jan 2020 03:48:03.000,274.852,-75.087,28357.134841
1 Jan 2020 03:48:33.000,273.307,-75.082,28460.718084
1 Jan 2020 03:49:03.000,271.780,-75.079,28567.158317
1 Jan 2020 03:49:15.152,271.167,-75.079,28611.060254
1 Jan 2020 04:54:44.519,67.039,-75.071,28607.556752
1 Jan 2020 04:55:14.000,66.236,-75.076,28414.171838
1 Jan 2020 04:55:44.000,65.416,-75.091,28217.232132
1 Jan 2020 04:56:14.000,64.592,-75.117,28020.322117
1 Jan 2020 04:56:44.000,63.763,-75.154,27823.630353
1 Jan 2020 04:57:14.000,62.927,-75.203,27627.349807
1 Jan 2020 04:57:44.000,62.083,-75.262,27431.677814
1 Jan 2020 04:58:14.000,61.228,-75.333,27236.816004
1 Jan 2020 04:58:44.000,60.362,-75.416,27042.970223
1 Jan 2020 04:59:14.000,59.483,-75.510,26850.350424
1 Jan 2020 04:59:44.000,58.587,-75.617,26659.170547
1 Jan 2020 05:00:14.000,57.674,-75.735,26469.648366
1 Jan 2020 05:00:44.000,56.741,-75.866,26282.005314
1 Jan 2020 05:01:14.000,55.786,-76.009,26096.466283
1 Jan 2020 05:01:44.000,54.805,-76.164,25913.259389
1 Jan 2020 05:02:14.000,53.796,-76.331,25732.615707
1 Jan 2020 05:02:44.000,52.756,-76.510,25554.768975
1 Jan 2020 05:03:14.000,51.681,-76.702,25379.955263
1 Jan 2020 05:03:44.000,50.567,-76.905,25208.412331
1 Jan 2020 05:04:14.000,49.411,-77.119,25040.380294
1 Jan 2020 05:04:44.000,48.207,-77.345,24876.099560
1 Jan 2020 05:05:14.000,46.950,-77.582,24715.811419
1 Jan 2020 05:05:44.000,45.634,-77.829,24559.757247
1 Jan 2020 05:06:14.000,44.254,-78.086,24408.177927
1 Jan 2020 05:06:44.000,42.802,-78.352,24261.313243
1 Jan 2020 05:07:14.000,41.271,-78.626,24119.401002
1 Jan 2020 05:07:44.000,39.651,-78.908,23982.677243
1 Jan 2020 05:08:14.000,37.935,-79.196,23851.374147
1 Jan 2020 05:08:44.000,36.110,-79.490,23725.720194
1 Jan 2020 05:09:14.000,34.167,-79.787,23605.939143
1 Jan 2020 05:09:44.000,32.093,-80.087,23492.249214
1 Jan 2020 05:10:14.000,29.874,-80.387,23384.862076
1 Jan 2020 05:10:44.000,27.498,-80.686,23283.982721
1 Jan 2020 05:11:14.000,24.948,-80.981,23189.807500
1 Jan 2020 05:11:44.000,22.211,-81.270,23102.524013
1 Jan 2020 05:12:14.000,19.273,-81.550,23022.310071
1 Jan 2020 05:12:44.000,16.121,-81.818,22949.332748
1 Jan 2020 05:13:14.000,12.744,-82.071,22883.748019
1 Jan 2020 05:13:44.000,9.137,-82.305,22825.699290
1 Jan 2020 05:14:14.000,5.297,-82.517,22775.317135
1 Jan 2020 05:14:44.000,1.233,-82.703,22732.718448
1 Jan 2020 05:15:14.000,356.960,-82.860,22698.006000
1 Jan 2020 05:15:44.000,352.504,-82.984,22671.267584
1 Jan 2020 05:16:14.000,347.902,-83.073,22652.575739
1 Jan 2020 05:16:44.000,343.201,-83.124,22641.987306
1 Jan 2020 05:17:14.000,338.455,-83.136,22639.543079
1 Jan 2020 05:17:44.000,333.720,-83.108,22645.267601
1 Jan 2020 05:18:14.000,329.053,-83.042,22659.169035
1 Jan 2020 05:18:44.000,324.507,-82.938,22681.239186
1 Jan 2020 05:19:14.000,320.126,-82.800,22711.453312
1 Jan 2020 05:19:44.000,315.943,-82.629,22749.770635
1 Jan 2020 05:20:14.000,311.983,-82.430,22796.134361
1 Jan 2020 05:20:44.000,308.258,-82.205,22850.472195
1 Jan 2020 05:21:14.000,304.772,-81.959,22912.696287
1 Jan 2020 05:21:44.000,301.525,-81.695,22982.704415
1 Jan 2020 05:22:14.000,298.507,-81.417,23060.380113
1 Jan 2020 05:22:44.000,295.708,-81.127,23145.593571
1 Jan 2020 05:23:14.000,293.115,-80.829,23238.201689
1 Jan 2020 05:23:44.000,290.713,-80.525,23338.049746
1 Jan 2020 05:24:14.000,288.488,-80.219,23444.971565
1 Jan 2020 05:24:44.000,286.426,-79.911,23558.790460
1 Jan 2020 05:25:14.000,284.513,-79.605,23679.320303
1 Jan 2020 05:25:44.000,282.735,-79.302,23806.365403
1 Jan 2020 05:26:14.000,281.082,-79.003,23939.722763
1 Jan 2020 05:26:44.000,279.543,-78.710,24079.181981
1 Jan 2020 05:27:14.000,278.107,-78.424,24224.526306
1 Jan 2020 05:27:44.000,276.765,-78.146,24375.533450
1 Jan 2020 05:28:14.000,275.509,-77.878,24531.976674
1 Jan 2020 05:28:44.000,274.332,-77.619,24693.624357
1 Jan 2020 05:29:14.000,273.228,-77.371,24860.242506
1 Jan 2020 05:29:44.000,272.189,-77.134,25031.594273
1 Jan 2020 05:30:14.000,271.212,-76.909,25207.440917
1 Jan 2020 05:30:44.000,270.290,-76.696,25387.542420
1 Jan 2020 05:31:14.000,269.420,-76.496,25571.658075
1 Jan 2020 05:31:44.000,268.597,-76.309,25759.547033
1 Jan 2020 05:32:14.000,267.819,-76.134,25950.969138
1 Jan 2020 05:32:44.000,267.081,-75.973,26145.684069
1 Jan 2020 05:33:14.000,266.382,-75.825,26343.453746
1 Jan 2020 05:33:44.000,265.717,-75.691,26544.041404
1 Jan 2020 05:34:14.000,265.086,-75.570,26747.212274
1 Jan 2020 05:34:44.000,264.485,-75.463,26952.733898
1 Jan 2020 05:35:14.000,263.913,-75.368,27160.376414
1 Jan 2020 05:35:44.000,263.367,-75.288,27369.912803
1 Jan 2020 05:36:14.000,262.847,-75.220,27581.119120
1 Jan 2020 05:36:44.000,262.351,-75.166,27793.774677
1 Jan 2020 05:37:14.000,261.876,-75.124,28007.662218
1 Jan 2020 05:37:44.000,261.423,-75.096,28222.568059
1 Jan 2020 05:38:14.000,260.990,-75.080,28438.282211
1 Jan 2020 05:38:37.245,260.667,-75.076,28605.848067
1 Jan 2020 06:41:34.623,81.319,-75.067,28600.624740
1 Jan 2020 06:42:04.000,81.811,-75.073,28391.871698
1 Jan 2020 06:42:34.000,82.333,-75.091,28179.447766
1 Jan 2020 06:43:04.000,82.877,-75.121,27967.993616
1 Jan 2020 06:43:34.000,83.444,-75.163,27757.718591
1 Jan 2020 06:44:04.000,84.034,-75.219,27548.835424
1 Jan 2020 06:44:34.000,84.650,-75.287,27341.560093
1 Jan 2020 06:45:04.000,85.294,-75.367,27136.111654
1 Jan 2020 06:45:34.000,85.966,-75.460,26932.712059
1 Jan 2020 06:46:04.000,86.670,-75.566,26731.585928
1 Jan 2020 06:46:34.000,87.407,-75.685,26532.960318
1 Jan 2020 06:47:04.000,88.180,-75.817,26337.064437
1 Jan 2020 06:47:34.000,88.990,-75.961,26144.129345
1 Jan 2020 06:48:04.000,89.842,-76.117,25954.387615
1 Jan 2020 06:48:34.000,90.738,-76.286,25768.072627
1 Jan 2020 06:49:04.000,91.681,-76.467,25585.419484
1 Jan 2020 06:49:34.000,92.675,-76.659,25406.662577
1 Jan 2020 06:50:04.000,93.724,-76.863,25232.036433
1 Jan 2020 06:50:34.000,94.832,-77.078,25061.774864
1 Jan 2020 06:51:04.000,96.005,-77.303,24896.110407
1 Jan 2020 06:51:34.000,97.248,-77.537,24735.273735
1 Jan 2020 06:52:04.000,98.566,-77.781,24579.492733
1 Jan 2020 06:52:34.000,99.965,-78.033,24428.993027
1 Jan 2020 06:53:04.000,101.453,-78.292,24283.995488
1 Jan 2020 06:53:34.000,103.037,-78.558,24144.716726
1 Jan 2020 06:54:04.000,104.725,-78.829,24011.368037
1 Jan 2020 06:54:34.000,106.525,-79.103,23884.154412
1 Jan 2020 06:55:04.000,108.448,-79.380,23763.274658
1 Jan 2020 06:55:34.000,110.501,-79.657,23648.919243
1 Jan 2020 06:56:04.000,112.695,-79.933,23541.270419
1 Jan 2020 06:56:34.000,115.040,-80.206,23440.501196
1 Jan 2020 06:57:04.000,117.545,-80.473,23346.774375
1 Jan 2020 06:57:34.000,120.220,-80.733,23260.242560
1 Jan 2020 06:58:04.000,123.072,-80.983,23181.046234
1 Jan 2020 06:58:34.000,126.107,-81.219,23109.313862
1 Jan 2020 06:59:04.000,129.327,-81.440,23045.160907
1 Jan 2020 06:59:34.000,132.732,-81.643,22988.689710
1 Jan 2020 07:00:04.000,136.316,-81.823,22939.988188
1 Jan 2020 07:00:34.000,140.069,-81.980,22899.129857
1 Jan 2020 07:01:04.000,143.972,-82.110,22866.173216
1 Jan 2020 07:01:34.000,148.002,-82.210,22841.161715
1 Jan 2020 07:02:04.000,152.131,-82.280,22824.123022
1 Jan 2020 07:02:34.000,156.322,-82.317,22815.069182
1 Jan 2020 07:03:04.000,160.539,-82.322,22813.996436
1 Jan 2020 07:03:34.000,164.741,-82.294,22820.885315
1 Jan 2020 07:04:04.000,168.892,-82.233,22835.700586
1 Jan 2020 07:04:34.000,172.956,-82.142,22858.391554
1 Jan 2020 07:05:04.000,176.903,-82.021,22888.892336
1 Jan 2020 07:05:34.000,180.709,-81.874,22927.122097
1 Jan 2020 07:06:04.000,184.356,-81.702,22972.985643
1 Jan 2020 07:06:34.000,187.832,-81.509,23026.373837
1 Jan 2020 07:07:04.000,191.131,-81.297,23087.164180
1 Jan 2020 07:07:34.000,194.253,-81.069,23155.221567
1 Jan 2020 07:08:04.000,197.200,-80.828,23230.398519
1 Jan 2020 07:08:34.000,199.977,-80.577,23312.536546
1 Jan 2020 07:09:04.000,202.591,-80.318,23401.466498
1 Jan 2020 07:09:34.000,205.053,-80.054,23497.009444
1 Jan 2020 07:10:04.000,207.371,-79.786,23598.977640
1 Jan 2020 07:10:34.000,209.555,-79.517,23707.174707
1 Jan 2020 07:11:04.000,211.616,-79.248,23821.397379
1 Jan 2020 07:11:34.000,213.563,-78.981,23941.435708
1 Jan 2020 07:12:04.000,215.405,-78.717,24067.074016
1 Jan 2020 07:12:34.000,217.150,-78.458,24198.091677
1 Jan 2020 07:13:04.000,218.808,-78.204,24334.264105
1 Jan 2020 07:13:34.000,220.386,-77.957,24475.362627
1 Jan 2020 07:14:04.000,221.890,-77.718,24621.156475
1 Jan 2020 07:14:34.000,223.327,-77.487,24771.412619
1 Jan 2020 07:15:04.000,224.703,-77.265,24925.896619
1 Jan 2020 07:15:34.000,226.024,-77.052,25084.373230
1 Jan 2020 07:16:04.000,227.294,-76.850,25246.606971
1 Jan 2020 07:16:34.000,228.519,-76.657,25412.362656
1 Jan 2020 07:17:04.000,229.702,-76.475,25581.405881
1 Jan 2020 07:17:34.000,230.847,-76.304,25753.503768
1 Jan 2020 07:18:04.000,231.959,-76.144,25928.424245
1 Jan 2020 07:18:34.000,233.039,-75.996,26105.938111
1 Jan 2020 07:19:04.000,234.091,-75.858,26285.818262
1 Jan 2020 07:19:34.000,235.119,-75.732,26467.840277
1 Jan 2020 07:20:04.000,236.124,-75.617,26651.782693
1 Jan 2020 07:20:34.000,237.109,-75.514,26837.427252
1 Jan 2020 07:21:04.000,238.076,-75.422,27024.559113
1 Jan 2020 07:21:34.000,239.027,-75.341,27212.967043
1 Jan 2020 07:22:04.000,239.965,-75.271,27402.443576
1 Jan 2020 07:22:34.000,240.890,-75.212,27592.785158
1 Jan 2020 07:23:04.000,241.806,-75.163,27783.792258
1 Jan 2020 07:23:34.000,242.713,-75.125,27975.269467
1 Jan 2020 07:24:04.000,243.613,-75.098,28167.025577
1 Jan 2020 07:24:34.000,244.507,-75.081,28358.873643
1 Jan 2020 07:25:04.000,245.397,-75.073,28550.631025
1 Jan 2020 07:25:11.541,245.621,-75.073,28598.795619
1 Jan 2020 08:31:09.006,92.164,-75.063,28594.266050
1 Jan 2020 08:31:39.000,93.727,-75.065,28497.796317
1 Jan 2020 08:32:09.000,95.306,-75.068,28404.223612
1 Jan 2020 08:32:39.000,96.901,-75.074,28313.673352
1 Jan 2020 08:33:09.000,98.513,-75.082,28226.246982
1 Jan 2020 08:33:39.000,100.142,-75.091,28142.042052
1 Jan 2020 08:34:09.000,101.787,-75.102,28061.151991
1 Jan 2020 08:34:39.000,103.448,-75.114,27983.665878
1 Jan 2020 08:35:09.000,105.126,-75.127,27909.668229
1 Jan 2020 08:35:39.000,106.819,-75.141,27839.238783
1 Jan 2020 08:36:09.000,108.528,-75.156,27772.452164
1 Jan 2020 08:36:39.000,110.252,-75.171,27709.378225
1 Jan 2020 08:37:09.000,111.990,-75.186,27650.081052
1 Jan 2020 08:37:39.000,113.743,-75.201,27594.619337
1 Jan 2020 08:38:09.000,115.508,-75.216,27543.046081
1 Jan 2020 08:38:39.000,117.287,-75.231,27495.408445
1 Jan 2020 08:39:09.000,119.077,-75.245,27451.747622
1 Jan 2020 08:39:39.000,120.879,-75.258,27412.098722
1 Jan 2020 08:40:09.000,122.691,-75.270,27376.490581
1 Jan 2020 08:40:39.000,124.512,-75.281,27344.946043
1 Jan 2020 08:41:09.000,126.341,-75.291,27317.481343
1 Jan 2020 08:41:39.000,128.177,-75.300,27294.106442
1 Jan 2020 08:42:09.000,130.020,-75.307,27274.824895
1 Jan 2020 08:42:39.000,131.868,-75.313,27259.633855
1 Jan 2020 08:43:09.000,133.719,-75.318,27248.524079
1 Jan 2020 08:43:39.000,135.574,-75.320,27241.479959
1 Jan 2020 08:44:09.000,137.431,-75.322,27238.479538
1 Jan 2020 08:44:39.000,139.288,-75.321,27239.494741
1 Jan 2020 08:45:09.000,141.144,-75.320,27244.491208
1 Jan 2020 08:45:39.000,143.000,-75.316,27253.428574
1 Jan 2020 08:46:09.000,144.853,-75.312,27266.260554
1 Jan 2020 08:46:39.000,146.702,-75.305,27282.935073
1 Jan 2020 08:47:09.000,148.547,-75.298,27303.394429
1 Jan 2020 08:47:39.000,150.386,-75.289,27327.575460
1 Jan 2020 08:48:09.000,152.220,-75.279,27355.409736
1 Jan 2020 08:48:39.000,154.047,-75.269,27386.823725
1 Jan 2020 08:49:09.000,155.865,-75.257,27421.739040
1 Jan 2020 08:49:39.000,157.676,-75.244,27460.072632
1 Jan 2020 08:50:09.000,159.478,-75.232,27501.737024
1 Jan 2020 08:50:39.000,161.270,-75.218,27546.640543
1 Jan 2020 08:51:09.000,163.053,-75.204,27594.687557
1 Jan 2020 08:51:39.000,164.825,-75.191,27645.778728
1 Jan 2020 08:52:09.000,166.587,-75.177,27699.811249
1 Jan 2020 08:52:39.000,168.338,-75.163,27756.679108
1 Jan 2020 08:53:09.000,170.078,-75.150,27816.273388
1 Jan 2020 08:53:39.000,171.807,-75.138,27878.482299
1 Jan 2020 08:54:09.000,173.525,-75.126,27943.191764
1 Jan 2020 08:54:39.000,175.232,-75.114,28010.285448
1 Jan 2020 08:55:09.000,176.928,-75.104,28079.645065
1 Jan 2020 08:55:39.000,178.614,-75.095,28151.150616
1 Jan 2020 08:56:09.000,180.288,-75.087,28224.680635
1 Jan 2020 08:56:39.000,181.953,-75.080,28300.112424
1 Jan 2020 08:57:09.000,183.607,-75.075,28377.322280
1 Jan 2020 08:57:39.000,185.251,-75.072,28456.185719
1 Jan 2020 08:58:09.000,186.886,-75.070,28536.577696
1 Jan 2020 08:58:30.168,188.035,-75.069,28594.152943
1 Jan 2020 10:01:13.534,32.571,-75.061,28592.281314
1 Jan 2020 10:01:43.000,34.251,-75.062,28551.438539
1 Jan 2020 10:02:13.000,35.968,-75.062,28512.445714
1 Jan 2020 10:02:43.000,37.690,-75.063,28476.146681
1 Jan 2020 10:03:13.000,39.417,-75.064,28442.618637
1 Jan 2020 10:03:43.000,41.149,-75.066,28411.935084
1 Jan 2020 10:04:13.000,42.886,-75.067,28384.165648
1 Jan 2020 10:04:43.000,44.627,-75.068,28359.375910
1 Jan 2020 10:05:13.000,46.372,-75.070,28337.627237
1 Jan 2020 10:05:43.000,48.120,-75.071,28318.976635
1 Jan 2020 10:06:13.000,49.870,-75.072,28303.476593
1 Jan 2020 10:06:43.000,51.623,-75.073,28291.174963
1 Jan 2020 10:07:13.000,53.377,-75.074,28282.114789
1 Jan 2020 10:07:43.000,55.133,-75.074,28276.334251
1 Jan 2020 10:08:13.000,56.888,-75.075,28273.866524
1 Jan 2020 10:08:43.000,58.644,-75.075,28274.739698
1 Jan 2020 10:09:13.000,60.399,-75.074,28278.976695
1 Jan 2020 10:09:43.000,62.152,-75.074,28286.595211
1 Jan 2020 10:10:13.000,63.903,-75.073,28297.607657
1 Jan 2020 10:10:43.000,65.652,-75.072,28312.021125
1 Jan 2020 10:11:13.000,67.397,-75.070,28329.837369
1 Jan 2020 10:11:43.000,69.138,-75.069,28351.052847
1 Jan 2020 10:12:13.000,70.874,-75.067,28375.658499
1 Jan 2020 10:12:43.000,72.605,-75.066,28403.640107
1 Jan 2020 10:13:13.000,74.331,-75.065,28434.978106
1 Jan 2020 10:13:43.000,76.050,-75.063,28469.647687
1 Jan 2020 10:14:13.000,77.763,-75.062,28507.618852
1 Jan 2020 10:14:43.000,79.468,-75.062,28548.856494
1 Jan 2020 10:15:12.373,81.130,-75.062,28592.358269
1 Jan 2020 11:24:17.043,301.505,-75.068,28594.880245
1 Jan 2020 11:24:47.000,302.655,-75.072,28427.736386
1 Jan 2020 11:25:17.000,303.813,-75.083,28260.353116
1 Jan 2020 11:25:47.000,304.980,-75.102,28093.140633
1 Jan 2020 11:26:17.000,306.157,-75.128,27926.270759
1 Jan 2020 11:26:47.000,307.346,-75.162,27759.918852
1 Jan 2020 11:27:17.000,308.548,-75.205,27594.263711
1 Jan 2020 11:27:47.000,309.765,-75.255,27429.487467
1 Jan 2020 11:28:17.000,310.999,-75.313,27265.775462
1 Jan 2020 11:28:47.000,312.251,-75.379,27103.316099
1 Jan 2020 11:29:17.000,313.524,-75.453,26942.300684
1 Jan 2020 11:29:47.000,314.819,-75.535,26782.923240
1 Jan 2020 11:30:17.000,316.139,-75.624,26625.380304
1 Jan 2020 11:30:47.000,317.486,-75.722,26469.870700
1 Jan 2020 11:31:17.000,318.861,-75.826,26316.595287
1 Jan 2020 11:31:47.000,320.268,-75.939,26165.756682
1 Jan 2020 11:32:17.000,321.709,-76.058,26017.558961
1 Jan 2020 11:32:47.000,323.187,-76.184,25872.207326
1 Jan 2020 11:33:17.000,324.704,-76.316,25729.907757
1 Jan 2020 11:33:47.000,326.262,-76.454,25590.866406
1 Jan 2020 11:34:17.000,327.866,-76.597,25455.290060
1 Jan 2020 11:34:47.000,329.518,-76.746,25323.384389
1 Jan 2020 11:35:17.000,331.221,-76.899,25195.354363
1 Jan 2020 11:35:47.000,332.977,-77.056,25071.403537
1 Jan 2020 11:36:17.000,334.791,-77.215,24951.733537
1 Jan 2020 11:36:47.000,336.664,-77.377,24836.543520
1 Jan 2020 11:37:17.000,338.601,-77.540,24726.029459
1 Jan 2020 11:37:47.000,340.603,-77.704,24620.384166
1 Jan 2020 11:38:17.000,342.673,-77.867,24519.795779
1 Jan 2020 11:38:47.000,344.814,-78.028,24424.447765
1 Jan 2020 11:39:17.000,347.028,-78.187,24334.518146
1 Jan 2020 11:39:47.000,349.315,-78.342,24250.178860
1 Jan 2020 11:40:17.000,351.676,-78.491,24171.595042
1 Jan 2020 11:40:47.000,354.112,-78.634,24098.924797
1 Jan 2020 11:41:17.000,356.622,-78.770,24032.317956
1 Jan 2020 11:41:47.000,359.204,-78.896,23971.915893
1 Jan 2020 11:42:17.000,1.855,-79.012,23917.850835
1 Jan 2020 11:42:47.000,4.570,-79.117,23870.245246
1 Jan 2020 11:43:17.000,7.345,-79.210,23829.211478
1 Jan 2020 11:43:47.000,10.173,-79.288,23794.850984
1 Jan 2020 11:44:17.000,13.047,-79.352,23767.254059
1 Jan 2020 11:44:47.000,15.957,-79.401,23746.499369
1 Jan 2020 11:45:17.000,18.893,-79.434,23732.653607
1 Jan 2020 11:45:47.000,21.846,-79.450,23725.771123
1 Jan 2020 11:46:17.000,24.804,-79.450,23725.893735
1 Jan 2020 11:46:47.000,27.755,-79.433,23733.050498
1 Jan 2020 11:47:17.000,30.690,-79.399,23747.257585
1 Jan 2020 11:47:47.000,33.596,-79.349,23768.518288
1 Jan 2020 11:48:17.000,36.463,-79.283,23796.822710
1 Jan 2020 11:48:47.000,39.282,-79.202,23832.148264
1 Jan 2020 11:49:17.000,42.045,-79.107,23874.459515
1 Jan 2020 11:49:47.000,44.745,-78.998,23923.708427
1 Jan 2020 11:50:17.000,47.375,-78.878,23979.834749
1 Jan 2020 11:50:47.000,49.930,-78.747,24042.765759
1 Jan 2020 11:51:17.000,52.407,-78.606,24112.417427
1 Jan 2020 11:51:47.000,54.803,-78.456,24188.694283
1 Jan 2020 11:52:17.000,57.118,-78.300,24271.489988
1 Jan 2020 11:52:47.000,59.349,-78.138,24360.688005
1 Jan 2020 11:53:17.000,61.499,-77.972,24456.161380
1 Jan 2020 11:53:47.000,63.567,-77.802,24557.774361
1 Jan 2020 11:54:17.000,65.556,-77.631,24665.382261
1 Jan 2020 11:54:47.000,67.466,-77.459,24778.832211
1 Jan 2020 11:55:17.000,69.301,-77.287,24897.963757
1 Jan 2020 11:55:47.000,71.063,-77.117,25022.609712
1 Jan 2020 11:56:17.000,72.755,-76.949,25152.595765
1 Jan 2020 11:56:47.000,74.380,-76.785,25287.742566
1 Jan 2020 11:57:17.000,75.940,-76.625,25427.865341
1 Jan 2020 11:57:47.000,77.439,-76.470,25572.774723
1 Jan 2020 11:58:17.000,78.880,-76.320,25722.277325
1 Jan 2020 11:58:47.000,80.265,-76.177,25876.176293
1 Jan 2020 11:59:17.000,81.597,-76.041,26034.272128
1 Jan 2020 11:59:47.000,82.879,-75.912,26196.362085
1 Jan 2020 12:00:17.000,84.114,-75.791,26362.242332
1 Jan 2020 12:00:47.000,85.304,-75.678,26531.707317
1 Jan 2020 12:01:17.000,86.452,-75.575,26704.550485
1 Jan 2020 12:01:47.000,87.559,-75.480,26880.564701
1 Jan 2020 12:02:17.000,88.629,-75.394,27059.542641
1 Jan 2020 12:02:47.000,89.663,-75.318,27241.277160
1 Jan 2020 12:03:17.000,90.664,-75.252,27425.561634
1 Jan 2020 12:03:47.000,91.632,-75.195,27612.190276
1 Jan 2020 12:04:17.000,92.571,-75.149,27800.958428
1 Jan 2020 12:04:47.000,93.481,-75.112,27991.662826
1 Jan 2020 12:05:17.000,94.365,-75.086,28184.101847
1 Jan 2020 12:05:47.000,95.223,-75.070,28378.075730
1 Jan 2020 12:06:17.000,96.058,-75.064,28573.387104
1 Jan 2020 12:06:20.481,96.153,-75.063,28596.126252
1 Jan 2020 13:09:26.978,282.171,-75.072,28601.051729
1 Jan 2020 13:09:56.000,282.105,-75.079,28385.732391
1 Jan 2020 13:10:26.000,282.023,-75.098,28163.385131
1 Jan 2020 13:10:56.000,281.927,-75.131,27941.472549
1 Jan 2020 13:11:26.000,281.818,-75.178,27720.205104
1 Jan 2020 13:11:56.000,281.693,-75.239,27499.797734
1 Jan 2020 13:12:26.000,281.554,-75.314,27280.469786
1 Jan 2020 13:12:56.000,281.398,-75.404,27062.444934
1 Jan 2020 13:13:26.000,281.225,-75.509,26845.951067
1 Jan 2020 13:13:56.000,281.035,-75.629,26631.220158
1 Jan 2020 13:14:26.000,280.826,-75.765,26418.488102
1 Jan 2020 13:14:56.000,280.597,-75.916,26207.994528
1 Jan 2020 13:15:26.000,280.347,-76.083,25999.982573
1 Jan 2020 13:15:56.000,280.075,-76.265,25794.698631
1 Jan 2020 13:16:26.000,279.778,-76.464,25592.392053
1 Jan 2020 13:16:56.000,279.455,-76.678,25393.314822
1 Jan 2020 13:17:26.000,279.103,-76.909,25197.720823
1 Jan 2020 13:17:56.000,278.721,-77.156,25005.866832
1 Jan 2020 13:18:26.000,278.305,-77.418,24818.009939
1 Jan 2020 13:18:56.000,277.852,-77.697,24634.408450
1 Jan 2020 13:19:26.000,277.358,-77.991,24455.320982
1 Jan 2020 13:19:56.000,276.820,-78.302,24281.005845
1 Jan 2020 13:20:26.000,276.231,-78.627,24111.720397
1 Jan 2020 13:20:56.000,275.586,-78.967,23947.720024
1 Jan 2020 13:21:26.000,274.877,-79.322,23789.258641
1 Jan 2020 13:21:56.000,274.097,-79.691,23636.586008
1 Jan 2020 13:22:26.000,273.236,-80.073,23489.948158
1 Jan 2020 13:22:56.000,272.281,-80.468,23349.586201
1 Jan 2020 13:23:26.000,271.218,-80.875,23215.735184
1 Jan 2020 13:23:56.000,270.030,-81.292,23088.624092
1 Jan 2020 13:24:26.000,268.695,-81.719,22968.473456
1 Jan 2020 13:24:56.000,267.187,-82.154,22855.495345
1 Jan 2020 13:25:26.000,265.473,-82.596,22749.892141
1 Jan 2020 13:25:56.000,263.512,-83.041,22651.855366
1 Jan 2020 13:26:26.000,261.253,-83.489,22561.565529
1 Jan 2020 13:26:56.000,258.630,-83.935,22479.189950
1 Jan 2020 13:27:26.000,255.563,-84.376,22404.882698
1 Jan 2020 13:27:56.000,251.949,-84.806,22338.783401
1 Jan 2020 13:28:26.000,247.664,-85.220,22281.016940
1 Jan 2020 13:28:56.000,242.562,-85.608,22231.691960
1 Jan 2020 13:29:26.000,236.487,-85.962,22190.900736
1 Jan 2020 13:29:56.000,229.308,-86.266,22158.718415
1 Jan 2020 13:30:26.000,220.976,-86.507,22135.202814
1 Jan 2020 13:30:56.000,211.610,-86.668,22120.393628
1 Jan 2020 13:31:26.000,201.568,-86.737,22114.312478
1 Jan 2020 13:31:56.000,191.406,-86.707,22116.962687
1 Jan 2020 13:32:26.000,181.720,-86.580,22128.329262
1 Jan 2020 13:32:56.000,172.955,-86.369,22148.378947
1 Jan 2020 13:33:26.000,165.315,-86.088,22177.060465
1 Jan 2020 13:33:56.000,158.804,-85.753,22214.304882
1 Jan 2020 13:34:26.000,153.313,-85.378,22260.025785
1 Jan 2020 13:34:56.000,148.689,-84.975,22314.120146
1 Jan 2020 13:35:26.000,144.782,-84.553,22376.468725
1 Jan 2020 13:35:56.000,141.457,-84.119,22446.936934
1 Jan 2020 13:36:26.000,138.605,-83.677,22525.375148
1 Jan 2020 13:36:56.000,136.137,-83.233,22611.620213
1 Jan 2020 13:37:26.000,133.982,-82.790,22705.495902
1 Jan 2020 13:37:56.000,132.084,-82.350,22806.813948
1 Jan 2020 13:38:26.000,130.398,-81.916,22915.375218
1 Jan 2020 13:38:56.000,128.888,-81.490,23030.969863
1 Jan 2020 13:39:26.000,127.526,-81.072,23153.379529
1 Jan 2020 13:39:56.000,126.288,-80.665,23282.377545
1 Jan 2020 13:40:26.000,125.155,-80.269,23417.730100
1 Jan 2020 13:40:56.000,124.113,-79.886,23559.197436
1 Jan 2020 13:41:26.000,123.147,-79.515,23706.533866
1 Jan 2020 13:41:56.000,122.248,-79.158,23859.490039
1 Jan 2020 13:42:26.000,121.406,-78.815,24017.812914
1 Jan 2020 13:42:56.000,120.614,-78.487,24181.246807
1 Jan 2020 13:43:26.000,119.864,-78.173,24349.534173
1 Jan 2020 13:43:56.000,119.152,-77.875,24522.416343
1 Jan 2020 13:44:26.000,118.473,-77.592,24699.634520
1 Jan 2020 13:44:56.000,117.822,-77.324,24880.929195
1 Jan 2020 13:45:26.000,117.196,-77.072,25066.042552
1 Jan 2020 13:45:56.000,116.592,-76.836,25254.717811
1 Jan 2020 13:46:26.000,116.006,-76.615,25446.700007
1 Jan 2020 13:46:56.000,115.437,-76.409,25641.736445
1 Jan 2020 13:47:26.000,114.882,-76.219,25839.577091
1 Jan 2020 13:47:56.000,114.339,-76.045,26039.974932
1 Jan 2020 13:48:26.000,113.807,-75.885,26242.686288
1 Jan 2020 13:48:56.000,113.283,-75.741,26447.471089
1 Jan 2020 13:49:26.000,112.766,-75.611,26654.093115
1 Jan 2020 13:49:56.000,112.255,-75.496,26862.320202
1 Jan 2020 13:50:26.000,111.748,-75.395,27071.924412
1 Jan 2020 13:50:56.000,111.245,-75.308,27282.682185
1 Jan 2020 13:51:26.000,110.744,-75.235,27494.374454
1 Jan 2020 13:51:56.000,110.244,-75.176,27706.786741
1 Jan 2020 13:52:26.000,109.744,-75.129,27919.709228
1 Jan 2020 13:52:56.000,109.243,-75.096,28132.936816
1 Jan 2020 13:53:26.000,108.741,-75.075,28346.269157
1 Jan 2020 13:53:56.000,108.237,-75.067,28559.510674
1 Jan 2020 13:54:02.134,108.133,-75.067,28603.085331
1 Jan 2020 14:58:11.014,271.927,-75.076,28608.095747
1 Jan 2020 14:58:41.000,270.623,-75.079,28461.267093
1 Jan 2020 14:59:11.000,269.295,-75.087,28316.667454
1 Jan 2020 14:59:41.000,267.943,-75.101,28174.523585
1 Jan 2020 15:00:11.000,266.568,-75.120,28034.993299
1 Jan 2020 15:00:41.000,265.166,-75.144,27898.232943
1 Jan 2020 15:01:11.000,263.739,-75.172,27764.397106
1 Jan 2020 15:01:41.000,262.284,-75.205,27633.638315
1 Jan 2020 15:02:11.000,260.802,-75.242,27506.106720
1 Jan 2020 15:02:41.000,259.291,-75.283,27381.949779
1 Jan 2020 15:03:11.000,257.751,-75.327,27261.311921
1 Jan 2020 15:03:41.000,256.181,-75.375,27144.333993
1 Jan 2020 15:04:11.000,254.581,-75.425,27031.153819
1 Jan 2020 15:04:41.000,252.950,-75.477,26921.904494
1 Jan 2020 15:05:11.000,251.287,-75.531,26816.714949
1 Jan 2020 15:05:41.000,249.594,-75.587,26715.709381
1 Jan 2020 15:06:11.000,247.869,-75.644,26619.006905
1 Jan 2020 15:06:41.000,246.113,-75.701,26526.721213
1 Jan 2020 15:07:11.000,244.326,-75.759,26438.960070
1 Jan 2020 15:07:41.000,242.509,-75.816,26355.825674
1 Jan 2020 15:08:11.000,240.661,-75.872,26277.413302
1 Jan 2020 15:08:41.000,238.784,-75.927,26203.811703
1 Jan 2020 15:09:11.000,236.878,-75.980,26135.102636
1 Jan 2020 15:09:41.000,234.945,-76.031,26071.360595
1 Jan 2020 15:10:11.000,232.986,-76.080,26012.652439
1 Jan 2020 15:10:41.000,231.002,-76.126,25959.037654
1 Jan 2020 15:11:11.000,228.995,-76.168,25910.567391
1 Jan 2020 15:11:41.000,226.967,-76.207,25867.284797
1 Jan 2020 15:12:11.000,224.920,-76.241,25829.224729
1 Jan 2020 15:12:41.000,222.855,-76.272,25796.413628
1 Jan 2020 15:13:11.000,220.776,-76.298,25768.869341
1 Jan 2020 15:13:41.000,218.684,-76.319,25746.601383
1 Jan 2020 15:14:11.000,216.582,-76.335,25729.610399
1 Jan 2020 15:14:41.000,214.473,-76.346,25717.888505
1 Jan 2020 15:15:11.000,212.359,-76.352,25711.419228
1 Jan 2020 15:15:41.000,210.243,-76.354,25710.177566
1 Jan 2020 15:16:11.000,208.128,-76.350,25714.130052
1 Jan 2020 15:16:41.000,206.015,-76.341,25723.235004
1 Jan 2020 15:17:11.000,203.907,-76.327,25737.442471
1 Jan 2020 15:17:41.000,201.807,-76.308,25756.694565
1 Jan 2020 15:18:11.000,199.718,-76.285,25780.925623
1 Jan 2020 15:18:41.000,197.640,-76.258,25810.062448
1 Jan 2020 15:19:11.000,195.577,-76.226,25844.024560
1 Jan 2020 15:19:41.000,193.529,-76.191,25882.724509
1 Jan 2020 15:20:11.000,191.499,-76.152,25926.068063
1 Jan 2020 15:20:41.000,189.488,-76.111,25973.954671
1 Jan 2020 15:21:11.000,187.497,-76.066,26026.277706
1 Jan 2020 15:21:41.000,185.528,-76.019,26082.924828
1 Jan 2020 15:22:11.000,183.581,-75.970,26143.778332
1 Jan 2020 15:22:41.000,181.656,-75.920,26208.715515
1 Jan 2020 15:23:11.000,179.756,-75.868,26277.609039
1 Jan 2020 15:23:41.000,177.879,-75.816,26350.327389
1 Jan 2020 15:24:11.000,176.026,-75.763,26426.734901
1 Jan 2020 15:24:41.000,174.197,-75.710,26506.692636
1 Jan 2020 15:25:11.000,172.392,-75.657,26590.058418
1 Jan 2020 15:25:41.000,170.610,-75.605,26676.687277
1 Jan 2020 15:26:11.000,168.853,-75.554,26766.431810
1 Jan 2020 15:26:41.000,167.118,-75.505,26859.142524
1 Jan 2020 15:27:11.000,165.405,-75.456,26954.668182
1 Jan 2020 15:27:41.000,163.715,-75.410,27052.856132
1 Jan 2020 15:28:11.000,162.045,-75.366,27153.552625
1 Jan 2020 15:28:41.000,160.396,-75.324,27256.603130
1 Jan 2020 15:29:11.000,158.767,-75.285,27361.852758
1 Jan 2020 15:29:41.000,157.156,-75.249,27469.146010
1 Jan 2020 15:30:11.000,155.564,-75.215,27578.327851
1 Jan 2020 15:30:41.000,153.988,-75.185,27689.243434
1 Jan 2020 15:31:11.000,152.429,-75.158,27801.738474
1 Jan 2020 15:31:41.000,150.884,-75.135,27915.659481
1 Jan 2020 15:32:11.000,149.354,-75.115,28030.853970
1 Jan 2020 15:32:41.000,147.838,-75.098,28147.170669
1 Jan 2020 15:33:11.000,146.333,-75.085,28264.459707
1 Jan 2020 15:33:41.000,144.840,-75.076,28382.572788
1 Jan 2020 15:34:11.000,143.357,-75.071,28501.363356
1 Jan 2020 15:34:38.018,142.030,-75.070,28608.806302
1 Jan 2020 17:55:30.651,44.629,-75.074,28610.392599
1 Jan 2020 17:56:00.000,43.252,-75.076,28481.511948
1 Jan 2020 17:56:30.000,41.835,-75.083,28350.128250
1 Jan 2020 17:57:00.000,40.408,-75.095,28219.255440
1 Jan 2020 17:57:30.000,38.969,-75.111,28089.046554
1 Jan 2020 17:58:00.000,37.518,-75.132,27959.656904
1 Jan 2020 17:58:30.000,36.053,-75.157,27831.243929
1 Jan 2020 17:59:00.000,34.573,-75.187,27703.967036
1 Jan 2020 17:59:30.000,33.077,-75.221,27577.987425
1 Jan 2020 18:00:00.000,31.563,-75.259,27453.467904
1 Jan 2020 18:00:30.000,30.031,-75.302,27330.572679
1 Jan 2020 18:01:00.000,28.478,-75.349,27209.467139
1 Jan 2020 18:01:30.000,26.905,-75.399,27090.317617
1 Jan 2020 18:02:00.000,25.310,-75.453,26973.291141
1 Jan 2020 18:02:30.000,23.691,-75.511,26858.555162
1 Jan 2020 18:03:00.000,22.048,-75.572,26746.277271
1 Jan 2020 18:03:30.000,20.379,-75.636,26636.624897
1 Jan 2020 18:04:00.000,18.683,-75.702,26529.764992
1 Jan 2020 18:04:30.000,16.960,-75.770,26425.863562
1 Jan 2020 18:05:00.000,15.208,-75.841,26325.085854
1 Jan 2020 18:05:30.000,13.427,-75.913,26227.595186
1 Jan 2020 18:06:00.000,11.616,-75.985,26133.553113
1 Jan 2020 18:06:30.000,9.774,-76.059,26043.118904
1 Jan 2020 18:07:00.000,7.901,-76.133,25956.449139
1 Jan 2020 18:07:30.000,5.997,-76.206,25873.697304
1 Jan 2020 18:08:00.000,4.061,-76.279,25795.013372
1 Jan 2020 18:08:30.000,2.094,-76.350,25720.543304
1 Jan 2020 18:09:00.000,0.095,-76.420,25650.428947
1 Jan 2020 18:09:30.000,358.066,-76.487,25584.807109
1 Jan 2020 18:10:00.000,356.008,-76.551,25523.809472
1 Jan 2020 18:10:30.000,353.920,-76.612,25467.562088
1 Jan 2020 18:11:00.000,351.806,-76.669,25416.184962
1 Jan 2020 18:11:30.000,349.666,-76.722,25369.791647
1 Jan 2020 18:12:00.000,347.502,-76.769,25328.488824
1 Jan 2020 18:12:30.000,345.316,-76.812,25292.376046
1 Jan 2020 18:13:00.000,343.111,-76.849,25261.545188
1 Jan 2020 18:13:30.000,340.890,-76.880,25236.080244
1 Jan 2020 18:14:00.000,338.655,-76.904,25216.056982
1 Jan 2020 18:14:30.000,336.410,-76.922,25201.542656
1 Jan 2020 18:15:00.000,334.158,-76.933,25192.595776
1 Jan 2020 18:15:30.000,331.902,-76.937,25189.265781
1 Jan 2020 18:16:00.000,329.646,-76.935,25191.592987
1 Jan 2020 18:16:30.000,327.394,-76.925,25199.608350
1 Jan 2020 18:17:00.000,325.149,-76.908,25213.333356
1 Jan 2020 18:17:30.000,322.915,-76.884,25232.779945
1 Jan 2020 18:18:00.000,320.695,-76.854,25257.950553
1 Jan 2020 18:18:30.000,318.493,-76.817,25288.837759
1 Jan 2020 18:19:00.000,316.311,-76.774,25325.424822
1 Jan 2020 18:19:30.000,314.153,-76.725,25367.685423
1 Jan 2020 18:20:00.000,312.022,-76.671,25415.583854
1 Jan 2020 18:20:30.000,309.919,-76.611,25469.075156
1 Jan 2020 18:21:00.000,307.847,-76.548,25528.105444
1 Jan 2020 18:21:30.000,305.809,-76.480,25592.611550
1 Jan 2020 18:22:00.000,303.805,-76.409,25662.522096
1 Jan 2020 18:22:30.000,301.837,-76.335,25737.757215
1 Jan 2020 18:23:00.000,299.907,-76.259,25818.228982
1 Jan 2020 18:23:30.000,298.014,-76.181,25903.841727
1 Jan 2020 18:24:00.000,296.160,-76.102,25994.492552
1 Jan 2020 18:24:30.000,294.346,-76.022,26090.070985
1 Jan 2020 18:25:00.000,292.570,-75.943,26190.460388
1 Jan 2020 18:25:30.000,290.833,-75.864,26295.537651
1 Jan 2020 18:26:00.000,289.135,-75.787,26405.173754
1 Jan 2020 18:26:30.000,287.476,-75.711,26519.234160
1 Jan 2020 18:27:00.000,285.854,-75.638,26637.579219
1 Jan 2020 18:27:30.000,284.269,-75.567,26760.064564
1 Jan 2020 18:28:00.000,282.721,-75.499,26886.541762
1 Jan 2020 18:28:30.000,281.209,-75.436,27016.857718
1 Jan 2020 18:29:00.000,279.731,-75.376,27150.856545
1 Jan 2020 18:29:30.000,278.287,-75.321,27288.378967
1 Jan 2020 18:30:00.000,276.875,-75.270,27429.262936
1 Jan 2020 18:30:30.000,275.494,-75.225,27573.343998
1 Jan 2020 18:31:00.000,274.144,-75.186,27720.455645
1 Jan 2020 18:31:30.000,272.824,-75.152,27870.429655
1 Jan 2020 18:32:00.000,271.531,-75.124,28023.096421
1 Jan 2020 18:32:30.000,270.265,-75.103,28178.285259
1 Jan 2020 18:33:00.000,269.024,-75.088,28335.824716
1 Jan 2020 18:33:30.000,267.809,-75.080,28495.542843
1 Jan 2020 18:33:51.199,266.964,-75.078,28609.624169
1 Jan 2020 19:37:39.332,73.556,-75.070,28605.291347
1 Jan 2020 19:38:09.000,73.194,-75.076,28389.896882
1 Jan 2020 19:38:39.000,72.833,-75.095,28172.015239
1 Jan 2020 19:39:09.000,72.477,-75.127,27954.251312
1 Jan 2020 19:39:39.000,72.125,-75.172,27736.808240
1 Jan 2020 19:40:09.000,71.776,-75.232,27519.893974
1 Jan 2020 19:40:39.000,71.431,-75.305,27303.721245
1 Jan 2020 19:41:09.000,71.087,-75.393,27088.507514
1 Jan 2020 19:41:39.000,70.745,-75.495,26874.474897
1 Jan 2020 19:42:09.000,70.404,-75.612,26661.850080
1 Jan 2020 19:42:39.000,70.063,-75.744,26450.864194
1 Jan 2020 19:43:09.000,69.721,-75.892,26241.752677
1 Jan 2020 19:43:39.000,69.378,-76.056,26034.755097
1 Jan 2020 19:44:09.000,69.032,-76.235,25830.114950
1 Jan 2020 19:44:39.000,68.683,-76.431,25628.079414
1 Jan 2020 19:45:09.000,68.329,-76.642,25428.899080
1 Jan 2020 19:45:39.000,67.969,-76.870,25232.827626
1 Jan 2020 19:46:09.000,67.602,-77.115,25040.121148
1 Jan 2020 19:46:39.000,67.226,-77.376,24851.039023
1 Jan 2020 19:47:09.000,66.839,-77.654,24665.841544
1 Jan 2020 19:47:39.000,66.439,-77.948,24484.790702
1 Jan 2020 19:48:09.000,66.025,-78.259,24308.149318
1 Jan 2020 19:48:39.000,65.592,-78.586,24136.180436
1 Jan 2020 19:49:09.000,65.139,-78.930,23969.146680
1 Jan 2020 19:49:39.000,64.661,-79.290,23807.309254
1 Jan 2020 19:50:09.000,64.153,-79.665,23650.928353
1 Jan 2020 19:50:39.000,63.611,-80.057,23500.260603
1 Jan 2020 19:51:09.000,63.028,-80.463,23355.559398
1 Jan 2020 19:51:39.000,62.396,-80.884,23217.073700
1 Jan 2020 19:52:09.000,61.706,-81.319,23085.046904
1 Jan 2020 19:52:39.000,60.944,-81.768,22959.716738
1 Jan 2020 19:53:09.000,60.096,-82.229,22841.312954
1 Jan 2020 19:53:39.000,59.141,-82.702,22730.057214
1 Jan 2020 19:54:09.000,58.053,-83.186,22626.161841
1 Jan 2020 19:54:39.000,56.797,-83.680,22529.828623
1 Jan 2020 19:55:09.000,55.326,-84.181,22441.248531
1 Jan 2020 19:55:39.000,53.574,-84.689,22360.599615
1 Jan 2020 19:56:09.000,51.446,-85.200,22288.046799
1 Jan 2020 19:56:39.000,48.805,-85.713,22223.740680
1 Jan 2020 19:57:09.000,45.442,-86.222,22167.817077
1 Jan 2020 19:57:39.000,41.034,-86.720,22120.395593
1 Jan 2020 19:58:09.000,35.071,-87.199,22081.579350
1 Jan 2020 19:58:39.000,26.753,-87.640,22051.454193
1 Jan 2020 19:59:09.000,14.965,-88.013,22030.088354
1 Jan 2020 19:59:39.000,358.751,-88.271,22017.531717
1 Jan 2020 20:00:09.000,339.022,-88.355,22013.815724
1 Jan 2020 20:00:39.000,319.648,-88.240,22018.953142
1 Jan 2020 20:01:09.000,304.146,-87.960,22032.937904
1 Jan 2020 20:01:39.000,292.994,-87.573,22055.745246
1 Jan 2020 20:02:09.000,285.135,-87.125,22087.331822
1 Jan 2020 20:02:39.000,279.491,-86.641,22127.636081
1 Jan 2020 20:03:09.000,275.316,-86.139,22176.578318
1 Jan 2020 20:03:39.000,272.133,-85.628,22234.061659
1 Jan 2020 20:04:09.000,269.642,-85.114,22299.972354
1 Jan 2020 20:04:39.000,267.647,-84.602,22374.180676
1 Jan 2020 20:05:09.000,266.018,-84.093,22456.541138
1 Jan 2020 20:05:39.000,264.667,-83.591,22546.894144
1 Jan 2020 20:06:09.000,263.531,-83.097,22645.066353
1 Jan 2020 20:06:39.000,262.565,-82.613,22750.871940
1 Jan 2020 20:07:09.000,261.735,-82.140,22864.112847
1 Jan 2020 20:07:39.000,261.017,-81.679,22984.580849
1 Jan 2020 20:08:09.000,260.391,-81.230,23112.057868
1 Jan 2020 20:08:39.000,259.842,-80.795,23246.317164
1 Jan 2020 20:09:09.000,259.360,-80.375,23387.124597
1 Jan 2020 20:09:39.000,258.933,-79.969,23534.238590
1 Jan 2020 20:10:09.000,258.555,-79.578,23687.412623
1 Jan 2020 20:10:39.000,258.220,-79.203,23846.395161
1 Jan 2020 20:11:09.000,257.923,-78.845,24010.930801
1 Jan 2020 20:11:39.000,257.659,-78.502,24180.761129
1 Jan 2020 20:12:09.000,257.424,-78.176,24355.625837
1 Jan 2020 20:12:39.000,257.217,-77.867,24535.262280
1 Jan 2020 20:13:09.000,257.034,-77.574,24719.407986
1 Jan 2020 20:13:39.000,256.873,-77.299,24907.800131
1 Jan 2020 20:14:09.000,256.733,-77.040,25100.176447
1 Jan 2020 20:14:39.000,256.612,-76.798,25296.275780
1 Jan 2020 20:15:09.000,256.508,-76.573,25495.838610
1 Jan 2020 20:15:39.000,256.421,-76.364,25698.607504
1 Jan 2020 20:16:09.000,256.350,-76.172,25904.327539
1 Jan 2020 20:16:39.000,256.293,-75.996,26112.746669
1 Jan 2020 20:17:09.000,256.250,-75.836,26323.616410
1 Jan 2020 20:17:39.000,256.220,-75.693,26536.690719
1 Jan 2020 20:18:09.000,256.203,-75.565,26751.728348
1 Jan 2020 20:18:39.000,256.198,-75.452,26968.491664
1 Jan 2020 20:19:09.000,256.205,-75.355,27186.747181
1 Jan 2020 20:19:39.000,256.224,-75.273,27406.265708
1 Jan 2020 20:20:09.000,256.254,-75.205,27626.822479
1 Jan 2020 20:20:39.000,256.295,-75.152,27848.197254
1 Jan 2020 20:21:09.000,256.347,-75.113,28070.174394
1 Jan 2020 20:21:39.000,256.410,-75.088,28292.542924
1 Jan 2020 20:22:09.000,256.484,-75.076,28515.096567
1 Jan 2020 20:22:20.883,256.516,-75.075,28603.254858
1 Jan 2020 21:25:38.431,84.876,-75.065,28598.047673
1 Jan 2020 21:26:08.000,85.824,-75.070,28415.237634
1 Jan 2020 21:26:38.000,86.809,-75.083,28231.312119
1 Jan 2020 21:27:08.000,87.819,-75.106,28049.135043
1 Jan 2020 21:27:38.000,88.857,-75.138,27868.898805
1 Jan 2020 21:28:08.000,89.923,-75.178,27690.796939
1 Jan 2020 21:28:38.000,91.019,-75.227,27515.023868
1 Jan 2020 21:29:08.000,92.147,-75.284,27341.774632
1 Jan 2020 21:29:38.000,93.308,-75.350,27171.244603
1 Jan 2020 21:30:08.000,94.505,-75.424,27003.629168
1 Jan 2020 21:30:38.000,95.739,-75.506,26839.123402
1 Jan 2020 21:31:08.000,97.012,-75.595,26677.921707
1 Jan 2020 21:31:38.000,98.326,-75.691,26520.217156
1 Jan 2020 21:32:08.000,99.683,-75.793,26366.202227
1 Jan 2020 21:32:38.000,101.085,-75.902,26216.066677
1 Jan 2020 21:33:08.000,102.534,-76.017,26069.998246
1 Jan 2020 21:33:38.000,104.032,-76.137,25928.181911
1 Jan 2020 21:34:08.000,105.582,-76.261,25790.799410
1 Jan 2020 21:34:38.000,107.184,-76.390,25658.028753
1 Jan 2020 21:35:08.000,108.841,-76.521,25530.043476
1 Jan 2020 21:35:38.000,110.555,-76.655,25407.013097
1 Jan 2020 21:36:08.000,112.327,-76.791,25289.101122
1 Jan 2020 21:36:38.000,114.160,-76.928,25176.465503
1 Jan 2020 21:37:08.000,116.053,-77.064,25069.257858
1 Jan 2020 21:37:38.000,118.009,-77.200,24967.622946
1 Jan 2020 21:38:08.000,120.027,-77.333,24871.697938
1 Jan 2020 21:38:38.000,122.109,-77.464,24781.612714
1 Jan 2020 21:39:08.000,124.254,-77.591,24697.488138
1 Jan 2020 21:39:38.000,126.460,-77.713,24619.436403
1 Jan 2020 21:40:08.000,128.727,-77.829,24547.560362
1 Jan 2020 21:40:38.000,131.054,-77.938,24481.952965
1 Jan 2020 21:41:08.000,133.436,-78.040,24422.697411
1 Jan 2020 21:41:38.000,135.871,-78.133,24369.865936
1 Jan 2020 21:42:08.000,138.355,-78.216,24323.520068
1 Jan 2020 21:42:38.000,140.884,-78.289,24283.710197
1 Jan 2020 21:43:08.000,143.450,-78.351,24250.475252
1 Jan 2020 21:43:38.000,146.049,-78.401,24223.842880
1 Jan 2020 21:44:08.000,148.675,-78.439,24203.828749
1 Jan 2020 21:44:38.000,151.319,-78.465,24190.436853
1 Jan 2020 21:45:08.000,153.975,-78.478,24183.659387
1 Jan 2020 21:45:38.000,156.635,-78.479,24183.476739
1 Jan 2020 21:46:08.000,159.293,-78.466,24189.857714
1 Jan 2020 21:46:38.000,161.939,-78.442,24202.759443
1 Jan 2020 21:47:08.000,164.569,-78.405,24222.127733
1 Jan 2020 21:47:38.000,167.174,-78.357,24247.897264
1 Jan 2020 21:48:08.000,169.749,-78.297,24279.991894
1 Jan 2020 21:48:38.000,172.288,-78.227,24318.324911
1 Jan 2020 21:49:08.000,174.787,-78.147,24362.799517
1 Jan 2020 21:49:38.000,177.241,-78.058,24413.309172
1 Jan 2020 21:50:08.000,179.647,-77.961,24469.738053
1 Jan 2020 21:50:38.000,182.002,-77.857,24531.961530
1 Jan 2020 21:51:08.000,184.305,-77.747,24599.846757
1 Jan 2020 21:51:38.000,186.553,-77.631,24673.252830
1 Jan 2020 21:52:08.000,188.747,-77.511,24752.031848
1 Jan 2020 21:52:38.000,190.885,-77.387,24836.029124
1 Jan 2020 21:53:08.000,192.969,-77.261,24925.083815
1 Jan 2020 21:53:38.000,194.998,-77.134,25019.029488
1 Jan 2020 21:54:08.000,196.974,-77.005,25117.694670
1 Jan 2020 21:54:38.000,198.898,-76.876,25220.903558
1 Jan 2020 21:55:08.000,200.772,-76.749,25328.475955
1 Jan 2020 21:55:38.000,202.597,-76.622,25440.228701
1 Jan 2020 21:56:08.000,204.375,-76.498,25555.975607
1 Jan 2020 21:56:38.000,206.108,-76.376,25675.528099
1 Jan 2020 21:57:08.000,207.799,-76.258,25798.695710
1 Jan 2020 21:57:38.000,209.449,-76.144,25925.286540
1 Jan 2020 21:58:08.000,211.060,-76.034,26055.107709
1 Jan 2020 21:58:38.000,212.635,-75.928,26187.965777
1 Jan 2020 21:59:08.000,214.175,-75.828,26323.667144
1 Jan 2020 21:59:38.000,215.683,-75.733,26462.018643
1 Jan 2020 22:00:08.000,217.161,-75.644,26602.827050
1 Jan 2020 22:00:38.000,218.611,-75.561,26745.900669
1 Jan 2020 22:01:08.000,220.035,-75.484,26891.048813
1 Jan 2020 22:01:38.000,221.434,-75.413,27038.082289
1 Jan 2020 22:02:08.000,222.810,-75.349,27186.813666
1 Jan 2020 22:02:38.000,224.166,-75.292,27337.057512
1 Jan 2020 22:03:08.000,225.503,-75.241,27488.630616
1 Jan 2020 22:03:38.000,226.822,-75.197,27641.352184
1 Jan 2020 22:04:08.000,228.126,-75.159,27795.044027
1 Jan 2020 22:04:38.000,229.416,-75.128,27949.530712
1 Jan 2020 22:05:08.000,230.693,-75.104,28104.639719
1 Jan 2020 22:05:38.000,231.958,-75.087,28260.201560
1 Jan 2020 22:06:08.000,233.215,-75.076,28416.049898
1 Jan 2020 22:06:38.000,234.462,-75.072,28572.021643
1 Jan 2020 22:06:42.745,234.659,-75.072,28596.692113
2 Jan 2020 00:29:58.896,339.921,-75.064,28592.832115
2 Jan 2020 00:30:28.000,341.457,-75.065,28501.245619
2 Jan 2020 00:30:58.000,343.050,-75.069,28407.891839
2 Jan 2020 00:31:28.000,344.653,-75.074,28315.737372
2 Jan 2020 00:31:58.000,346.266,-75.082,28224.915877
2 Jan 2020 00:32:28.000,347.890,-75.092,28135.561347
2 Jan 2020 00:32:58.000,349.527,-75.104,28047.807901
2 Jan 2020 00:33:28.000,351.175,-75.117,27961.789571
2 Jan 2020 00:33:58.000,352.836,-75.133,27877.640085
2 Jan 2020 00:34:28.000,354.510,-75.149,27795.492635
2 Jan 2020 00:34:58.000,356.198,-75.168,27715.479636
2 Jan 2020 00:35:28.000,357.899,-75.188,27637.732479
2 Jan 2020 00:35:58.000,359.614,-75.208,27562.381281
2 Jan 2020 00:36:28.000,1.343,-75.230,27489.554617
2 Jan 2020 00:36:58.000,3.086,-75.253,27419.379260
2 Jan 2020 00:37:28.000,4.844,-75.276,27351.979900
2 Jan 2020 00:37:58.000,6.615,-75.299,27287.478811
2 Jan 2020 00:38:28.000,8.401,-75.322,27225.995817
2 Jan 2020 00:38:58.000,10.201,-75.346,27167.647628
2 Jan 2020 00:39:28.000,12.014,-75.369,27112.547812
2 Jan 2020 00:39:58.000,13.841,-75.392,27060.806449
2 Jan 2020 00:40:28.000,15.680,-75.413,27012.529842
2 Jan 2020 00:40:58.000,17.531,-75.434,26967.820240
2 Jan 2020 00:41:28.000,19.394,-75.454,26926.775562
2 Jan 2020 00:41:58.000,21.268,-75.473,26889.489122
2 Jan 2020 00:42:28.000,23.151,-75.490,26856.049360
2 Jan 2020 00:42:58.000,25.044,-75.505,26826.539632
2 Jan 2020 00:43:28.000,26.944,-75.519,26801.037884
2 Jan 2020 00:43:58.000,28.851,-75.530,26779.616480
2 Jan 2020 00:44:28.000,30.764,-75.539,26762.341968
2 Jan 2020 00:44:58.000,32.682,-75.547,26749.274870
2 Jan 2020 00:45:28.000,34.602,-75.551,26740.469498
2 Jan 2020 00:45:58.000,36.524,-75.554,26735.973778
2 Jan 2020 00:46:28.000,38.447,-75.554,26735.829145
2 Jan 2020 00:46:58.000,40.368,-75.551,26740.070236
2 Jan 2020 00:47:28.000,42.287,-75.547,26748.725022
2 Jan 2020 00:47:58.000,44.203,-75.539,26761.814562
2 Jan 2020 00:48:28.000,46.112,-75.530,26779.352964
2 Jan 2020 00:48:58.000,48.015,-75.518,26801.347343
2 Jan 2020 00:49:28.000,49.910,-75.504,26827.797792
2 Jan 2020 00:49:58.000,51.795,-75.488,26858.697465
2 Jan 2020 00:50:28.000,53.669,-75.470,26894.032259
2 Jan 2020 00:50:58.000,55.532,-75.450,26933.781352
2 Jan 2020 00:51:28.000,57.381,-75.429,26977.916942
2 Jan 2020 00:51:58.000,59.215,-75.406,27026.404411
2 Jan 2020 00:52:28.000,61.035,-75.383,27079.202431
2 Jan 2020 00:52:58.000,62.838,-75.358,27136.263085
2 Jan 2020 00:53:28.000,64.624,-75.333,27197.532018
2 Jan 2020 00:53:58.000,66.392,-75.307,27262.948737
2 Jan 2020 00:54:28.000,68.141,-75.281,27332.446215
2 Jan 2020 00:54:58.000,69.872,-75.256,27405.951938
2 Jan 2020 00:55:28.000,71.583,-75.231,27483.387548
2 Jan 2020 00:55:58.000,73.274,-75.206,27564.669200
2 Jan 2020 00:56:28.000,74.944,-75.183,27649.707790
2 Jan 2020 00:56:58.000,76.595,-75.161,27738.409198
2 Jan 2020 00:57:28.000,78.225,-75.140,27830.674527
2 Jan 2020 00:57:58.000,79.835,-75.122,27926.400364
2 Jan 2020 00:58:28.000,81.424,-75.105,28025.479214
2 Jan 2020 00:58:58.000,82.993,-75.091,28127.799034
2 Jan 2020 00:59:28.000,84.542,-75.079,28233.244586
2 Jan 2020 00:59:58.000,86.071,-75.070,28341.696977
2 Jan 2020 01:00:28.000,87.581,-75.065,28453.034105
2 Jan 2020 01:00:58.000,89.071,-75.062,28567.130920
2 Jan 2020 01:01:04.746,89.404,-75.062,28593.154194
2 Jan 2020 02:06:16.079,292.038,-75.070,28596.732027
2 Jan 2020 02:06:46.000,292.802,-75.075,28397.140338
2 Jan 2020 02:07:16.000,293.571,-75.091,28196.866675
2 Jan 2020 02:07:46.000,294.343,-75.118,27996.621160
2 Jan 2020 02:08:16.000,295.119,-75.156,27796.594586
2 Jan 2020 02:08:46.000,295.901,-75.206,27596.982233
2 Jan 2020 02:09:16.000,296.690,-75.267,27397.983821
2 Jan 2020 02:09:46.000,297.488,-75.341,27199.803445
2 Jan 2020 02:10:16.000,298.297,-75.427,27002.649497
2 Jan 2020 02:10:46.000,299.118,-75.525,26806.734563
2 Jan 2020 02:11:16.000,299.953,-75.635,26612.275303
2 Jan 2020 02:11:46.000,300.805,-75.758,26419.492302
2 Jan 2020 02:12:16.000,301.675,-75.894,26228.609896
2 Jan 2020 02:12:46.000,302.566,-76.043,26039.855971
2 Jan 2020 02:13:16.000,303.481,-76.204,25853.461734
2 Jan 2020 02:13:46.000,304.422,-76.378,25669.661444
2 Jan 2020 02:14:16.000,305.392,-76.565,25488.692116
2 Jan 2020 02:14:46.000,306.396,-76.765,25310.793187
2 Jan 2020 02:15:16.000,307.437,-76.977,25136.205862
2 Jan 2020 02:15:46.000,308.519,-77.202,24965.173817
2 Jan 2020 02:16:16.000,309.647,-77.438,24797.941066
2 Jan 2020 02:16:46.000,310.826,-77.687,24634.752590
2 Jan 2020 02:17:16.000,312.062,-77.946,24475.853514
2 Jan 2020 02:17:46.000,313.362,-78.216,24321.488526
2 Jan 2020 02:18:16.000,314.732,-78.497,24171.901255
2 Jan 2020 02:18:46.000,316.182,-78.787,24027.333370
2 Jan 2020 02:19:16.000,317.719,-79.085,23888.024813
2 Jan 2020 02:19:46.000,319.355,-79.391,23754.211632
2 Jan 2020 02:20:16.000,321.101,-79.703,23626.126163
2 Jan 2020 02:20:46.000,322.969,-80.020,23503.995974
2 Jan 2020 02:21:16.000,324.974,-80.341,23388.042864
2 Jan 2020 02:21:46.000,327.131,-80.664,23278.482673
2 Jan 2020 02:22:16.000,329.457,-80.986,23175.523387
2 Jan 2020 02:22:46.000,331.971,-81.306,23079.364948
2 Jan 2020 02:23:16.000,334.691,-81.620,22990.198191
2 Jan 2020 02:23:46.000,337.638,-81.927,22908.203840
2 Jan 2020 02:24:16.000,340.830,-82.222,22833.552169
2 Jan 2020 02:24:46.000,344.285,-82.502,22766.401362
2 Jan 2020 02:25:16.000,348.016,-82.763,22706.897259
2 Jan 2020 02:25:46.000,352.031,-83.001,22655.172394
2 Jan 2020 02:26:16.000,356.328,-83.212,22611.345545
2 Jan 2020 02:26:46.000,0.893,-83.391,22575.520683
2 Jan 2020 02:27:16.000,5.699,-83.534,22547.786682
2 Jan 2020 02:27:46.000,10.701,-83.637,22528.216738
2 Jan 2020 02:28:16.000,15.840,-83.698,22516.867994
2 Jan 2020 02:28:46.000,21.046,-83.715,22513.781139
2 Jan 2020 02:29:16.000,26.241,-83.686,22518.980245
2 Jan 2020 02:29:46.000,31.350,-83.614,22532.472664
2 Jan 2020 02:30:16.000,36.302,-83.500,22554.248810
2 Jan 2020 02:30:46.000,41.043,-83.346,22584.282490
2 Jan 2020 02:31:16.000,45.529,-83.156,22622.530906
2 Jan 2020 02:31:46.000,49.736,-82.936,22668.935067
2 Jan 2020 02:32:16.000,53.653,-82.688,22723.419722
2 Jan 2020 02:32:46.000,57.278,-82.418,22785.894411
2 Jan 2020 02:33:16.000,60.621,-82.129,22856.253596
2 Jan 2020 02:33:46.000,63.696,-81.825,22934.377500
2 Jan 2020 02:34:16.000,66.521,-81.511,23020.132176
2 Jan 2020 02:34:46.000,69.115,-81.188,23113.371098
2 Jan 2020 02:35:16.000,71.497,-80.861,23213.935356
2 Jan 2020 02:35:46.000,73.686,-80.532,23321.654598
2 Jan 2020 02:36:16.000,75.701,-80.203,23436.348101
2 Jan 2020 02:36:46.000,77.558,-79.876,23557.824679
2 Jan 2020 02:37:16.000,79.273,-79.552,23685.884945
2 Jan 2020 02:37:46.000,80.858,-79.235,23820.321258
2 Jan 2020 02:38:16.000,82.328,-78.924,23960.918814
2 Jan 2020 02:38:46.000,83.691,-78.621,24107.456743
2 Jan 2020 02:39:16.000,84.960,-78.327,24259.707945
2 Jan 2020 02:39:46.000,86.142,-78.043,24417.441382
2 Jan 2020 02:40:16.000,87.245,-77.770,24580.421880
2 Jan 2020 02:40:46.000,88.277,-77.509,24748.411115
2 Jan 2020 02:41:16.000,89.244,-77.259,24921.168328
2 Jan 2020 02:41:46.000,90.150,-77.022,25098.450994
2 Jan 2020 02:42:16.000,91.002,-76.798,25280.015788
2 Jan 2020 02:42:46.000,91.803,-76.587,25465.617878
2 Jan 2020 02:43:16.000,92.558,-76.389,25655.013409
2 Jan 2020 02:43:46.000,93.271,-76.206,25847.958733
2 Jan 2020 02:44:16.000,93.944,-76.035,26044.211192
2 Jan 2020 02:44:46.000,94.580,-75.879,26243.529551
2 Jan 2020 02:45:16.000,95.182,-75.737,26445.674385
2 Jan 2020 02:45:46.000,95.752,-75.608,26650.408427
2 Jan 2020 02:46:16.000,96.293,-75.494,26857.496886
2 Jan 2020 02:46:46.000,96.806,-75.393,27066.707726
2 Jan 2020 02:47:16.000,97.293,-75.306,27277.811915
2 Jan 2020 02:47:46.000,97.756,-75.233,27490.583638
2 Jan 2020 02:48:16.000,98.196,-75.173,27704.800492
2 Jan 2020 02:48:46.000,98.615,-75.126,27920.243645
2 Jan 2020 02:49:16.000,99.013,-75.093,28136.697971
2 Jan 2020 02:49:46.000,99.392,-75.073,28353.952171
2 Jan 2020 02:50:16.000,99.753,-75.065,28571.798864
2 Jan 2020 02:50:19.677,99.796,-75.065,28598.532874
2 Jan 2020 03:53:16.275,278.237,-75.074,28603.713546
2 Jan 2020 03:53:46.000,277.681,-75.080,28394.863883
2 Jan 2020 03:54:16.000,277.099,-75.097,28184.930295
2 Jan 2020 03:54:46.000,276.495,-75.127,27976.056534
2 Jan 2020 03:55:16.000,275.867,-75.168,27768.451156
2 Jan 2020 03:55:46.000,275.214,-75.222,27562.325871
2 Jan 2020 03:56:16.000,274.534,-75.288,27357.895386
2 Jan 2020 03:56:46.000,273.826,-75.366,27155.377226
2 Jan 2020 03:57:16.000,273.088,-75.457,26954.991530
2 Jan 2020 03:57:46.000,272.317,-75.560,26756.960821
2 Jan 2020 03:58:16.000,271.512,-75.675,26561.509746
2 Jan 2020 03:58:46.000,270.669,-75.802,26368.864791
2 Jan 2020 03:59:16.000,269.788,-75.941,26179.253958
2 Jan 2020 03:59:46.000,268.863,-76.092,25992.906418
2 Jan 2020 04:00:16.000,267.894,-76.255,25810.051792
2 Jan 2020 04:00:46.000,266.875,-76.428,25630.921074
2 Jan 2020 04:01:16.000,265.805,-76.613,25455.744154
2 Jan 2020 04:01:46.000,264.677,-76.808,25284.750687
2 Jan 2020 04:02:16.000,263.490,-77.013,25118.169229
2 Jan 2020 04:02:46.000,262.236,-77.228,24956.226676
2 Jan 2020 04:03:16.000,260.913,-77.451,24799.147677
2 Jan 2020 04:03:46.000,259.514,-77.682,24647.153714
2 Jan 2020 04:04:16.000,258.033,-77.920,24500.463627
2 Jan 2020 04:04:46.000,256.465,-78.165,24359.291152
2 Jan 2020 04:05:16.000,254.802,-78.414,24223.845410
2 Jan 2020 04:05:46.000,253.037,-78.668,24094.329882
2 Jan 2020 04:06:16.000,251.163,-78.924,23970.941440
2 Jan 2020 04:06:46.000,249.174,-79.181,23853.870480
2 Jan 2020 04:07:16.000,247.059,-79.437,23743.298823
2 Jan 2020 04:07:46.000,244.813,-79.691,23639.399855
2 Jan 2020 04:08:16.000,242.428,-79.941,23542.337549
2 Jan 2020 04:08:46.000,239.897,-80.184,23452.265537
2 Jan 2020 04:09:16.000,237.214,-80.419,23369.327153
2 Jan 2020 04:09:46.000,234.375,-80.642,23293.653589
2 Jan 2020 04:10:16.000,231.379,-80.853,23225.364025
2 Jan 2020 04:10:46.000,228.225,-81.047,23164.564711
2 Jan 2020 04:11:16.000,224.918,-81.224,23111.348884
2 Jan 2020 04:11:46.000,221.467,-81.380,23065.795542
2 Jan 2020 04:12:16.000,217.882,-81.512,23027.969513
2 Jan 2020 04:12:46.000,214.182,-81.620,22997.920893
2 Jan 2020 04:13:16.000,210.388,-81.702,22975.685055
2 Jan 2020 04:13:46.000,206.524,-81.755,22961.281985
2 Jan 2020 04:14:16.000,202.620,-81.779,22954.716479
2 Jan 2020 04:14:46.000,198.706,-81.774,22955.978004
2 Jan 2020 04:15:16.000,194.811,-81.741,22965.040821
2 Jan 2020 04:15:46.000,190.966,-81.678,22981.863984
2 Jan 2020 04:16:16.000,187.196,-81.589,23006.391656
2 Jan 2020 04:16:46.000,183.526,-81.474,23038.553407
2 Jan 2020 04:17:16.000,179.974,-81.335,23078.264468
2 Jan 2020 04:17:46.000,176.554,-81.175,23125.426336
2 Jan 2020 04:18:16.000,173.277,-80.996,23179.927186
