STKdata/Satellite-MEO_Satellite10002-To-Satellite-LEO_Satellite20000 AER.csv

"Time (UTCG)","Azimuth (deg)","Elevation (deg)","Range (km)"
1 Jan 2020 00:22:26.542,209.030,-75.075,28609.702953
1 Jan 2020 00:22:56.000,209.898,-75.078,28455.014158
1 Jan 2020 00:23:26.000,210.789,-75.088,28297.621598
1 Jan 2020 00:23:56.000,211.686,-75.104,28140.469788
1 Jan 2020 00:24:26.000,212.590,-75.128,27983.658499
1 Jan 2020 00:24:56.000,213.502,-75.158,27827.289328
1 Jan 2020 00:25:26.000,214.424,-75.195,27671.465683
1 Jan 2020 00:25:56.000,215.356,-75.239,27516.292752
1 Jan 2020 00:26:26.000,216.299,-75.290,27361.877478
1 Jan 2020 00:26:56.000,217.253,-75.348,27208.328518
1 Jan 2020 00:27:26.000,218.221,-75.413,27055.756198
1 Jan 2020 00:27:56.000,219.203,-75.486,26904.272470
1 Jan 2020 00:28:26.000,220.201,-75.565,26753.990846
1 Jan 2020 00:28:56.000,221.215,-75.652,26605.026343
1 Jan 2020 00:29:26.000,222.247,-75.746,26457.495403
1 Jan 2020 00:29:56.000,223.298,-75.847,26311.515816
1 Jan 2020 00:30:26.000,224.371,-75.955,26167.206629
1 Jan 2020 00:30:56.000,225.465,-76.070,26024.688047
1 Jan 2020 00:31:26.000,226.584,-76.192,25884.081328
1 Jan 2020 00:31:56.000,227.729,-76.321,25745.508659
1 Jan 2020 00:32:26.000,228.901,-76.456,25609.093030
1 Jan 2020 00:32:56.000,230.103,-76.598,25474.957846
1 Jan 2020 00:33:26.000,231.337,-76.746,25343.227782
1 Jan 2020 00:33:56.000,232.605,-76.900,25214.027103
1 Jan 2020 00:34:26.000,233.910,-77.060,25087.480510
1 Jan 2020 00:34:56.000,235.253,-77.225,24963.712701
1 Jan 2020 00:35:26.000,236.638,-77.395,24842.848175
1 Jan 2020 00:35:56.000,238.068,-77.570,24725.011028
1 Jan 2020 00:36:26.000,239.545,-77.749,24610.324735
1 Jan 2020 00:36:56.000,241.073,-77.932,24498.911923
1 Jan 2020 00:37:26.000,242.654,-78.118,24390.894135
1 Jan 2020 00:37:56.000,244.293,-78.306,24286.391373
1 Jan 2020 00:38:26.000,245.992,-78.497,24185.522681
1 Jan 2020 00:38:56.000,247.756,-78.690,24088.404612
1 Jan 2020 00:39:26.000,249.587,-78.883,23995.151813
1 Jan 2020 00:39:56.000,251.490,-79.075,23905.876525
1 Jan 2020 00:40:26.000,253.468,-79.267,23820.688310
1 Jan 2020 00:40:56.000,255.525,-79.457,23739.693756
1 Jan 2020 00:41:26.000,257.664,-79.644,23662.996192
1 Jan 2020 00:41:56.000,259.888,-79.827,23590.695260
1 Jan 2020 00:42:26.000,262.198,-80.005,23522.887194
1 Jan 2020 00:42:56.000,264.598,-80.176,23459.663665
1 Jan 2020 00:43:26.000,267.089,-80.341,23401.112088
1 Jan 2020 00:43:56.000,269.669,-80.496,23347.315199
1 Jan 2020 00:44:26.000,272.340,-80.642,23298.350787
1 Jan 2020 00:44:56.000,275.098,-80.777,23254.291438
1 Jan 2020 00:45:26.000,277.940,-80.899,23215.204220
1 Jan 2020 00:45:56.000,280.860,-81.008,23181.150731
1 Jan 2020 00:46:26.000,283.852,-81.103,23152.186455
1 Jan 2020 00:46:56.000,286.907,-81.182,23128.360855
1 Jan 2020 00:47:26.000,290.016,-81.245,23109.717126
1 Jan 2020 00:47:56.000,293.166,-81.290,23096.292028
1 Jan 2020 00:48:26.000,296.344,-81.318,23088.115758
1 Jan 2020 00:48:56.000,299.538,-81.328,23085.211832
1 Jan 2020 00:49:26.000,302.733,-81.320,23087.596983
1 Jan 2020 00:49:56.000,305.915,-81.294,23095.281118
1 Jan 2020 00:50:26.000,309.070,-81.249,23108.267265
1 Jan 2020 00:50:56.000,312.184,-81.188,23126.551565
1 Jan 2020 00:51:26.000,315.246,-81.109,23150.123350
1 Jan 2020 00:51:56.000,318.244,-81.015,23178.964918
1 Jan 2020 00:52:26.000,321.171,-80.906,23213.051972
1 Jan 2020 00:52:56.000,324.017,-80.782,23252.353466
1 Jan 2020 00:53:26.000,326.778,-80.646,23296.831773
1 Jan 2020 00:53:56.000,329.448,-80.498,23346.442820
1 Jan 2020 00:54:26.000,332.026,-80.340,23401.136360
1 Jan 2020 00:54:56.000,334.509,-80.172,23460.855670
1 Jan 2020 00:55:26.000,336.898,-79.997,23525.538447
1 Jan 2020 00:55:56.000,339.192,-79.814,23595.116560
1 Jan 2020 00:56:26.000,341.395,-79.627,23669.516382
1 Jan 2020 00:56:56.000,343.508,-79.434,23748.659029
1 Jan 2020 00:57:26.000,345.533,-79.239,23832.460612
1 Jan 2020 00:57:56.000,347.474,-79.041,23920.832687
1 Jan 2020 00:58:26.000,349.335,-78.842,24013.681744
1 Jan 2020 00:58:56.000,351.118,-78.643,24110.910635
1 Jan 2020 00:59:26.000,352.828,-78.444,24212.418085
1 Jan 2020 00:59:56.000,354.468,-78.247,24318.099160
1 Jan 2020 01:00:26.000,356.041,-78.051,24427.845546
1 Jan 2020 01:00:56.000,357.552,-77.859,24541.545822
1 Jan 2020 01:01:26.000,359.003,-77.670,24659.085738
1 Jan 2020 01:01:56.000,0.398,-77.485,24780.348734
1 Jan 2020 01:02:26.000,1.740,-77.304,24905.215218
1 Jan 2020 01:02:56.000,3.032,-77.129,25033.564299
1 Jan 2020 01:03:26.000,4.277,-76.959,25165.273062
1 Jan 2020 01:03:56.000,5.477,-76.794,25300.217056
1 Jan 2020 01:04:26.000,6.636,-76.637,25438.270536
1 Jan 2020 01:04:56.000,7.755,-76.485,25579.306682
1 Jan 2020 01:05:26.000,8.837,-76.341,25723.197824
1 Jan 2020 01:05:56.000,9.884,-76.203,25869.815645
1 Jan 2020 01:06:26.000,10.897,-76.073,26019.031380
1 Jan 2020 01:06:56.000,11.880,-75.951,26170.716007
1 Jan 2020 01:07:26.000,12.833,-75.836,26324.740417
1 Jan 2020 01:07:56.000,13.759,-75.728,26480.975892
1 Jan 2020 01:08:26.000,14.658,-75.629,26639.293038
1 Jan 2020 01:08:56.000,15.533,-75.538,26799.563757
1 Jan 2020 01:09:26.000,16.384,-75.455,26961.660169
1 Jan 2020 01:09:56.000,17.214,-75.380,27125.455041
1 Jan 2020 01:10:26.000,18.023,-75.313,27290.821902
1 Jan 2020 01:10:56.000,18.812,-75.255,27457.635153
1 Jan 2020 01:11:26.000,19.583,-75.204,27625.770163
1 Jan 2020 01:11:56.000,20.336,-75.162,27795.103360
1 Jan 2020 01:12:26.000,21.073,-75.128,27965.512312
1 Jan 2020 01:12:56.000,21.795,-75.102,28136.875804
1 Jan 2020 01:13:26.000,22.502,-75.084,28309.073901
1 Jan 2020 01:13:56.000,23.195,-75.075,28481.988013
1 Jan 2020 01:14:18.262,23.701,-75.073,28610.693344
1 Jan 2020 02:27:20.738,217.536,-75.072,28610.483521
1 Jan 2020 02:27:50.000,217.640,-75.077,28421.893479
1 Jan 2020 02:28:20.000,217.742,-75.092,28228.606566
1 Jan 2020 02:28:50.000,217.838,-75.116,28035.511652
1 Jan 2020 02:29:20.000,217.929,-75.152,27842.742292
1 Jan 2020 02:29:50.000,218.014,-75.197,27650.434693
1 Jan 2020 02:30:20.000,218.094,-75.254,27458.727699
1 Jan 2020 02:30:50.000,218.169,-75.322,27267.762762
1 Jan 2020 02:31:20.000,218.238,-75.401,27077.683914
1 Jan 2020 02:31:50.000,218.302,-75.491,26888.637725
1 Jan 2020 02:32:20.000,218.361,-75.593,26700.773246
1 Jan 2020 02:32:50.000,218.414,-75.707,26514.241955
1 Jan 2020 02:33:20.000,218.461,-75.832,26329.197674
1 Jan 2020 02:33:50.000,218.503,-75.970,26145.796488
1 Jan 2020 02:34:20.000,218.539,-76.120,25964.196644
1 Jan 2020 02:34:50.000,218.569,-76.282,25784.558431
1 Jan 2020 02:35:20.000,218.593,-76.456,25607.044054
1 Jan 2020 02:35:50.000,218.611,-76.644,25431.817486
1 Jan 2020 02:36:20.000,218.622,-76.843,25259.044300
1 Jan 2020 02:36:50.000,218.626,-77.056,25088.891172
1 Jan 2020 02:37:20.000,218.623,-77.281,24921.526956
1 Jan 2020 02:37:50.000,218.613,-77.519,24757.120533
1 Jan 2020 02:38:20.000,218.594,-77.770,24595.841862
1 Jan 2020 02:38:50.000,218.568,-78.034,24437.861391
1 Jan 2020 02:39:20.000,218.532,-78.310,24283.349770
1 Jan 2020 02:39:50.000,218.487,-78.600,24132.477547
1 Jan 2020 02:40:20.000,218.432,-78.902,23985.414837
1 Jan 2020 02:40:50.000,218.365,-79.216,23842.330706
1 Jan 2020 02:41:20.000,218.286,-79.543,23703.393879
1 Jan 2020 02:41:50.000,218.193,-79.882,23568.770715
1 Jan 2020 02:42:20.000,218.086,-80.233,23438.625889
1 Jan 2020 02:42:50.000,217.962,-80.597,23313.121693
1 Jan 2020 02:43:20.000,217.819,-80.971,23192.417582
1 Jan 2020 02:43:50.000,217.654,-81.357,23076.669718
1 Jan 2020 02:44:20.000,217.465,-81.754,22966.030256
1 Jan 2020 02:44:50.000,217.248,-82.161,22860.647812
1 Jan 2020 02:45:20.000,216.997,-82.579,22760.665532
1 Jan 2020 02:45:50.000,216.705,-83.006,22666.221560
1 Jan 2020 02:46:20.000,216.366,-83.442,22577.448303
1 Jan 2020 02:46:50.000,215.968,-83.887,22494.471936
1 Jan 2020 02:47:20.000,215.496,-84.340,22417.411749
1 Jan 2020 02:47:50.000,214.931,-84.800,22346.380339
1 Jan 2020 02:48:20.000,214.244,-85.267,22281.482131
1 Jan 2020 02:48:50.000,213.394,-85.740,22222.813631
1 Jan 2020 02:49:20.000,212.319,-86.218,22170.462831
1 Jan 2020 02:49:50.000,210.918,-86.699,22124.508735
1 Jan 2020 02:50:20.000,209.024,-87.182,22085.021358
1 Jan 2020 02:50:50.000,206.332,-87.665,22052.060856
1 Jan 2020 02:51:20.000,202.227,-88.143,22025.677624
1 Jan 2020 02:51:50.000,195.311,-88.608,22005.911959
1 Jan 2020 02:52:20.000,181.892,-89.035,21992.793849
1 Jan 2020 02:52:50.000,152.546,-89.340,21986.342927
1 Jan 2020 02:53:20.000,107.804,-89.328,21986.568206
1 Jan 2020 02:53:50.000,79.849,-89.010,21993.468161
1 Jan 2020 02:54:20.000,67.044,-88.579,22007.030703
1 Jan 2020 02:54:50.000,60.367,-88.113,22027.233282
1 Jan 2020 02:55:20.000,56.362,-87.635,22054.042822
1 Jan 2020 02:55:50.000,53.710,-87.152,22087.416119
1 Jan 2020 02:56:20.000,51.824,-86.669,22127.299902
1 Jan 2020 02:56:50.000,50.413,-86.188,22173.631112
1 Jan 2020 02:57:20.000,49.314,-85.711,22226.337303
1 Jan 2020 02:57:50.000,48.430,-85.240,22285.336555
1 Jan 2020 02:58:20.000,47.701,-84.773,22350.538450
1 Jan 2020 02:58:50.000,47.086,-84.314,22421.844073
1 Jan 2020 02:59:20.000,46.558,-83.862,22499.146534
1 Jan 2020 02:59:50.000,46.097,-83.419,22582.331415
1 Jan 2020 03:00:20.000,45.689,-82.983,22671.277429
1 Jan 2020 03:00:50.000,45.324,-82.558,22765.856130
1 Jan 2020 03:01:20.000,44.992,-82.142,22865.933544
1 Jan 2020 03:01:50.000,44.689,-81.736,22971.369917
1 Jan 2020 03:02:20.000,44.408,-81.340,23082.020397
1 Jan 2020 03:02:50.000,44.146,-80.956,23197.735527
1 Jan 2020 03:03:20.000,43.900,-80.583,23318.361743
1 Jan 2020 03:03:50.000,43.667,-80.221,23443.742121
1 Jan 2020 03:04:20.000,43.445,-79.871,23573.715787
1 Jan 2020 03:04:50.000,43.232,-79.533,23708.119958
1 Jan 2020 03:05:20.000,43.027,-79.208,23846.789341
1 Jan 2020 03:05:50.000,42.829,-78.895,23989.556817
1 Jan 2020 03:06:20.000,42.635,-78.594,24136.253852
1 Jan 2020 03:06:50.000,42.446,-78.306,24286.710880
1 Jan 2020 03:07:20.000,42.261,-78.031,24440.757673
1 Jan 2020 03:07:50.000,42.078,-77.768,24598.223685
1 Jan 2020 03:08:20.000,41.898,-77.518,24758.938694
1 Jan 2020 03:08:50.000,41.719,-77.281,24922.731842
1 Jan 2020 03:09:20.000,41.542,-77.057,25089.433798
1 Jan 2020 03:09:50.000,41.365,-76.846,25258.875767
1 Jan 2020 03:10:20.000,41.188,-76.647,25430.890037
1 Jan 2020 03:10:50.000,41.012,-76.460,25605.310203
1 Jan 2020 03:11:20.000,40.834,-76.286,25781.971355
1 Jan 2020 03:11:50.000,40.657,-76.125,25960.710263
1 Jan 2020 03:12:20.000,40.478,-75.976,26141.365535
1 Jan 2020 03:12:50.000,40.297,-75.838,26323.777761
1 Jan 2020 03:13:20.000,40.116,-75.713,26507.789637
1 Jan 2020 03:13:50.000,39.932,-75.600,26693.246081
1 Jan 2020 03:14:20.000,39.746,-75.498,26879.994325
1 Jan 2020 03:14:50.000,39.559,-75.408,27067.884002
1 Jan 2020 03:15:20.000,39.368,-75.329,27256.767215
1 Jan 2020 03:15:50.000,39.175,-75.261,27446.498597
1 Jan 2020 03:16:20.000,38.979,-75.204,27636.935360
1 Jan 2020 03:16:50.000,38.781,-75.157,27827.937335
1 Jan 2020 03:17:20.000,38.578,-75.122,28019.366997
1 Jan 2020 03:17:50.000,38.373,-75.096,28211.089495
1 Jan 2020 03:18:20.000,38.163,-75.081,28402.972660
1 Jan 2020 03:18:50.000,37.950,-75.075,28594.887014
1 Jan 2020 03:18:52.252,37.934,-75.075,28609.289293
1 Jan 2020 04:32:23.564,200.381,-75.067,28604.417831
1 Jan 2020 04:32:53.000,199.632,-75.071,28439.718088
1 Jan 2020 04:33:23.000,198.856,-75.082,28272.538051
1 Jan 2020 04:33:53.000,198.066,-75.100,28106.151375
1 Jan 2020 04:34:23.000,197.261,-75.126,27940.671538
1 Jan 2020 04:34:53.000,196.440,-75.160,27776.213140
1 Jan 2020 04:35:23.000,195.602,-75.201,27612.891846
1 Jan 2020 04:35:53.000,194.747,-75.250,27450.824318
1 Jan 2020 04:36:23.000,193.873,-75.307,27290.128133
1 Jan 2020 04:36:53.000,192.980,-75.370,27130.921705
1 Jan 2020 04:37:23.000,192.065,-75.442,26973.324193
1 Jan 2020 04:37:53.000,191.128,-75.521,26817.455404
1 Jan 2020 04:38:23.000,190.168,-75.607,26663.435684
1 Jan 2020 04:38:53.000,189.183,-75.700,26511.385805
1 Jan 2020 04:39:23.000,188.172,-75.801,26361.426844
1 Jan 2020 04:39:53.000,187.133,-75.909,26213.680051
1 Jan 2020 04:40:23.000,186.065,-76.023,26068.266705
1 Jan 2020 04:40:53.000,184.966,-76.144,25925.307685
1 Jan 2020 04:41:23.000,183.835,-76.272,25784.924457
1 Jan 2020 04:41:53.000,182.669,-76.406,25647.237175
1 Jan 2020 04:42:23.000,181.467,-76.546,25512.365667
1 Jan 2020 04:42:53.000,180.226,-76.691,25380.428959
1 Jan 2020 04:43:23.000,178.944,-76.842,25251.545077
1 Jan 2020 04:43:53.000,177.620,-76.997,25125.830854
1 Jan 2020 04:44:23.000,176.251,-77.158,25003.401713
1 Jan 2020 04:44:53.000,174.834,-77.322,24884.371452
1 Jan 2020 04:45:23.000,173.367,-77.490,24768.851789
1 Jan 2020 04:45:53.000,171.848,-77.661,24656.953079
1 Jan 2020 04:46:23.000,170.274,-77.834,24548.782643
1 Jan 2020 04:46:53.000,168.641,-78.010,24444.445496
1 Jan 2020 04:47:23.000,166.949,-78.186,24344.043857
1 Jan 2020 04:47:53.000,165.193,-78.363,24247.676911
1 Jan 2020 04:48:23.000,163.371,-78.540,24155.440556
1 Jan 2020 04:48:53.000,161.481,-78.716,24067.427164
1 Jan 2020 04:49:23.000,159.521,-78.891,23983.725136
1 Jan 2020 04:49:53.000,157.488,-79.062,23904.419452
1 Jan 2020 04:50:23.000,155.381,-79.230,23829.590239
1 Jan 2020 04:50:53.000,153.198,-79.393,23759.313346
1 Jan 2020 04:51:23.000,150.939,-79.551,23693.659915
1 Jan 2020 04:51:53.000,148.603,-79.702,23632.696171
1 Jan 2020 04:52:23.000,146.191,-79.846,23576.483214
1 Jan 2020 04:52:53.000,143.704,-79.981,23525.076709
1 Jan 2020 04:53:23.000,141.144,-80.106,23478.527206
1 Jan 2020 04:53:53.000,138.515,-80.221,23436.879213
1 Jan 2020 04:54:23.000,135.821,-80.325,23400.171571
1 Jan 2020 04:54:53.000,133.067,-80.416,23368.437196
1 Jan 2020 04:55:23.000,130.259,-80.494,23341.702961
1 Jan 2020 04:55:53.000,127.406,-80.558,23319.989566
1 Jan 2020 04:56:23.000,124.515,-80.608,23303.311676
1 Jan 2020 04:56:53.000,121.596,-80.644,23291.677538
1 Jan 2020 04:57:23.000,118.658,-80.664,23285.089193
1 Jan 2020 04:57:53.000,115.712,-80.668,23283.542406
1 Jan 2020 04:58:23.000,112.769,-80.658,23287.026689
1 Jan 2020 04:58:53.000,109.838,-80.632,23295.525344
1 Jan 2020 04:59:23.000,106.929,-80.592,23309.015506
1 Jan 2020 04:59:53.000,104.052,-80.537,23327.468245
1 Jan 2020 05:00:23.000,101.216,-80.468,23350.848664
1 Jan 2020 05:00:53.000,98.428,-80.387,23379.116025
1 Jan 2020 05:01:23.000,95.695,-80.292,23412.223886
1 Jan 2020 05:01:53.000,93.023,-80.186,23450.120265
1 Jan 2020 05:02:23.000,90.415,-80.070,23492.747898
1 Jan 2020 05:02:53.000,87.876,-79.943,23540.044106
1 Jan 2020 05:03:23.000,85.407,-79.808,23591.941468
1 Jan 2020 05:03:53.000,83.011,-79.666,23648.367739
1 Jan 2020 05:04:23.000,80.688,-79.516,23709.246148
1 Jan 2020 05:04:53.000,78.438,-79.361,23774.495631
1 Jan 2020 05:05:23.000,76.260,-79.200,23844.031079
1 Jan 2020 05:05:53.000,74.153,-79.036,23917.763583
1 Jan 2020 05:06:23.000,72.115,-78.869,23995.600852
1 Jan 2020 05:06:53.000,70.145,-78.700,24077.446825
1 Jan 2020 05:07:23.000,68.239,-78.529,24163.202876
1 Jan 2020 05:07:53.000,66.396,-78.358,24252.767449
1 Jan 2020 05:08:23.000,64.613,-78.187,24346.036464
1 Jan 2020 05:08:53.000,62.888,-78.016,24442.903569
1 Jan 2020 05:09:23.000,61.217,-77.848,24543.260387
1 Jan 2020 05:09:53.000,59.598,-77.681,24646.996762
1 Jan 2020 05:10:23.000,58.028,-77.516,24754.000990
1 Jan 2020 05:10:53.000,56.505,-77.355,24864.160053
1 Jan 2020 05:11:23.000,55.027,-77.197,24977.360075
1 Jan 2020 05:11:53.000,53.590,-77.044,25093.485608
1 Jan 2020 05:12:23.000,52.192,-76.894,25212.421217
1 Jan 2020 05:12:53.000,50.832,-76.749,25334.050767
1 Jan 2020 05:13:23.000,49.507,-76.609,25458.257836
1 Jan 2020 05:13:53.000,48.215,-76.474,25584.925891
1 Jan 2020 05:14:23.000,46.954,-76.345,25713.938459
1 Jan 2020 05:14:53.000,45.721,-76.222,25845.179286
1 Jan 2020 05:15:23.000,44.517,-76.104,25978.532485
1 Jan 2020 05:15:53.000,43.337,-75.992,26113.882677
1 Jan 2020 05:16:23.000,42.182,-75.886,26251.115119
1 Jan 2020 05:16:53.000,41.049,-75.787,26390.115828
1 Jan 2020 05:17:23.000,39.937,-75.694,26530.771690
1 Jan 2020 05:17:53.000,38.845,-75.607,26672.970564
1 Jan 2020 05:18:23.000,37.771,-75.527,26816.601379
1 Jan 2020 05:18:53.000,36.714,-75.454,26961.554215
1 Jan 2020 05:19:23.000,35.673,-75.387,27107.720385
1 Jan 2020 05:19:53.000,34.647,-75.326,27254.992507
1 Jan 2020 05:20:23.000,33.635,-75.272,27403.264563
1 Jan 2020 05:20:53.000,32.635,-75.225,27552.431958
1 Jan 2020 05:21:23.000,31.646,-75.184,27702.391573
1 Jan 2020 05:21:53.000,30.669,-75.150,27853.041805
1 Jan 2020 05:22:23.000,29.701,-75.122,28004.282605
1 Jan 2020 05:22:53.000,28.743,-75.101,28156.015516
1 Jan 2020 05:23:23.000,27.792,-75.086,28308.143697
1 Jan 2020 05:23:53.000,26.849,-75.077,28460.571944
1 Jan 2020 05:24:20.810,25.981,-75.074,28602.061769
1 Jan 2020 06:43:29.644,160.774,-75.065,28596.150934
1 Jan 2020 06:43:59.000,159.792,-75.068,28453.642420
1 Jan 2020 06:44:29.000,158.782,-75.076,28308.361076
1 Jan 2020 06:44:59.000,157.762,-75.090,28163.521442
1 Jan 2020 06:45:29.000,156.733,-75.110,28019.212095
1 Jan 2020 06:45:59.000,155.694,-75.135,27875.522902
1 Jan 2020 06:46:29.000,154.644,-75.167,27732.544994
1 Jan 2020 06:46:59.000,153.582,-75.204,27590.370732
1 Jan 2020 06:47:29.000,152.507,-75.247,27449.093672
1 Jan 2020 06:47:59.000,151.419,-75.295,27308.808524
1 Jan 2020 06:48:29.000,150.316,-75.350,27169.611103
1 Jan 2020 06:48:59.000,149.197,-75.410,27031.598282
1 Jan 2020 06:49:29.000,148.062,-75.476,26894.867932
1 Jan 2020 06:49:59.000,146.909,-75.547,26759.518858
1 Jan 2020 06:50:29.000,145.738,-75.624,26625.650733
1 Jan 2020 06:50:59.000,144.546,-75.707,26493.364022
1 Jan 2020 06:51:29.000,143.334,-75.795,26362.759899
1 Jan 2020 06:51:59.000,142.098,-75.888,26233.940158
1 Jan 2020 06:52:29.000,140.840,-75.986,26107.007121
1 Jan 2020 06:52:59.000,139.556,-76.089,25982.063531
1 Jan 2020 06:53:29.000,138.246,-76.197,25859.212445
1 Jan 2020 06:53:59.000,136.907,-76.309,25738.556876
1 Jan 2020 06:54:29.000,135.540,-76.426,25620.200637
1 Jan 2020 06:54:59.000,134.141,-76.547,25504.246746
1 Jan 2020 06:55:29.000,132.710,-76.672,25390.798270
1 Jan 2020 06:55:59.000,131.244,-76.800,25279.957927
1 Jan 2020 06:56:29.000,129.743,-76.931,25171.827937
1 Jan 2020 06:56:59.000,128.204,-77.066,25066.509858
1 Jan 2020 06:57:29.000,126.625,-77.202,24964.104421
1 Jan 2020 06:57:59.000,125.006,-77.341,24864.711351
1 Jan 2020 06:58:29.000,123.343,-77.481,24768.429193
1 Jan 2020 06:58:59.000,121.636,-77.623,24675.354945
1 Jan 2020 06:59:29.000,119.883,-77.765,24585.584585
1 Jan 2020 06:59:59.000,118.082,-77.907,24499.211791
1 Jan 2020 07:00:29.000,116.232,-78.048,24416.328468
1 Jan 2020 07:00:59.000,114.330,-78.189,24337.024370
1 Jan 2020 07:01:29.000,112.377,-78.327,24261.386887
1 Jan 2020 07:01:59.000,110.371,-78.463,24189.500845
1 Jan 2020 07:02:29.000,108.312,-78.596,24121.448298
1 Jan 2020 07:02:59.000,106.198,-78.726,24057.308207
1 Jan 2020 07:03:29.000,104.031,-78.851,23997.156710
1 Jan 2020 07:03:59.000,101.810,-78.970,23941.066196
1 Jan 2020 07:04:29.000,99.535,-79.084,23889.105605
1 Jan 2020 07:04:59.000,97.209,-79.191,23841.340103
1 Jan 2020 07:05:29.000,94.833,-79.291,23797.830904
1 Jan 2020 07:05:59.000,92.410,-79.382,23758.635089
1 Jan 2020 07:06:29.000,89.942,-79.465,23723.805383
1 Jan 2020 07:06:59.000,87.433,-79.539,23693.390223
1 Jan 2020 07:07:29.000,84.888,-79.602,23667.433255
1 Jan 2020 07:07:59.000,82.311,-79.656,23645.973441
1 Jan 2020 07:08:29.000,79.708,-79.698,23629.044877
1 Jan 2020 07:08:59.000,77.083,-79.730,23616.676676
1 Jan 2020 07:09:29.000,74.444,-79.749,23608.892880
1 Jan 2020 07:09:59.000,71.797,-79.758,23605.712384
1 Jan 2020 07:10:29.000,69.149,-79.754,23607.148847
1 Jan 2020 07:10:59.000,66.505,-79.739,23613.210668
1 Jan 2020 07:11:29.000,63.873,-79.712,23623.900953
1 Jan 2020 07:11:59.000,61.260,-79.673,23639.217494
1 Jan 2020 07:12:29.000,58.670,-79.624,23659.152774
1 Jan 2020 07:12:59.000,56.111,-79.563,23683.693988
1 Jan 2020 07:13:29.000,53.586,-79.493,23712.823154
1 Jan 2020 07:13:59.000,51.102,-79.412,23746.516870
1 Jan 2020 07:14:29.000,48.662,-79.322,23784.746813
1 Jan 2020 07:14:59.000,46.269,-79.224,23827.479545
1 Jan 2020 07:15:29.000,43.926,-79.118,23874.676681
1 Jan 2020 07:15:59.000,41.637,-79.004,23926.294998
1 Jan 2020 07:16:29.000,39.402,-78.884,23982.286563
1 Jan 2020 07:16:59.000,37.223,-78.758,24042.599002
1 Jan 2020 07:17:29.000,35.100,-78.627,24107.175126
1 Jan 2020 07:17:59.000,33.034,-78.492,24175.953863
1 Jan 2020 07:18:29.000,31.025,-78.353,24248.869917
1 Jan 2020 07:18:59.000,29.072,-78.211,24325.854070
1 Jan 2020 07:19:29.000,27.175,-78.067,24406.833361
1 Jan 2020 07:19:59.000,25.332,-77.922,24491.731276
1 Jan 2020 07:20:29.000,23.542,-77.776,24580.467936
1 Jan 2020 07:20:59.000,21.804,-77.629,24672.960492
1 Jan 2020 07:21:29.000,20.117,-77.483,24769.122543
1 Jan 2020 07:21:59.000,18.478,-77.338,24868.865487
1 Jan 2020 07:22:29.000,16.886,-77.194,24972.097959
1 Jan 2020 07:22:59.000,15.340,-77.053,25078.726215
1 Jan 2020 07:23:29.000,13.837,-76.914,25188.654328
1 Jan 2020 07:23:59.000,12.376,-76.777,25301.784383
1 Jan 2020 07:24:29.000,10.955,-76.645,25418.016664
1 Jan 2020 07:24:59.000,9.573,-76.515,25537.249839
1 Jan 2020 07:25:29.000,8.227,-76.390,25659.381146
1 Jan 2020 07:25:59.000,6.917,-76.269,25784.306564
1 Jan 2020 07:26:29.000,5.640,-76.153,25911.921256
1 Jan 2020 07:26:59.000,4.395,-76.042,26042.118660
1 Jan 2020 07:27:29.000,3.181,-75.936,26174.792250
1 Jan 2020 07:27:59.000,1.996,-75.836,26309.834626
1 Jan 2020 07:28:29.000,0.838,-75.741,26447.137923
1 Jan 2020 07:28:59.000,359.707,-75.652,26586.593952
1 Jan 2020 07:29:29.000,358.601,-75.569,26728.094329
1 Jan 2020 07:29:59.000,357.518,-75.492,26871.530601
1 Jan 2020 07:30:29.000,356.458,-75.421,27016.794367
1 Jan 2020 07:30:59.000,355.420,-75.356,27163.777387
1 Jan 2020 07:31:29.000,354.401,-75.298,27312.371689
1 Jan 2020 07:31:59.000,353.403,-75.247,27462.469663
1 Jan 2020 07:32:29.000,352.422,-75.202,27613.964160
1 Jan 2020 07:32:59.000,351.459,-75.163,27766.748570
1 Jan 2020 07:33:29.000,350.512,-75.131,27920.716907
1 Jan 2020 07:33:59.000,349.580,-75.106,28075.763879
1 Jan 2020 07:34:29.000,348.664,-75.087,28231.784961
1 Jan 2020 07:34:59.000,347.761,-75.075,28388.676450
1 Jan 2020 07:35:29.000,346.871,-75.070,28546.335531
1 Jan 2020 07:35:38.155,346.602,-75.070,28594.583275
1 Jan 2020 08:50:18.141,142.131,-75.067,28593.019646
1 Jan 2020 08:50:48.000,141.733,-75.072,28406.937487
1 Jan 2020 08:51:18.000,141.335,-75.086,28219.951212
1 Jan 2020 08:51:48.000,140.938,-75.110,28033.065788
1 Jan 2020 08:52:18.000,140.541,-75.143,27846.408151
1 Jan 2020 08:52:48.000,140.143,-75.186,27660.107902
1 Jan 2020 08:53:18.000,139.745,-75.240,27474.297291
1 Jan 2020 08:53:48.000,139.345,-75.304,27289.111203
1 Jan 2020 08:54:18.000,138.943,-75.378,27104.687132
1 Jan 2020 08:54:48.000,138.539,-75.463,26921.165147
1 Jan 2020 08:55:18.000,138.132,-75.559,26738.687851
1 Jan 2020 08:55:48.000,137.721,-75.666,26557.400325
1 Jan 2020 08:56:18.000,137.306,-75.785,26377.450068
1 Jan 2020 08:56:48.000,136.885,-75.914,26198.986920
1 Jan 2020 08:57:18.000,136.458,-76.055,26022.162974
1 Jan 2020 08:57:48.000,136.024,-76.207,25847.132477
1 Jan 2020 08:58:18.000,135.582,-76.372,25674.051713
1 Jan 2020 08:58:48.000,135.131,-76.548,25503.078874
1 Jan 2020 08:59:18.000,134.670,-76.735,25334.373908
1 Jan 2020 08:59:48.000,134.197,-76.935,25168.098361
1 Jan 2020 09:00:18.000,133.710,-77.146,25004.414886
1 Jan 2020 09:00:48.000,133.209,-77.370,24843.488272
1 Jan 2020 09:01:18.000,132.691,-77.605,24685.483373
1 Jan 2020 09:01:48.000,132.154,-77.852,24530.566107
1 Jan 2020 09:02:18.000,131.597,-78.111,24378.902884
1 Jan 2020 09:02:48.000,131.015,-78.382,24230.660327
1 Jan 2020 09:03:18.000,130.406,-78.664,24086.004969
1 Jan 2020 09:03:48.000,129.768,-78.958,23945.102928
1 Jan 2020 09:04:18.000,129.095,-79.263,23808.119321
1 Jan 2020 09:04:48.000,128.383,-79.579,23675.218895
1 Jan 2020 09:05:18.000,127.626,-79.905,23546.564134
1 Jan 2020 09:05:48.000,126.819,-80.242,23422.315872
1 Jan 2020 09:06:18.000,125.954,-80.588,23302.632619
1 Jan 2020 09:06:48.000,125.023,-80.944,23187.670124
1 Jan 2020 09:07:18.000,124.014,-81.309,23077.580929
1 Jan 2020 09:07:48.000,122.915,-81.682,22972.513690
1 Jan 2020 09:08:18.000,121.711,-82.063,22872.613575
1 Jan 2020 09:08:48.000,120.384,-82.450,22778.020472
1 Jan 2020 09:09:18.000,118.911,-82.842,22688.869396
1 Jan 2020 09:09:48.000,117.264,-83.239,22605.289781
1 Jan 2020 09:10:18.000,115.408,-83.638,22527.405008
1 Jan 2020 09:10:48.000,113.300,-84.039,22455.331787
1 Jan 2020 09:11:18.000,110.884,-84.439,22389.180281
1 Jan 2020 09:11:48.000,108.092,-84.835,22329.052774
1 Jan 2020 09:12:18.000,104.834,-85.223,22275.043848
1 Jan 2020 09:12:48.000,101.003,-85.600,22227.239828
1 Jan 2020 09:13:18.000,96.464,-85.959,22185.718339
1 Jan 2020 09:13:48.000,91.065,-86.294,22150.548249
1 Jan 2020 09:14:18.000,84.647,-86.594,22121.788911
1 Jan 2020 09:14:48.000,77.086,-86.848,22099.490204
1 Jan 2020 09:15:18.000,68.364,-87.041,22083.692220
1 Jan 2020 09:15:48.000,58.662,-87.161,22074.425076
1 Jan 2020 09:16:18.000,48.410,-87.198,22071.708800
1 Jan 2020 09:16:48.000,38.212,-87.146,22075.553175
1 Jan 2020 09:17:18.000,28.657,-87.012,22085.957746
1 Jan 2020 09:17:48.000,20.133,-86.807,22102.911808
1 Jan 2020 09:18:18.000,12.783,-86.543,22126.394519
1 Jan 2020 09:18:48.000,6.566,-86.235,22156.374769
1 Jan 2020 09:19:18.000,1.348,-85.895,22192.811649
1 Jan 2020 09:19:48.000,356.969,-85.530,22235.654446
1 Jan 2020 09:20:18.000,353.279,-85.149,22284.842917
1 Jan 2020 09:20:48.000,350.148,-84.757,22340.307686
1 Jan 2020 09:21:18.000,347.471,-84.358,22401.970094
1 Jan 2020 09:21:48.000,345.164,-83.955,22469.743220
1 Jan 2020 09:22:18.000,343.159,-83.552,22543.531815
1 Jan 2020 09:22:48.000,341.404,-83.150,22623.232816
1 Jan 2020 09:23:18.000,339.857,-82.751,22708.735764
1 Jan 2020 09:23:48.000,338.484,-82.356,22799.923456
1 Jan 2020 09:24:18.000,337.258,-81.967,22896.671589
1 Jan 2020 09:24:48.000,336.158,-81.585,22998.850425
1 Jan 2020 09:25:18.000,335.165,-81.210,23106.324478
1 Jan 2020 09:25:48.000,334.265,-80.844,23218.953180
1 Jan 2020 09:26:18.000,333.445,-80.487,23336.591360
1 Jan 2020 09:26:48.000,332.697,-80.139,23459.089711
1 Jan 2020 09:27:18.000,332.010,-79.801,23586.295529
1 Jan 2020 09:27:48.000,331.379,-79.473,23718.052077
1 Jan 2020 09:28:18.000,330.796,-79.157,23854.200648
1 Jan 2020 09:28:48.000,330.258,-78.851,23994.579922
1 Jan 2020 09:29:18.000,329.758,-78.558,24139.026638
1 Jan 2020 09:29:48.000,329.295,-78.275,24287.375997
1 Jan 2020 09:30:18.000,328.863,-78.005,24439.462027
1 Jan 2020 09:30:48.000,328.460,-77.746,24595.117948
1 Jan 2020 09:31:18.000,328.085,-77.500,24754.176505
1 Jan 2020 09:31:48.000,327.733,-77.265,24916.470601
1 Jan 2020 09:32:18.000,327.405,-77.043,25081.832322
1 Jan 2020 09:32:48.000,327.097,-76.833,25250.095114
1 Jan 2020 09:33:18.000,326.808,-76.636,25421.092772
1 Jan 2020 09:33:48.000,326.538,-76.450,25594.659991
1 Jan 2020 09:34:18.000,326.284,-76.277,25770.632580
1 Jan 2020 09:34:48.000,326.045,-76.116,25948.847661
1 Jan 2020 09:35:18.000,325.821,-75.967,26129.143842
1 Jan 2020 09:35:48.000,325.611,-75.830,26311.361381
1 Jan 2020 09:36:18.000,325.414,-75.705,26495.342329
1 Jan 2020 09:36:48.000,325.230,-75.591,26680.930660
1 Jan 2020 09:37:18.000,325.056,-75.489,26867.972382
1 Jan 2020 09:37:48.000,324.894,-75.398,27056.315638
1 Jan 2020 09:38:18.000,324.743,-75.319,27245.810792
1 Jan 2020 09:38:48.000,324.602,-75.251,27436.310506
1 Jan 2020 09:39:18.000,324.470,-75.194,27627.669799
1 Jan 2020 09:39:48.000,324.347,-75.147,27819.746101
1 Jan 2020 09:40:18.000,324.234,-75.111,28012.399299
1 Jan 2020 09:40:48.000,324.129,-75.086,28205.491768
1 Jan 2020 09:41:18.000,324.033,-75.071,28398.888399
1 Jan 2020 09:41:48.000,323.944,-75.066,28592.456619
1 Jan 2020 09:41:48.165,323.944,-75.066,28593.520156
1 Jan 2020 10:54:18.955,151.303,-75.072,28597.150319
1 Jan 2020 10:54:48.000,151.809,-75.076,28420.697897
1 Jan 2020 10:55:18.000,152.343,-75.089,28238.934232
1 Jan 2020 10:55:48.000,152.891,-75.111,28057.793004
1 Jan 2020 10:56:18.000,153.453,-75.142,27877.401391
1 Jan 2020 10:56:48.000,154.030,-75.182,27697.888315
1 Jan 2020 10:57:18.000,154.622,-75.231,27519.384388
1 Jan 2020 10:57:48.000,155.232,-75.290,27342.021848
1 Jan 2020 10:58:18.000,155.859,-75.358,27165.934492
1 Jan 2020 10:58:48.000,156.504,-75.436,26991.257591
1 Jan 2020 10:59:18.000,157.170,-75.522,26818.127806
1 Jan 2020 10:59:48.000,157.857,-75.619,26646.683084
1 Jan 2020 11:00:18.000,158.566,-75.724,26477.062551
1 Jan 2020 11:00:48.000,159.299,-75.839,26309.406392
1 Jan 2020 11:01:18.000,160.058,-75.964,26143.855715
1 Jan 2020 11:01:48.000,160.844,-76.097,25980.552410
1 Jan 2020 11:02:18.000,161.660,-76.240,25819.638992
1 Jan 2020 11:02:48.000,162.506,-76.392,25661.258124
1 Jan 2020 11:03:18.000,163.385,-76.553,25505.553658
1 Jan 2020 11:03:48.000,164.300,-76.723,25352.668598
1 Jan 2020 11:04:18.000,165.253,-76.901,25202.746124
1 Jan 2020 11:04:48.000,166.246,-77.087,25055.929055
1 Jan 2020 11:05:18.000,167.283,-77.281,24912.359615
1 Jan 2020 11:05:48.000,168.367,-77.483,24772.179183
1 Jan 2020 11:06:18.000,169.501,-77.693,24635.528024
1 Jan 2020 11:06:48.000,170.689,-77.909,24502.545019
1 Jan 2020 11:07:18.000,171.935,-78.132,24373.367097
1 Jan 2020 11:07:48.000,173.244,-78.360,24248.130048
1 Jan 2020 11:08:18.000,174.620,-78.594,24126.966531
1 Jan 2020 11:08:48.000,176.069,-78.832,24010.006885
1 Jan 2020 11:09:18.000,177.596,-79.074,23897.378514
1 Jan 2020 11:09:48.000,179.206,-79.319,23789.205554
1 Jan 2020 11:10:18.000,180.907,-79.566,23685.608534
1 Jan 2020 11:10:48.000,182.705,-79.814,23586.703822
1 Jan 2020 11:11:18.000,184.607,-80.062,23492.604134
1 Jan 2020 11:11:48.000,186.620,-80.309,23403.416898
1 Jan 2020 11:12:18.000,188.752,-80.553,23319.244784
1 Jan 2020 11:12:48.000,191.009,-80.794,23240.185152
1 Jan 2020 11:13:18.000,193.399,-81.029,23166.329724
1 Jan 2020 11:13:48.000,195.928,-81.256,23097.764123
1 Jan 2020 11:14:18.000,198.602,-81.475,23034.568164
1 Jan 2020 11:14:48.000,201.425,-81.683,22976.814660
1 Jan 2020 11:15:18.000,204.399,-81.879,22924.569768
1 Jan 2020 11:15:48.000,207.525,-82.060,22877.892582
1 Jan 2020 11:16:18.000,210.798,-82.224,22836.834912
1 Jan 2020 11:16:48.000,214.213,-82.370,22801.440992
1 Jan 2020 11:17:18.000,217.758,-82.495,22771.747660
1 Jan 2020 11:17:48.000,221.418,-82.598,22747.783671
1 Jan 2020 11:18:18.000,225.175,-82.678,22729.569951
1 Jan 2020 11:18:48.000,229.006,-82.734,22717.119418
1 Jan 2020 11:19:18.000,232.883,-82.764,22710.436933
1 Jan 2020 11:19:48.000,236.778,-82.768,22709.519270
1 Jan 2020 11:20:18.000,240.664,-82.746,22714.355183
1 Jan 2020 11:20:48.000,244.510,-82.698,22724.925352
1 Jan 2020 11:21:18.000,248.291,-82.626,22741.202546
1 Jan 2020 11:21:48.000,251.983,-82.531,22763.151711
1 Jan 2020 11:22:18.000,255.567,-82.413,22790.730111
1 Jan 2020 11:22:48.000,259.026,-82.275,22823.887565
1 Jan 2020 11:23:18.000,262.349,-82.119,22862.566406
1 Jan 2020 11:23:48.000,265.530,-81.945,22906.702052
1 Jan 2020 11:24:18.000,268.564,-81.757,22956.223036
1 Jan 2020 11:24:48.000,271.451,-81.557,23011.051332
1 Jan 2020 11:25:18.000,274.193,-81.345,23071.102648
1 Jan 2020 11:25:48.000,276.795,-81.125,23136.286848
1 Jan 2020 11:26:18.000,279.261,-80.897,23206.507809
1 Jan 2020 11:26:48.000,281.598,-80.663,23281.664444
1 Jan 2020 11:27:18.000,283.813,-80.426,23361.650596
1 Jan 2020 11:27:48.000,285.913,-80.186,23446.355496
1 Jan 2020 11:28:18.000,287.906,-79.944,23535.664116
1 Jan 2020 11:28:48.000,289.799,-79.702,23629.457528
1 Jan 2020 11:29:18.000,291.598,-79.461,23727.613441
1 Jan 2020 11:29:48.000,293.311,-79.221,23830.005818
1 Jan 2020 11:30:18.000,294.944,-78.985,23936.506317
1 Jan 2020 11:30:48.000,296.503,-78.752,24046.983912
1 Jan 2020 11:31:18.000,297.993,-78.522,24161.305405
1 Jan 2020 11:31:48.000,299.421,-78.298,24279.335746
1 Jan 2020 11:32:18.000,300.790,-78.079,24400.938353
1 Jan 2020 11:32:48.000,302.105,-77.866,24525.975407
1 Jan 2020 11:33:18.000,303.370,-77.659,24654.308145
1 Jan 2020 11:33:48.000,304.590,-77.459,24785.797384
1 Jan 2020 11:34:18.000,305.768,-77.266,24920.302796
1 Jan 2020 11:34:48.000,306.907,-77.081,25057.684628
1 Jan 2020 11:35:18.000,308.010,-76.903,25197.802958
1 Jan 2020 11:35:48.000,309.079,-76.732,25340.518161
1 Jan 2020 11:36:18.000,310.118,-76.570,25485.691113
1 Jan 2020 11:36:48.000,311.129,-76.416,25633.183377
1 Jan 2020 11:37:18.000,312.114,-76.270,25782.857389
1 Jan 2020 11:37:48.000,313.076,-76.132,25934.576612
1 Jan 2020 11:38:18.000,314.015,-76.003,26088.205689
1 Jan 2020 11:38:48.000,314.934,-75.883,26243.610581
1 Jan 2020 11:39:18.000,315.834,-75.771,26400.658690
1 Jan 2020 11:39:48.000,316.717,-75.667,26559.218970
1 Jan 2020 11:40:18.000,317.585,-75.572,26719.162030
1 Jan 2020 11:40:48.000,318.438,-75.485,26880.360220
1 Jan 2020 11:41:18.000,319.278,-75.407,27042.687718
1 Jan 2020 11:41:48.000,320.106,-75.337,27206.020590
1 Jan 2020 11:42:18.000,320.924,-75.275,27370.236859
1 Jan 2020 11:42:48.000,321.732,-75.221,27535.216556
1 Jan 2020 11:43:18.000,322.531,-75.176,27700.841759
1 Jan 2020 11:43:48.000,323.322,-75.138,27866.996638
1 Jan 2020 11:44:18.000,324.107,-75.109,28033.567477
1 Jan 2020 11:44:48.000,324.885,-75.087,28200.442705
1 Jan 2020 11:45:18.000,325.658,-75.073,28367.512911
1 Jan 2020 11:45:48.000,326.426,-75.066,28534.670854
1 Jan 2020 11:45:59.602,326.722,-75.066,28599.318496
1 Jan 2020 13:03:47.358,186.321,-75.076,28605.534319
1 Jan 2020 13:04:17.000,187.339,-75.078,28464.317505
1 Jan 2020 13:04:47.000,188.378,-75.086,28321.977963
1 Jan 2020 13:05:17.000,189.428,-75.100,28180.310798
1 Jan 2020 13:05:47.000,190.490,-75.118,28039.402636
1 Jan 2020 13:06:17.000,191.564,-75.143,27899.340943
1 Jan 2020 13:06:47.000,192.650,-75.172,27760.213985
1 Jan 2020 13:07:17.000,193.751,-75.207,27622.110784
1 Jan 2020 13:07:47.000,194.866,-75.248,27485.121070
1 Jan 2020 13:08:17.000,195.996,-75.293,27349.335231
1 Jan 2020 13:08:47.000,197.142,-75.344,27214.844253
1 Jan 2020 13:09:17.000,198.306,-75.401,27081.739664
1 Jan 2020 13:09:47.000,199.488,-75.462,26950.113465
1 Jan 2020 13:10:17.000,200.689,-75.528,26820.058060
1 Jan 2020 13:10:47.000,201.909,-75.599,26691.666183
1 Jan 2020 13:11:17.000,203.151,-75.675,26565.030814
1 Jan 2020 13:11:47.000,204.415,-75.756,26440.245093
1 Jan 2020 13:12:17.000,205.703,-75.841,26317.402232
1 Jan 2020 13:12:47.000,207.014,-75.931,26196.595415
1 Jan 2020 13:13:17.000,208.351,-76.024,26077.917700
1 Jan 2020 13:13:47.000,209.715,-76.122,25961.461656
1 Jan 2020 13:14:17.000,211.106,-76.223,25847.320258
1 Jan 2020 13:14:47.000,212.527,-76.328,25735.585255
1 Jan 2020 13:15:17.000,213.978,-76.436,25626.348061
1 Jan 2020 13:15:47.000,215.460,-76.547,25519.699368
1 Jan 2020 13:16:17.000,216.975,-76.661,25415.729019
1 Jan 2020 13:16:47.000,218.524,-76.776,25314.525865
1 Jan 2020 13:17:17.000,220.108,-76.894,25216.177625
1 Jan 2020 13:17:47.000,221.729,-77.013,25120.770739
1 Jan 2020 13:18:17.000,223.387,-77.134,25028.390219
1 Jan 2020 13:18:47.000,225.084,-77.255,24939.119320
1 Jan 2020 13:19:17.000,226.821,-77.376,24853.040095
1 Jan 2020 13:19:47.000,228.599,-77.497,24770.232161
1 Jan 2020 13:20:17.000,230.418,-77.618,24690.773262
1 Jan 2020 13:20:47.000,232.279,-77.737,24614.738931
1 Jan 2020 13:21:17.000,234.183,-77.855,24542.202324
1 Jan 2020 13:21:47.000,236.131,-77.970,24473.234063
1 Jan 2020 13:22:17.000,238.121,-78.083,24407.902077
1 Jan 2020 13:22:47.000,240.155,-78.192,24346.271444
1 Jan 2020 13:23:17.000,242.232,-78.297,24288.404117
1 Jan 2020 13:23:47.000,244.352,-78.398,24234.359272
1 Jan 2020 13:24:17.000,246.512,-78.494,24184.192395
1 Jan 2020 13:24:47.000,248.713,-78.584,24137.955667
1 Jan 2020 13:25:17.000,250.952,-78.669,24095.697691
1 Jan 2020 13:25:47.000,253.227,-78.746,24057.463369
1 Jan 2020 13:26:17.000,255.537,-78.817,24023.293778
1 Jan 2020 13:26:47.000,257.877,-78.880,23993.226064
1 Jan 2020 13:27:17.000,260.245,-78.935,23967.293286
1 Jan 2020 13:27:47.000,262.638,-78.982,23945.524532
1 Jan 2020 13:28:17.000,265.052,-79.020,23927.944516
1 Jan 2020 13:28:47.000,267.482,-79.049,23914.573728
1 Jan 2020 13:29:17.000,269.924,-79.069,23905.428320
1 Jan 2020 13:29:47.000,272.374,-79.080,23900.520058
1 Jan 2020 13:30:17.000,274.827,-79.081,23899.856286
1 Jan 2020 13:30:47.000,277.279,-79.073,23903.439909
1 Jan 2020 13:31:17.000,279.724,-79.056,23911.269401
1 Jan 2020 13:31:47.000,282.158,-79.029,23923.338723
1 Jan 2020 13:32:17.000,284.577,-78.994,23939.637461
1 Jan 2020 13:32:47.000,286.977,-78.949,23960.150781
1 Jan 2020 13:33:17.000,289.353,-78.896,23984.859485
1 Jan 2020 13:33:47.000,291.703,-78.835,24013.740069
1 Jan 2020 13:34:17.000,294.021,-78.767,24046.764781
1 Jan 2020 13:34:47.000,296.307,-78.691,24083.901702
1 Jan 2020 13:35:17.000,298.556,-78.608,24125.114933
1 Jan 2020 13:35:47.000,300.768,-78.519,24170.364301
1 Jan 2020 13:36:17.000,302.939,-78.424,24219.606034
1 Jan 2020 13:36:47.000,305.069,-78.323,24272.792509
1 Jan 2020 13:37:17.000,307.157,-78.219,24329.872463
1 Jan 2020 13:37:47.000,309.201,-78.110,24390.791124
1 Jan 2020 13:38:17.000,311.201,-77.997,24455.490348
1 Jan 2020 13:38:47.000,313.158,-77.882,24523.908762
1 Jan 2020 13:39:17.000,315.070,-77.764,24595.981910
1 Jan 2020 13:39:47.000,316.939,-77.644,24671.642577
1 Jan 2020 13:40:17.000,318.765,-77.523,24750.820262
1 Jan 2020 13:40:47.000,320.548,-77.400,24833.442345
1 Jan 2020 13:41:17.000,322.290,-77.278,24919.433576
1 Jan 2020 13:41:47.000,323.991,-77.156,25008.716405
1 Jan 2020 13:42:17.000,325.652,-77.034,25101.211132
1 Jan 2020 13:42:47.000,327.274,-76.913,25196.836074
1 Jan 2020 13:43:17.000,328.859,-76.794,25295.507714
1 Jan 2020 13:43:47.000,330.407,-76.677,25397.140861
1 Jan 2020 13:44:17.000,331.920,-76.562,25501.648800
1 Jan 2020 13:44:47.000,333.400,-76.449,25608.943444
1 Jan 2020 13:45:17.000,334.846,-76.339,25718.935709
1 Jan 2020 13:45:47.000,336.262,-76.233,25831.534735
1 Jan 2020 13:46:17.000,337.647,-76.130,25946.649400
1 Jan 2020 13:46:47.000,339.003,-76.030,26064.187546
1 Jan 2020 13:47:17.000,340.331,-75.935,26184.056329
1 Jan 2020 13:47:47.000,341.633,-75.844,26306.162346
1 Jan 2020 13:48:17.000,342.909,-75.757,26430.411755
1 Jan 2020 13:48:47.000,344.161,-75.675,26556.710386
1 Jan 2020 13:49:17.000,345.390,-75.598,26684.963855
1 Jan 2020 13:49:47.000,346.597,-75.525,26815.077664
1 Jan 2020 13:50:17.000,347.782,-75.458,26946.957298
1 Jan 2020 13:50:47.000,348.948,-75.395,27080.508323
1 Jan 2020 13:51:17.000,350.094,-75.338,27215.636470
1 Jan 2020 13:51:47.000,351.223,-75.286,27352.247718
1 Jan 2020 13:52:17.000,352.334,-75.240,27490.248371
1 Jan 2020 13:52:47.000,353.428,-75.199,27629.545135
1 Jan 2020 13:53:17.000,354.508,-75.164,27770.045179
1 Jan 2020 13:53:47.000,355.572,-75.134,27911.656204
1 Jan 2020 13:54:17.000,356.623,-75.110,28054.286496
1 Jan 2020 13:54:47.000,357.661,-75.091,28197.844986
1 Jan 2020 13:55:17.000,358.686,-75.078,28342.241295
1 Jan 2020 13:55:47.000,359.700,-75.071,28487.385781
1 Jan 2020 13:56:11.730,0.527,-75.069,28607.533302
1 Jan 2020 15:12:55.913,215.554,-75.074,28610.832692
1 Jan 2020 15:13:25.000,216.192,-75.078,28441.573476
1 Jan 2020 15:13:55.000,216.853,-75.090,28266.997446
1 Jan 2020 15:14:25.000,217.517,-75.110,28092.529801
1 Jan 2020 15:14:55.000,218.185,-75.139,27918.285814
1 Jan 2020 15:15:25.000,218.858,-75.176,27744.383124
1 Jan 2020 15:15:55.000,219.537,-75.222,27570.941723
1 Jan 2020 15:16:25.000,220.222,-75.277,27398.083938
1 Jan 2020 15:16:55.000,220.915,-75.340,27225.934405
1 Jan 2020 15:17:25.000,221.616,-75.413,27054.620033
1 Jan 2020 15:17:55.000,222.327,-75.495,26884.269970
1 Jan 2020 15:18:25.000,223.048,-75.587,26715.015545
1 Jan 2020 15:18:55.000,223.780,-75.688,26546.990218
1 Jan 2020 15:19:25.000,224.526,-75.798,26380.329506
1 Jan 2020 15:19:55.000,225.285,-75.918,26215.170907
1 Jan 2020 15:20:25.000,226.061,-76.048,26051.653810
1 Jan 2020 15:20:55.000,226.853,-76.187,25889.919394
1 Jan 2020 15:21:25.000,227.664,-76.336,25730.110511
1 Jan 2020 15:21:55.000,228.497,-76.494,25572.371562
1 Jan 2020 15:22:25.000,229.351,-76.662,25416.848354
1 Jan 2020 15:22:55.000,230.231,-76.840,25263.687943
1 Jan 2020 15:23:25.000,231.138,-77.027,25113.038178
1 Jan 2020 15:23:55.000,232.075,-77.223,24965.048667
1 Jan 2020 15:24:25.000,233.045,-77.429,24819.868835
1 Jan 2020 15:24:55.000,234.051,-77.643,24677.648870
1 Jan 2020 15:25:25.000,235.096,-77.866,24538.539196
1 Jan 2020 15:25:55.000,236.184,-78.098,24402.690217
1 Jan 2020 15:26:25.000,237.320,-78.337,24270.252050
1 Jan 2020 15:26:55.000,238.508,-78.585,24141.374241
1 Jan 2020 15:27:25.000,239.753,-78.839,24016.205459
1 Jan 2020 15:27:55.000,241.062,-79.101,23894.892943
1 Jan 2020 15:28:25.000,242.440,-79.369,23777.583124
1 Jan 2020 15:28:55.000,243.895,-79.642,23664.419834
1 Jan 2020 15:29:25.000,245.434,-79.920,23555.544913
1 Jan 2020 15:29:55.000,247.067,-80.202,23451.097598
1 Jan 2020 15:30:25.000,248.803,-80.487,23351.214136
1 Jan 2020 15:30:55.000,250.652,-80.774,23256.027397
1 Jan 2020 15:31:25.000,252.627,-81.061,23165.666303
1 Jan 2020 15:31:55.000,254.739,-81.348,23080.256127
1 Jan 2020 15:32:25.000,257.003,-81.633,22999.917028
1 Jan 2020 15:32:55.000,259.432,-81.913,22924.764367
1 Jan 2020 15:33:25.000,262.042,-82.188,22854.908131
1 Jan 2020 15:33:55.000,264.847,-82.455,22790.452538
1 Jan 2020 15:34:25.000,267.861,-82.711,22731.495558
1 Jan 2020 15:34:55.000,271.097,-82.954,22678.128964
1 Jan 2020 15:35:25.000,274.566,-83.182,22630.437333
1 Jan 2020 15:35:55.000,278.271,-83.390,22588.498155
1 Jan 2020 15:36:25.000,282.213,-83.577,22552.381413
1 Jan 2020 15:36:55.000,286.381,-83.739,22522.149293
1 Jan 2020 15:37:25.000,290.758,-83.873,22497.855895
1 Jan 2020 15:37:55.000,295.314,-83.977,22479.547157
1 Jan 2020 15:38:25.000,300.007,-84.047,22467.260410
1 Jan 2020 15:38:55.000,304.788,-84.084,22461.024404
1 Jan 2020 15:39:25.000,309.601,-84.085,22460.859124
1 Jan 2020 15:39:55.000,314.386,-84.050,22466.775743
1 Jan 2020 15:40:25.000,319.086,-83.981,22478.776465
1 Jan 2020 15:40:55.000,323.651,-83.879,22496.854655
1 Jan 2020 15:41:25.000,328.038,-83.745,22520.994783
1 Jan 2020 15:41:55.000,332.215,-83.584,22551.172517
1 Jan 2020 15:42:25.000,336.163,-83.396,22587.354820
1 Jan 2020 15:42:55.000,339.871,-83.186,22629.500211
1 Jan 2020 15:43:25.000,343.336,-82.957,22677.558494
1 Jan 2020 15:43:55.000,346.564,-82.711,22731.471615
1 Jan 2020 15:44:25.000,349.563,-82.452,22791.173483
1 Jan 2020 15:44:55.000,352.346,-82.182,22856.590340
1 Jan 2020 15:45:25.000,354.927,-81.903,22927.641055
1 Jan 2020 15:45:55.000,357.320,-81.617,23004.237618
1 Jan 2020 15:46:25.000,359.541,-81.328,23086.284777
1 Jan 2020 15:46:55.000,1.603,-81.035,23173.681421
1 Jan 2020 15:47:25.000,3.521,-80.742,23266.320276
1 Jan 2020 15:47:55.000,5.307,-80.449,23364.088440
1 Jan 2020 15:48:25.000,6.972,-80.158,23466.867777
1 Jan 2020 15:48:55.000,8.529,-79.870,23574.535300
1 Jan 2020 15:49:25.000,9.985,-79.586,23686.963818
1 Jan 2020 15:49:55.000,11.350,-79.307,23804.021329
1 Jan 2020 15:50:25.000,12.633,-79.034,23925.572889
1 Jan 2020 15:50:55.000,13.840,-78.766,24051.480017
1 Jan 2020 15:51:25.000,14.977,-78.506,24181.601312
1 Jan 2020 15:51:55.000,16.052,-78.253,24315.792821
1 Jan 2020 15:52:25.000,17.068,-78.009,24453.908391
1 Jan 2020 15:52:55.000,18.030,-77.773,24595.800013
1 Jan 2020 15:53:25.000,18.943,-77.546,24741.318437
1 Jan 2020 15:53:55.000,19.811,-77.327,24890.312359
1 Jan 2020 15:54:25.000,20.637,-77.119,25042.630402
1 Jan 2020 15:54:55.000,21.424,-76.920,25198.120290
1 Jan 2020 15:55:25.000,22.175,-76.731,25356.629389
1 Jan 2020 15:55:55.000,22.893,-76.552,25518.004965
1 Jan 2020 15:56:25.000,23.580,-76.383,25682.094419
1 Jan 2020 15:56:55.000,24.238,-76.224,25848.745506
1 Jan 2020 15:57:25.000,24.869,-76.076,26017.806547
1 Jan 2020 15:57:55.000,25.475,-75.938,26189.126610
1 Jan 2020 15:58:25.000,26.058,-75.811,26362.555690
1 Jan 2020 15:58:55.000,26.618,-75.694,26537.944871
1 Jan 2020 15:59:25.000,27.158,-75.587,26715.146466
1 Jan 2020 15:59:55.000,27.678,-75.490,26894.014154
1 Jan 2020 16:00:25.000,28.180,-75.404,27074.403098
1 Jan 2020 16:00:55.000,28.665,-75.328,27256.170053
1 Jan 2020 16:01:25.000,29.134,-75.263,27439.173464
1 Jan 2020 16:01:55.000,29.588,-75.207,27623.273898
1 Jan 2020 16:02:25.000,30.027,-75.161,27808.332715
1 Jan 2020 16:02:55.000,30.452,-75.125,27994.214243
1 Jan 2020 16:03:25.000,30.865,-75.099,28180.784428
1 Jan 2020 16:03:55.000,31.265,-75.082,28367.911232
1 Jan 2020 16:04:25.000,31.653,-75.075,28555.464678
1 Jan 2020 16:04:33.886,31.766,-75.074,28611.084079
1 Jan 2020 17:16:49.188,214.263,-75.071,28608.945662
1 Jan 2020 17:17:19.000,214.028,-75.075,28418.587224
1 Jan 2020 17:17:49.000,213.782,-75.090,28227.299373
1 Jan 2020 17:18:19.000,213.526,-75.114,28036.415034
1 Jan 2020 17:18:49.000,213.259,-75.149,27846.068219
1 Jan 2020 17:19:19.000,212.981,-75.194,27656.395240
1 Jan 2020 17:19:49.000,212.691,-75.249,27467.534674
1 Jan 2020 17:20:19.000,212.388,-75.315,27279.627321
1 Jan 2020 17:20:49.000,212.071,-75.392,27092.816148
1 Jan 2020 17:21:19.000,211.741,-75.479,26907.246231
1 Jan 2020 17:21:49.000,211.396,-75.578,26723.064678
1 Jan 2020 17:22:19.000,211.036,-75.687,26540.420554
1 Jan 2020 17:22:49.000,210.658,-75.808,26359.464778
1 Jan 2020 17:23:19.000,210.263,-75.940,26180.350019
1 Jan 2020 17:23:49.000,209.849,-76.083,26003.230575
1 Jan 2020 17:24:19.000,209.415,-76.238,25828.262237
1 Jan 2020 17:24:49.000,208.959,-76.404,25655.602137
1 Jan 2020 17:25:19.000,208.480,-76.582,25485.408586
1 Jan 2020 17:25:49.000,207.976,-76.770,25317.840563
1 Jan 2020 17:26:19.000,207.445,-76.970,25153.058818
1 Jan 2020 17:26:49.000,206.884,-77.182,24991.223697
1 Jan 2020 17:27:19.000,206.292,-77.404,24832.496218
1 Jan 2020 17:27:49.000,205.666,-77.638,24677.037486
1 Jan 2020 17:28:19.000,205.002,-77.882,24525.008423
1 Jan 2020 17:28:49.000,204.298,-78.137,24376.569476
1 Jan 2020 17:29:19.000,203.549,-78.403,24231.880313
1 Jan 2020 17:29:49.000,202.751,-78.678,24091.099220
1 Jan 2020 17:30:19.000,201.898,-78.964,23954.383842
1 Jan 2020 17:30:49.000,200.986,-79.258,23821.889191
1 Jan 2020 17:31:19.000,200.008,-79.562,23693.768358
1 Jan 2020 17:31:49.000,198.956,-79.873,23570.171850
1 Jan 2020 17:32:19.000,197.822,-80.193,23451.247187
1 Jan 2020 17:32:49.000,196.596,-80.519,23337.138478
1 Jan 2020 17:33:19.000,195.266,-80.852,23227.985770
1 Jan 2020 17:33:49.000,193.821,-81.190,23123.925560
1 Jan 2020 17:34:19.000,192.243,-81.532,23025.088918
1 Jan 2020 17:34:49.000,190.517,-81.877,22931.602020
1 Jan 2020 17:35:19.000,188.622,-82.223,22843.585468
1 Jan 2020 17:35:49.000,186.534,-82.569,22761.153853
1 Jan 2020 17:36:19.000,184.227,-82.913,22684.415172
1 Jan 2020 17:36:49.000,181.670,-83.252,22613.471083
1 Jan 2020 17:37:19.000,178.828,-83.584,22548.415485
1 Jan 2020 17:37:49.000,175.666,-83.907,22489.334832
1 Jan 2020 17:38:19.000,172.143,-84.215,22436.307602
1 Jan 2020 17:38:49.000,168.220,-84.506,22389.403877
1 Jan 2020 17:39:19.000,163.863,-84.774,22348.685418
1 Jan 2020 17:39:49.000,159.048,-85.014,22314.204811
1 Jan 2020 17:40:19.000,153.769,-85.221,22286.005639
1 Jan 2020 17:40:49.000,148.050,-85.389,22264.122179
1 Jan 2020 17:41:19.000,141.950,-85.513,22248.579214
1 Jan 2020 17:41:49.000,135.568,-85.588,22239.392069
1 Jan 2020 17:42:19.000,129.041,-85.612,22236.566298
1 Jan 2020 17:42:49.000,122.523,-85.583,22240.097832
1 Jan 2020 17:43:19.000,116.166,-85.503,22249.972945
1 Jan 2020 17:43:49.000,110.102,-85.374,22266.168354
1 Jan 2020 17:44:19.000,104.425,-85.203,22288.651210
1 Jan 2020 17:44:49.000,99.188,-84.993,22317.379394
1 Jan 2020 17:45:19.000,94.411,-84.751,22352.301614
1 Jan 2020 17:45:49.000,90.085,-84.482,22393.357661
1 Jan 2020 17:46:19.000,86.183,-84.192,22440.478751
1 Jan 2020 17:46:49.000,82.672,-83.885,22493.587490
1 Jan 2020 17:47:19.000,79.510,-83.565,22552.598689
1 Jan 2020 17:47:49.000,76.659,-83.235,22617.419403
1 Jan 2020 17:48:19.000,74.082,-82.899,22687.949389
1 Jan 2020 17:48:49.000,71.745,-82.559,22764.081502
1 Jan 2020 17:49:19.000,69.618,-82.217,22845.702277
1 Jan 2020 17:49:49.000,67.676,-81.875,22932.691709
1 Jan 2020 17:50:19.000,65.894,-81.535,23024.924648
1 Jan 2020 17:50:49.000,64.254,-81.198,23122.270615
1 Jan 2020 17:51:19.000,62.738,-80.865,23224.594403
1 Jan 2020 17:51:49.000,61.331,-80.538,23331.756523
1 Jan 2020 17:52:19.000,60.020,-80.217,23443.613648
1 Jan 2020 17:52:49.000,58.795,-79.903,23560.019279
1 Jan 2020 17:53:19.000,57.645,-79.596,23680.823247
1 Jan 2020 17:53:49.000,56.562,-79.298,23805.873509
1 Jan 2020 17:54:19.000,55.539,-79.008,23935.015638
1 Jan 2020 17:54:49.000,54.569,-78.728,24068.093442
1 Jan 2020 17:55:19.000,53.648,-78.457,24204.949331
1 Jan 2020 17:55:49.000,52.769,-78.196,24345.424681
1 Jan 2020 17:56:19.000,51.928,-77.945,24489.360163
1 Jan 2020 17:56:49.000,51.122,-77.704,24636.596072
1 Jan 2020 17:57:19.000,50.348,-77.474,24786.972906
1 Jan 2020 17:57:49.000,49.601,-77.255,24940.330520
1 Jan 2020 17:58:19.000,48.880,-77.046,25096.510075
1 Jan 2020 17:58:49.000,48.181,-76.848,25255.353163
1 Jan 2020 17:59:19.000,47.503,-76.661,25416.702312
1 Jan 2020 17:59:49.000,46.844,-76.484,25580.401190
1 Jan 2020 18:00:19.000,46.201,-76.319,25746.294799
1 Jan 2020 18:00:49.000,45.573,-76.164,25914.229643
1 Jan 2020 18:01:19.000,44.960,-76.020,26084.053884
1 Jan 2020 18:01:49.000,44.358,-75.887,26255.617484
1 Jan 2020 18:02:19.000,43.767,-75.764,26428.772329
1 Jan 2020 18:02:49.000,43.186,-75.652,26603.372340
1 Jan 2020 18:03:19.000,42.613,-75.550,26779.273570
1 Jan 2020 18:03:49.000,42.048,-75.459,26956.334287
1 Jan 2020 18:04:19.000,41.490,-75.378,27134.415053
1 Jan 2020 18:04:49.000,40.938,-75.307,27313.378779
1 Jan 2020 18:05:19.000,40.391,-75.245,27493.090784
1 Jan 2020 18:05:49.000,39.848,-75.194,27673.418831
1 Jan 2020 18:06:19.000,39.308,-75.152,27854.233167
1 Jan 2020 18:06:49.000,38.771,-75.119,28035.406546
1 Jan 2020 18:07:19.000,38.237,-75.095,28216.814249
1 Jan 2020 18:07:49.000,37.704,-75.081,28398.334098
1 Jan 2020 18:08:19.000,37.172,-75.075,28579.846459
1 Jan 2020 18:08:23.513,37.092,-75.075,28607.144492
1 Jan 2020 19:24:01.555,187.348,-75.066,28601.249108
1 Jan 2020 19:24:31.000,186.411,-75.069,28452.989645
1 Jan 2020 19:25:01.000,185.444,-75.078,28302.657364
1 Jan 2020 19:25:31.000,184.464,-75.093,28153.145955
1 Jan 2020 19:26:01.000,183.471,-75.114,28004.551198
1 Jan 2020 19:26:31.000,182.464,-75.141,27856.969611
1 Jan 2020 19:27:01.000,181.442,-75.174,27710.498385
1 Jan 2020 19:27:31.000,180.403,-75.213,27565.235335
1 Jan 2020 19:28:01.000,179.348,-75.258,27421.278829
1 Jan 2020 19:28:31.000,178.275,-75.309,27278.727725
1 Jan 2020 19:29:01.000,177.183,-75.365,27137.681292
1 Jan 2020 19:29:31.000,176.071,-75.428,26998.239136
1 Jan 2020 19:30:01.000,174.939,-75.496,26860.501113
1 Jan 2020 19:30:31.000,173.785,-75.569,26724.567239
1 Jan 2020 19:31:01.000,172.608,-75.648,26590.537597
1 Jan 2020 19:31:31.000,171.407,-75.732,26458.512231
1 Jan 2020 19:32:01.000,170.181,-75.821,26328.591044
1 Jan 2020 19:32:31.000,168.928,-75.916,26200.873683
1 Jan 2020 19:33:01.000,167.648,-76.014,26075.459157
1 Jan 2020 19:33:31.000,166.338,-76.118,25952.446764
1 Jan 2020 19:34:01.000,164.999,-76.225,25831.934384
1 Jan 2020 19:34:31.000,163.628,-76.337,25714.019392
1 Jan 2020 19:35:01.000,162.224,-76.452,25598.798261
1 Jan 2020 19:35:31.000,160.786,-76.570,25486.366410
1 Jan 2020 19:36:01.000,159.312,-76.692,25376.818058
1 Jan 2020 19:36:31.000,157.800,-76.816,25270.246064
1 Jan 2020 19:37:01.000,156.251,-76.942,25166.741769
1 Jan 2020 19:37:31.000,154.661,-77.070,25066.394836
1 Jan 2020 19:38:01.000,153.030,-77.200,24969.292875
1 Jan 2020 19:38:31.000,151.357,-77.331,24875.522106
1 Jan 2020 19:39:01.000,149.640,-77.462,24785.165932
1 Jan 2020 19:39:31.000,147.878,-77.593,24698.305612
1 Jan 2020 19:40:01.000,146.070,-77.723,24615.019875
1 Jan 2020 19:40:31.000,144.215,-77.852,24535.384751
1 Jan 2020 19:41:01.000,142.313,-77.980,24459.473396
1 Jan 2020 19:41:31.000,140.363,-78.105,24387.355926
1 Jan 2020 19:42:01.000,138.364,-78.227,24319.099108
1 Jan 2020 19:42:31.000,136.317,-78.346,24254.766775
1 Jan 2020 19:43:01.000,134.222,-78.460,24194.418789
1 Jan 2020 19:43:31.000,132.079,-78.570,24138.111485
1 Jan 2020 19:44:01.000,129.890,-78.675,24085.897374
1 Jan 2020 19:44:31.000,127.656,-78.773,24037.825003
1 Jan 2020 19:45:01.000,125.379,-78.865,23993.938830
1 Jan 2020 19:45:31.000,123.060,-78.949,23954.279099
1 Jan 2020 19:46:01.000,120.704,-79.026,23918.881648
1 Jan 2020 19:46:31.000,118.312,-79.095,23887.778155
1 Jan 2020 19:47:01.000,115.888,-79.154,23860.995518
1 Jan 2020 19:47:31.000,113.437,-79.205,23838.556144
1 Jan 2020 19:48:01.000,110.963,-79.247,23820.477792
1 Jan 2020 19:48:31.000,108.470,-79.278,23806.773522
1 Jan 2020 19:49:01.000,105.963,-79.300,23797.451665
1 Jan 2020 19:49:31.000,103.448,-79.312,23792.515780
1 Jan 2020 19:50:01.000,100.930,-79.313,23791.964715
1 Jan 2020 19:50:31.000,98.414,-79.304,23795.792503
1 Jan 2020 19:51:01.000,95.905,-79.285,23803.988464
1 Jan 2020 19:51:31.000,93.409,-79.257,23816.537220
1 Jan 2020 19:52:01.000,90.929,-79.218,23833.418738
1 Jan 2020 19:52:31.000,88.472,-79.170,23854.608397
1 Jan 2020 19:53:01.000,86.042,-79.113,23880.077112
1 Jan 2020 19:53:31.000,83.641,-79.048,23909.791230
1 Jan 2020 19:54:01.000,81.275,-78.974,23943.712905
1 Jan 2020 19:54:31.000,78.945,-78.893,23981.800030
1 Jan 2020 19:55:01.000,76.655,-78.804,24024.006407
1 Jan 2020 19:55:31.000,74.406,-78.709,24070.281872
1 Jan 2020 19:56:01.000,72.201,-78.608,24120.572440
1 Jan 2020 19:56:31.000,70.041,-78.501,24174.820448
1 Jan 2020 19:57:01.000,67.927,-78.390,24232.964833
1 Jan 2020 19:57:31.000,65.859,-78.275,24294.940817
1 Jan 2020 19:58:01.000,63.838,-78.156,24360.680775
1 Jan 2020 19:58:31.000,61.863,-78.034,24430.113942
1 Jan 2020 19:59:01.000,59.935,-77.910,24503.166703
1 Jan 2020 19:59:31.000,58.052,-77.784,24579.762767
1 Jan 2020 20:00:01.000,56.214,-77.657,24659.823344
1 Jan 2020 20:00:31.000,54.420,-77.529,24743.267319
1 Jan 2020 20:01:01.000,52.670,-77.401,24830.011435
1 Jan 2020 20:01:31.000,50.961,-77.273,24919.970462
1 Jan 2020 20:02:01.000,49.292,-77.146,25013.057579
1 Jan 2020 20:02:31.000,47.663,-77.020,25109.183742
1 Jan 2020 20:03:01.000,46.073,-76.896,25208.259041
1 Jan 2020 20:03:31.000,44.518,-76.774,25310.192082
1 Jan 2020 20:04:01.000,42.999,-76.654,25414.890340
1 Jan 2020 20:04:31.000,41.514,-76.537,25522.260316
1 Jan 2020 20:05:01.000,40.060,-76.423,25632.207688
1 Jan 2020 20:05:31.000,38.638,-76.313,25744.637458
1 Jan 2020 20:06:01.000,37.246,-76.206,25859.454087
1 Jan 2020 20:06:31.000,35.882,-76.103,25976.561637
1 Jan 2020 20:07:01.000,34.545,-76.004,26095.863894
1 Jan 2020 20:07:31.000,33.234,-75.909,26217.264493
1 Jan 2020 20:08:01.000,31.947,-75.819,26340.667034
1 Jan 2020 20:08:31.000,30.683,-75.733,26465.975191
1 Jan 2020 20:09:01.000,29.442,-75.653,26593.092816
1 Jan 2020 20:09:31.000,28.222,-75.577,26721.924303
1 Jan 2020 20:10:01.000,27.021,-75.506,26852.373627
1 Jan 2020 20:10:31.000,25.840,-75.441,26984.346001
1 Jan 2020 20:11:01.000,24.676,-75.380,27117.746911
1 Jan 2020 20:11:31.000,23.529,-75.325,27252.482456
1 Jan 2020 20:12:01.000,22.398,-75.276,27388.459407
1 Jan 2020 20:12:31.000,21.282,-75.231,27525.585283
1 Jan 2020 20:13:01.000,20.180,-75.192,27663.768398
1 Jan 2020 20:13:31.000,19.091,-75.159,27802.917921
1 Jan 2020 20:14:01.000,18.015,-75.131,27942.943924
1 Jan 2020 20:14:31.000,16.950,-75.109,28083.757423
1 Jan 2020 20:15:01.000,15.896,-75.092,28225.270423
1 Jan 2020 20:15:31.000,14.853,-75.080,28367.395949
1 Jan 2020 20:16:01.000,13.818,-75.074,28510.048079
1 Jan 2020 20:16:19.659,13.180,-75.073,28599.001342
1 Jan 2020 21:34:59.853,149.964,-75.065,28594.211911
1 Jan 2020 21:35:29.000,149.126,-75.069,28439.294733
1 Jan 2020 21:35:59.000,148.258,-75.079,28279.962095
1 Jan 2020 21:36:29.000,147.384,-75.096,28120.847029
1 Jan 2020 21:36:59.000,146.502,-75.120,27962.051047
1 Jan 2020 21:37:29.000,145.613,-75.151,27803.677572
1 Jan 2020 21:37:59.000,144.715,-75.189,27645.831924
1 Jan 2020 21:38:29.000,143.807,-75.234,27488.621291
1 Jan 2020 21:38:59.000,142.888,-75.287,27332.154702
1 Jan 2020 21:39:29.000,141.957,-75.347,27176.542989
1 Jan 2020 21:39:59.000,141.014,-75.414,27021.898745
1 Jan 2020 21:40:29.000,140.057,-75.489,26868.336273
1 Jan 2020 21:40:59.000,139.084,-75.571,26715.971533
1 Jan 2020 21:41:29.000,138.095,-75.661,26564.922074
1 Jan 2020 21:41:59.000,137.089,-75.758,26415.306961
1 Jan 2020 21:42:29.000,136.063,-75.862,26267.246694
1 Jan 2020 21:42:59.000,135.016,-75.974,26120.863117
1 Jan 2020 21:43:29.000,133.947,-76.093,25976.279318
1 Jan 2020 21:43:59.000,132.854,-76.219,25833.619517
1 Jan 2020 21:44:29.000,131.735,-76.353,25693.008944
1 Jan 2020 21:44:59.000,130.589,-76.493,25554.573710
1 Jan 2020 21:45:29.000,129.412,-76.640,25418.440406
1 Jan 2020 21:45:59.000,128.204,-76.793,25284.736970
1 Jan 2020 21:46:29.000,126.960,-76.953,25153.590985
1 Jan 2020 21:46:59.000,125.680,-77.119,25025.130527
1 Jan 2020 21:47:29.000,124.361,-77.290,24899.483718
1 Jan 2020 21:47:59.000,122.998,-77.467,24776.778523
1 Jan 2020 21:48:29.000,121.591,-77.649,24657.142538
1 Jan 2020 21:48:59.000,120.134,-77.836,24540.702761
1 Jan 2020 21:49:29.000,118.626,-78.027,24427.585357
1 Jan 2020 21:49:59.000,117.062,-78.221,24317.915412
1 Jan 2020 21:50:29.000,115.439,-78.418,24211.816459
1 Jan 2020 21:50:59.000,113.752,-78.618,24109.411068
1 Jan 2020 21:51:29.000,111.999,-78.819,24010.819273
1 Jan 2020 21:51:59.000,110.174,-79.021,23916.159162
1 Jan 2020 21:52:29.000,108.274,-79.224,23825.546361
1 Jan 2020 21:52:59.000,106.294,-79.425,23739.093740
1 Jan 2020 21:53:29.000,104.231,-79.625,23656.911114
1 Jan 2020 21:53:59.000,102.080,-79.821,23579.104801
1 Jan 2020 21:54:29.000,99.838,-80.014,23505.777866
1 Jan 2020 21:54:59.000,97.502,-80.202,23437.028986
1 Jan 2020 21:55:29.000,95.069,-80.383,23372.952712
1 Jan 2020 21:55:59.000,92.537,-80.557,23313.639029
1 Jan 2020 21:56:29.000,89.907,-80.722,23259.173066
1 Jan 2020 21:56:59.000,87.177,-80.876,23209.634815
1 Jan 2020 21:57:29.000,84.351,-81.019,23165.098786
1 Jan 2020 21:57:59.000,81.432,-81.149,23125.634068
1 Jan 2020 21:58:29.000,78.425,-81.264,23091.303586
1 Jan 2020 21:58:59.000,75.338,-81.364,23062.164224
1 Jan 2020 21:59:29.000,72.180,-81.448,23038.266522
1 Jan 2020 21:59:59.000,68.963,-81.514,23019.654494
1 Jan 2020 22:00:29.000,65.699,-81.561,23006.365457
1 Jan 2020 22:00:59.000,62.403,-81.590,22998.429920
1 Jan 2020 22:01:29.000,59.092,-81.599,22995.871402
1 Jan 2020 22:01:59.000,55.780,-81.589,22998.706394
1 Jan 2020 22:02:29.000,52.485,-81.559,23006.944281
1 Jan 2020 22:02:59.000,49.222,-81.510,23020.587299
1 Jan 2020 22:03:29.000,46.005,-81.443,23039.630587
1 Jan 2020 22:03:59.000,42.850,-81.358,23064.061977
1 Jan 2020 22:04:29.000,39.766,-81.256,23093.862356
1 Jan 2020 22:04:59.000,36.765,-81.138,23129.005538
1 Jan 2020 22:05:29.000,33.854,-81.005,23169.458404
1 Jan 2020 22:05:59.000,31.039,-80.859,23215.181024
1 Jan 2020 22:06:29.000,28.324,-80.701,23266.126920
1 Jan 2020 22:06:59.000,25.712,-80.532,23322.242767
1 Jan 2020 22:07:29.000,23.203,-80.354,23383.469266
1 Jan 2020 22:07:59.000,20.797,-80.167,23449.740904
1 Jan 2020 22:08:29.000,18.492,-79.974,23520.986286
1 Jan 2020 22:08:59.000,16.287,-79.776,23597.128379
1 Jan 2020 22:09:29.000,14.178,-79.573,23678.084759
1 Jan 2020 22:09:59.000,12.161,-79.368,23763.768081
1 Jan 2020 22:10:29.000,10.233,-79.160,23854.085562
1 Jan 2020 22:10:59.000,8.390,-78.951,23948.940432
1 Jan 2020 22:11:29.000,6.628,-78.743,24048.231451
1 Jan 2020 22:11:59.000,4.942,-78.535,24151.853390
1 Jan 2020 22:12:29.000,3.328,-78.329,24259.697323
1 Jan 2020 22:12:59.000,1.783,-78.125,24371.650924
1 Jan 2020 22:13:29.000,0.303,-77.925,24487.598752
1 Jan 2020 22:13:59.000,358.884,-77.729,24607.422796
1 Jan 2020 22:14:29.000,357.521,-77.537,24731.001747
1 Jan 2020 22:14:59.000,356.213,-77.350,24858.212784
1 Jan 2020 22:15:29.000,354.956,-77.168,24988.930845
1 Jan 2020 22:15:59.000,353.746,-76.993,25123.029138
1 Jan 2020 22:16:29.000,352.581,-76.823,25260.379397
1 Jan 2020 22:16:59.000,351.458,-76.661,25400.852124
