STKdata/Satellite-MEO_Satellite10105-To-Satellite-LEO_Satellite20000 AER.csv

"Time (UTCG)","Azimuth (deg)","Elevation (deg)","Range (km)"
1 Jan 2020 00:00:00.000,244.062,-75.435,26998.448880
1 Jan 2020 00:00:30.000,244.767,-75.347,27200.948468
1 Jan 2020 00:01:00.000,245.464,-75.271,27404.459896
1 Jan 2020 00:01:30.000,246.155,-75.208,27608.771404
1 Jan 2020 00:02:00.000,246.840,-75.157,27813.675695
1 Jan 2020 00:02:30.000,247.522,-75.119,28018.970004
1 Jan 2020 00:03:00.000,248.201,-75.092,28224.456158
1 Jan 2020 00:03:30.000,248.879,-75.077,28429.940607
1 Jan 2020 00:03:54.843,249.440,-75.073,28599.964100
1 Jan 2020 01:08:42.158,89.648,-75.064,28595.161206
1 Jan 2020 01:09:12.000,91.067,-75.066,28469.228428
1 Jan 2020 01:09:42.000,92.515,-75.072,28345.209886
1 Jan 2020 01:10:12.000,93.983,-75.082,28223.916154
1 Jan 2020 01:10:42.000,95.474,-75.096,28105.483463
1 Jan 2020 01:11:12.000,96.986,-75.113,27990.045471
1 Jan 2020 01:11:42.000,98.521,-75.134,27877.732986
1 Jan 2020 01:12:12.000,100.079,-75.157,27768.673677
1 Jan 2020 01:12:42.000,101.661,-75.183,27662.991790
1 Jan 2020 01:13:12.000,103.265,-75.211,27560.807858
1 Jan 2020 01:13:42.000,104.894,-75.241,27462.238233
1 Jan 2020 01:14:12.000,106.546,-75.273,27367.395511
1 Jan 2020 01:14:42.000,108.222,-75.306,27276.387169
1 Jan 2020 01:15:12.000,109.922,-75.340,27189.316001
1 Jan 2020 01:15:42.000,111.645,-75.375,27106.279665
1 Jan 2020 01:16:12.000,113.392,-75.411,27027.370408
1 Jan 2020 01:16:42.000,115.160,-75.446,26952.674807
1 Jan 2020 01:17:12.000,116.951,-75.481,26882.273518
1 Jan 2020 01:17:42.000,118.764,-75.515,26816.240889
1 Jan 2020 01:18:12.000,120.597,-75.549,26754.645336
1 Jan 2020 01:18:42.000,122.449,-75.581,26697.548225
1 Jan 2020 01:19:12.000,124.320,-75.612,26645.004293
1 Jan 2020 01:19:42.000,126.209,-75.641,26597.061319
1 Jan 2020 01:20:12.000,128.114,-75.667,26553.759977
1 Jan 2020 01:20:42.000,130.034,-75.692,26515.133698
1 Jan 2020 01:21:12.000,131.967,-75.714,26481.208475
1 Jan 2020 01:21:42.000,133.912,-75.733,26452.003149
1 Jan 2020 01:22:12.000,135.868,-75.750,26427.528776
1 Jan 2020 01:22:42.000,137.832,-75.763,26407.788982
1 Jan 2020 01:23:12.000,139.803,-75.773,26392.779851
1 Jan 2020 01:23:42.000,141.779,-75.781,26382.489943
1 Jan 2020 01:24:12.000,143.758,-75.785,26376.900328
1 Jan 2020 01:24:42.000,145.739,-75.785,26375.984619
1 Jan 2020 01:25:12.000,147.720,-75.783,26379.709222
1 Jan 2020 01:25:42.000,149.699,-75.777,26388.033195
1 Jan 2020 01:26:12.000,151.675,-75.769,26400.908563
1 Jan 2020 01:26:42.000,153.645,-75.757,26418.280436
1 Jan 2020 01:27:12.000,155.609,-75.742,26440.087183
1 Jan 2020 01:27:42.000,157.565,-75.725,26466.260640
1 Jan 2020 01:28:12.000,159.511,-75.706,26496.726338
1 Jan 2020 01:28:42.000,161.446,-75.683,26531.403701
1 Jan 2020 01:29:12.000,163.370,-75.659,26570.206347
1 Jan 2020 01:29:42.000,165.281,-75.633,26613.042330
1 Jan 2020 01:30:12.000,167.177,-75.606,26659.814418
1 Jan 2020 01:30:42.000,169.060,-75.577,26710.420386
1 Jan 2020 01:31:12.000,170.926,-75.546,26764.753306
1 Jan 2020 01:31:42.000,172.777,-75.515,26822.701856
1 Jan 2020 01:32:12.000,174.612,-75.483,26884.150682
1 Jan 2020 01:32:42.000,176.430,-75.451,26948.980478
1 Jan 2020 01:33:12.000,178.231,-75.419,27017.068638
1 Jan 2020 01:33:42.000,180.015,-75.387,27088.289350
1 Jan 2020 01:34:12.000,181.781,-75.356,27162.513955
1 Jan 2020 01:34:42.000,183.531,-75.325,27239.611257
1 Jan 2020 01:35:12.000,185.264,-75.295,27319.447830
1 Jan 2020 01:35:42.000,186.980,-75.266,27401.888311
1 Jan 2020 01:36:12.000,188.680,-75.238,27486.795695
1 Jan 2020 01:36:42.000,190.364,-75.212,27574.031620
1 Jan 2020 01:37:12.000,192.032,-75.188,27663.456644
1 Jan 2020 01:37:42.000,193.686,-75.166,27754.930512
1 Jan 2020 01:38:12.000,195.324,-75.145,27848.312527
1 Jan 2020 01:38:42.000,196.949,-75.127,27943.461354
1 Jan 2020 01:39:12.000,198.560,-75.111,28040.235925
1 Jan 2020 01:39:42.000,200.159,-75.098,28138.495223
1 Jan 2020 01:40:12.000,201.746,-75.087,28238.098615
1 Jan 2020 01:40:42.000,203.321,-75.079,28338.906054
1 Jan 2020 01:41:12.000,204.885,-75.073,28440.778278
1 Jan 2020 01:41:42.000,206.440,-75.071,28543.576996
1 Jan 2020 01:41:56.845,207.205,-75.070,28594.744486
1 Jan 2020 04:03:58.606,308.447,-75.067,28594.158308
1 Jan 2020 04:04:28.000,309.727,-75.070,28449.492078
1 Jan 2020 04:04:58.000,311.042,-75.079,28302.015747
1 Jan 2020 04:05:28.000,312.367,-75.093,28154.871811
1 Jan 2020 04:05:58.000,313.704,-75.113,28008.221460
1 Jan 2020 04:06:28.000,315.053,-75.139,27862.228749
1 Jan 2020 04:06:58.000,316.415,-75.171,27717.060484
1 Jan 2020 04:07:28.000,317.794,-75.209,27572.886078
1 Jan 2020 04:07:58.000,319.189,-75.253,27429.877403
1 Jan 2020 04:08:28.000,320.603,-75.303,27288.208619
1 Jan 2020 04:08:58.000,322.036,-75.358,27148.055988
1 Jan 2020 04:09:28.000,323.491,-75.419,27009.597669
1 Jan 2020 04:09:58.000,324.970,-75.486,26873.013499
1 Jan 2020 04:10:28.000,326.473,-75.558,26738.484748
1 Jan 2020 04:10:58.000,328.002,-75.634,26606.193858
1 Jan 2020 04:11:28.000,329.560,-75.716,26476.324163
1 Jan 2020 04:11:58.000,331.148,-75.802,26349.059584
1 Jan 2020 04:12:28.000,332.767,-75.892,26224.584307
1 Jan 2020 04:12:58.000,334.420,-75.986,26103.082280
1 Jan 2020 04:13:28.000,336.107,-76.083,25984.737495
1 Jan 2020 04:13:58.000,337.831,-76.184,25869.732624
1 Jan 2020 04:14:28.000,339.594,-76.287,25758.249274
1 Jan 2020 04:14:58.000,341.395,-76.391,25650.467398
1 Jan 2020 04:15:28.000,343.238,-76.498,25546.564854
1 Jan 2020 04:15:58.000,345.123,-76.605,25446.716952
1 Jan 2020 04:16:28.000,347.051,-76.712,25351.095978
1 Jan 2020 04:16:58.000,349.023,-76.818,25259.870602
1 Jan 2020 04:17:28.000,351.040,-76.924,25173.205849
1 Jan 2020 04:17:58.000,353.102,-77.027,25091.261883
1 Jan 2020 04:18:28.000,355.209,-77.128,25014.193987
1 Jan 2020 04:18:58.000,357.360,-77.226,24942.151934
1 Jan 2020 04:19:28.000,359.555,-77.319,24875.279475
1 Jan 2020 04:19:58.000,1.793,-77.407,24813.713786
1 Jan 2020 04:20:28.000,4.072,-77.490,24757.585217
1 Jan 2020 04:20:58.000,6.390,-77.566,24707.016428
1 Jan 2020 04:21:28.000,8.744,-77.635,24662.122194
1 Jan 2020 04:21:58.000,11.131,-77.697,24623.008889
1 Jan 2020 04:22:28.000,13.547,-77.750,24589.774070
1 Jan 2020 04:22:58.000,15.989,-77.794,24562.506080
1 Jan 2020 04:23:28.000,18.451,-77.828,24541.283713
1 Jan 2020 04:23:58.000,20.929,-77.853,24526.175836
1 Jan 2020 04:24:28.000,23.417,-77.868,24517.241147
1 Jan 2020 04:24:58.000,25.910,-77.872,24514.527915
1 Jan 2020 04:25:28.000,28.402,-77.866,24518.073826
1 Jan 2020 04:25:58.000,30.889,-77.850,24527.905644
1 Jan 2020 04:26:28.000,33.363,-77.823,24544.039353
1 Jan 2020 04:26:58.000,35.819,-77.787,24566.479937
1 Jan 2020 04:27:28.000,38.252,-77.740,24595.221397
1 Jan 2020 04:27:58.000,40.658,-77.684,24630.246886
1 Jan 2020 04:28:28.000,43.031,-77.620,24671.528413
1 Jan 2020 04:28:58.000,45.368,-77.547,24719.027515
1 Jan 2020 04:29:28.000,47.664,-77.466,24772.695078
1 Jan 2020 04:29:58.000,49.917,-77.379,24832.471637
1 Jan 2020 04:30:28.000,52.123,-77.285,24898.287635
1 Jan 2020 04:30:58.000,54.280,-77.186,24970.063890
1 Jan 2020 04:31:28.000,56.388,-77.082,25047.711232
1 Jan 2020 04:31:58.000,58.444,-76.975,25131.131890
1 Jan 2020 04:32:28.000,60.447,-76.864,25220.219207
1 Jan 2020 04:32:58.000,62.398,-76.752,25314.858219
1 Jan 2020 04:33:28.000,64.295,-76.638,25414.926088
1 Jan 2020 04:33:58.000,66.141,-76.523,25520.292766
1 Jan 2020 04:34:28.000,67.934,-76.409,25630.820620
1 Jan 2020 04:34:58.000,69.675,-76.295,25746.366146
1 Jan 2020 04:35:28.000,71.366,-76.184,25866.779630
1 Jan 2020 04:35:58.000,73.009,-76.075,25991.905832
1 Jan 2020 04:36:28.000,74.603,-75.969,26121.584462
1 Jan 2020 04:36:58.000,76.150,-75.866,26255.650662
1 Jan 2020 04:37:28.000,77.653,-75.768,26393.935719
1 Jan 2020 04:37:58.000,79.112,-75.674,26536.266542
1 Jan 2020 04:38:28.000,80.529,-75.586,26682.467579
1 Jan 2020 04:38:58.000,81.906,-75.504,26832.360286
1 Jan 2020 04:39:28.000,83.244,-75.427,26985.763781
1 Jan 2020 04:39:58.000,84.546,-75.357,27142.495261
1 Jan 2020 04:40:28.000,85.811,-75.294,27302.370380
1 Jan 2020 04:40:58.000,87.043,-75.238,27465.203629
1 Jan 2020 04:41:28.000,88.243,-75.190,27630.808682
1 Jan 2020 04:41:58.000,89.412,-75.149,27798.998734
1 Jan 2020 04:42:28.000,90.551,-75.115,27969.586810
1 Jan 2020 04:42:58.000,91.663,-75.090,28142.386064
1 Jan 2020 04:43:28.000,92.749,-75.073,28317.210361
1 Jan 2020 04:43:58.000,93.809,-75.064,28493.873310
1 Jan 2020 04:44:15.064,94.402,-75.063,28595.110138
1 Jan 2020 05:47:40.095,284.459,-75.072,28599.734168
1 Jan 2020 05:48:10.000,284.637,-75.078,28378.837408
1 Jan 2020 05:48:40.000,284.808,-75.098,28157.269797
1 Jan 2020 05:49:10.000,284.969,-75.131,27935.932780
1 Jan 2020 05:49:40.000,285.123,-75.178,27715.033645
1 Jan 2020 05:50:10.000,285.267,-75.239,27494.784428
1 Jan 2020 05:50:40.000,285.404,-75.315,27275.401870
1 Jan 2020 05:51:10.000,285.532,-75.405,27057.107356
1 Jan 2020 05:51:40.000,285.653,-75.511,26840.126835
1 Jan 2020 05:52:10.000,285.765,-75.632,26624.690715
1 Jan 2020 05:52:40.000,285.869,-75.768,26411.033727
1 Jan 2020 05:53:10.000,285.965,-75.921,26199.394777
1 Jan 2020 05:53:40.000,286.052,-76.089,25990.016745
1 Jan 2020 05:54:10.000,286.131,-76.274,25783.146271
1 Jan 2020 05:54:40.000,286.202,-76.475,25579.033492
1 Jan 2020 05:55:10.000,286.264,-76.694,25377.931744
1 Jan 2020 05:55:40.000,286.317,-76.928,25180.097229
1 Jan 2020 05:56:10.000,286.361,-77.180,24985.788278
1 Jan 2020 05:56:40.000,286.395,-77.449,24795.266325
1 Jan 2020 05:57:10.000,286.419,-77.735,24608.793325
1 Jan 2020 05:57:40.000,286.432,-78.038,24426.632636
1 Jan 2020 05:58:10.000,286.435,-78.358,24249.048096
1 Jan 2020 05:58:40.000,286.425,-78.695,24076.303386
1 Jan 2020 05:59:10.000,286.402,-79.049,23908.661358
1 Jan 2020 05:59:40.000,286.365,-79.419,23746.382999
1 Jan 2020 06:00:10.000,286.312,-79.806,23589.727874
1 Jan 2020 06:00:40.000,286.242,-80.209,23438.951446
1 Jan 2020 06:01:10.000,286.153,-80.628,23294.305448
1 Jan 2020 06:01:40.000,286.042,-81.062,23156.036652
1 Jan 2020 06:02:10.000,285.905,-81.511,23024.385698
1 Jan 2020 06:02:40.000,285.738,-81.975,22899.587021
1 Jan 2020 06:03:10.000,285.536,-82.452,22781.866463
1 Jan 2020 06:03:40.000,285.292,-82.943,22671.441193
1 Jan 2020 06:04:10.000,284.995,-83.446,22568.518280
1 Jan 2020 06:04:40.000,284.633,-83.961,22473.294329
1 Jan 2020 06:05:10.000,284.185,-84.486,22385.953480
1 Jan 2020 06:05:40.000,283.626,-85.022,22306.667100
1 Jan 2020 06:06:10.000,282.912,-85.566,22235.592556
1 Jan 2020 06:06:40.000,281.979,-86.117,22172.872810
1 Jan 2020 06:07:10.000,280.714,-86.674,22118.634833
1 Jan 2020 06:07:40.000,278.915,-87.236,22072.989363
1 Jan 2020 06:08:10.000,276.172,-87.798,22036.030041
1 Jan 2020 06:08:40.000,271.528,-88.356,22007.833086
1 Jan 2020 06:09:10.000,262.201,-88.896,21988.456404
1 Jan 2020 06:09:40.000,237.671,-89.357,21977.939508
1 Jan 2020 06:10:10.000,179.088,-89.462,21976.303194
1 Jan 2020 06:10:40.000,142.519,-89.079,21983.549406
1 Jan 2020 06:11:10.000,129.709,-88.556,21999.661195
1 Jan 2020 06:11:40.000,123.848,-88.003,22024.602864
1 Jan 2020 06:12:10.000,120.545,-87.441,22058.320251
1 Jan 2020 06:12:40.000,118.430,-86.879,22100.740813
1 Jan 2020 06:13:10.000,116.957,-86.320,22151.774449
1 Jan 2020 06:13:40.000,115.866,-85.767,22211.313833
1 Jan 2020 06:14:10.000,115.021,-85.220,22279.235250
1 Jan 2020 06:14:40.000,114.343,-84.682,22355.398839
1 Jan 2020 06:15:10.000,113.782,-84.154,22439.650133
1 Jan 2020 06:15:40.000,113.306,-83.635,22531.820474
1 Jan 2020 06:16:10.000,112.894,-83.128,22631.728228
1 Jan 2020 06:16:40.000,112.531,-82.634,22739.179091
1 Jan 2020 06:17:10.000,112.206,-82.152,22853.968074
1 Jan 2020 06:17:40.000,111.909,-81.684,22975.879881
1 Jan 2020 06:18:10.000,111.636,-81.230,23104.690092
1 Jan 2020 06:18:40.000,111.381,-80.791,23240.166434
1 Jan 2020 06:19:10.000,111.141,-80.367,23382.068806
1 Jan 2020 06:19:40.000,110.913,-79.958,23530.151728
1 Jan 2020 06:20:10.000,110.693,-79.566,23684.164339
1 Jan 2020 06:20:40.000,110.481,-79.190,23843.851558
1 Jan 2020 06:21:10.000,110.275,-78.830,24008.954972
1 Jan 2020 06:21:40.000,110.072,-78.488,24179.213967
1 Jan 2020 06:22:10.000,109.872,-78.162,24354.365350
1 Jan 2020 06:22:40.000,109.675,-77.853,24534.145841
1 Jan 2020 06:23:10.000,109.478,-77.561,24718.291608
1 Jan 2020 06:23:40.000,109.282,-77.286,24906.539191
1 Jan 2020 06:24:10.000,109.085,-77.028,25098.626094
1 Jan 2020 06:24:40.000,108.888,-76.786,25294.291320
1 Jan 2020 06:25:10.000,108.688,-76.562,25493.275858
1 Jan 2020 06:25:40.000,108.487,-76.354,25695.323125
1 Jan 2020 06:26:10.000,108.283,-76.163,25900.179685
1 Jan 2020 06:26:40.000,108.076,-75.988,26107.594277
1 Jan 2020 06:27:10.000,107.866,-75.829,26317.320101
1 Jan 2020 06:27:40.000,107.652,-75.686,26529.113767
1 Jan 2020 06:28:10.000,107.434,-75.559,26742.735856
1 Jan 2020 06:28:40.000,107.212,-75.447,26957.951112
1 Jan 2020 06:29:10.000,106.984,-75.350,27174.528614
1 Jan 2020 06:29:40.000,106.752,-75.268,27392.241903
1 Jan 2020 06:30:10.000,106.514,-75.200,27610.869098
1 Jan 2020 06:30:40.000,106.270,-75.146,27830.192981
1 Jan 2020 06:31:10.000,106.020,-75.107,28050.001060
1 Jan 2020 06:31:40.000,105.763,-75.081,28270.085612
1 Jan 2020 06:32:10.000,105.500,-75.068,28490.243718
1 Jan 2020 06:32:25.209,105.363,-75.066,28601.818050
1 Jan 2020 07:35:59.525,273.774,-75.076,28606.950401
1 Jan 2020 07:36:29.000,272.673,-75.079,28439.687470
1 Jan 2020 07:36:59.000,271.530,-75.091,28271.314816
1 Jan 2020 07:37:29.000,270.360,-75.109,28105.004248
1 Jan 2020 07:37:59.000,269.165,-75.135,27940.935744
1 Jan 2020 07:38:29.000,267.941,-75.168,27779.289314
1 Jan 2020 07:38:59.000,266.688,-75.208,27620.244722
1 Jan 2020 07:39:29.000,265.404,-75.255,27463.981195
1 Jan 2020 07:39:59.000,264.089,-75.308,27310.677105
1 Jan 2020 07:40:29.000,262.739,-75.367,27160.509645
1 Jan 2020 07:40:59.000,261.355,-75.432,27013.654481
1 Jan 2020 07:41:29.000,259.935,-75.503,26870.285147
1 Jan 2020 07:41:59.000,258.478,-75.578,26730.573657
1 Jan 2020 07:42:29.000,256.981,-75.658,26594.688621
1 Jan 2020 07:42:59.000,255.445,-75.742,26462.795849
1 Jan 2020 07:43:29.000,253.868,-75.830,26335.057674
1 Jan 2020 07:43:59.000,252.248,-75.920,26211.632538
1 Jan 2020 07:44:29.000,250.585,-76.013,26092.674556
1 Jan 2020 07:44:59.000,248.878,-76.109,25978.332865
1 Jan 2020 07:45:29.000,247.126,-76.205,25868.752044
1 Jan 2020 07:45:59.000,245.328,-76.302,25764.070374
1 Jan 2020 07:46:29.000,243.485,-76.399,25664.420268
1 Jan 2020 07:46:59.000,241.596,-76.495,25569.927621
1 Jan 2020 07:47:29.000,239.662,-76.590,25480.711383
1 Jan 2020 07:47:59.000,237.682,-76.683,25396.882974
1 Jan 2020 07:48:29.000,235.658,-76.773,25318.546574
1 Jan 2020 07:48:59.000,233.591,-76.859,25245.797691
1 Jan 2020 07:49:29.000,231.482,-76.941,25178.723515
1 Jan 2020 07:49:59.000,229.333,-77.019,25117.402395
1 Jan 2020 07:50:29.000,227.146,-77.091,25061.903537
1 Jan 2020 07:50:59.000,224.924,-77.156,25012.286596
1 Jan 2020 07:51:29.000,222.669,-77.215,24968.601952
1 Jan 2020 07:51:59.000,220.386,-77.267,24930.889708
1 Jan 2020 07:52:29.000,218.077,-77.311,24899.180064
1 Jan 2020 07:52:59.000,215.747,-77.348,24873.493042
1 Jan 2020 07:53:29.000,213.400,-77.376,24853.838342
1 Jan 2020 07:53:59.000,211.040,-77.395,24840.215554
1 Jan 2020 07:54:29.000,208.671,-77.406,24832.613753
1 Jan 2020 07:54:59.000,206.299,-77.408,24831.011814
1 Jan 2020 07:55:29.000,203.927,-77.402,24835.378431
1 Jan 2020 07:55:59.000,201.561,-77.387,24845.672224
1 Jan 2020 07:56:29.000,199.204,-77.364,24861.841979
1 Jan 2020 07:56:59.000,196.862,-77.332,24883.826736
1 Jan 2020 07:57:29.000,194.537,-77.293,24911.556123
1 Jan 2020 07:57:59.000,192.233,-77.246,24944.950612
1 Jan 2020 07:58:29.000,189.954,-77.193,24983.921837
1 Jan 2020 07:58:59.000,187.702,-77.133,25028.372975
1 Jan 2020 07:59:29.000,185.481,-77.067,25078.198960
1 Jan 2020 07:59:59.000,183.292,-76.996,25133.287104
1 Jan 2020 08:00:29.000,181.138,-76.921,25193.517371
1 Jan 2020 08:00:59.000,179.019,-76.841,25258.762845
1 Jan 2020 08:01:29.000,176.937,-76.758,25328.890170
1 Jan 2020 08:01:59.000,174.892,-76.672,25403.760013
1 Jan 2020 08:02:29.000,172.885,-76.584,25483.227630
1 Jan 2020 08:02:59.000,170.916,-76.495,25567.142917
1 Jan 2020 08:03:29.000,168.985,-76.404,25655.351492
1 Jan 2020 08:03:59.000,167.091,-76.314,25747.694758
1 Jan 2020 08:04:29.000,165.235,-76.223,25844.010466
1 Jan 2020 08:04:59.000,163.415,-76.134,25944.133164
1 Jan 2020 08:05:29.000,161.630,-76.046,26047.894646
1 Jan 2020 08:05:59.000,159.879,-75.959,26155.124380
1 Jan 2020 08:06:29.000,158.161,-75.875,26265.649932
1 Jan 2020 08:06:59.000,156.476,-75.794,26379.297531
1 Jan 2020 08:07:29.000,154.820,-75.715,26495.891817
1 Jan 2020 08:07:59.000,153.195,-75.640,26615.257171
1 Jan 2020 08:08:29.000,151.596,-75.569,26737.217433
1 Jan 2020 08:08:59.000,150.025,-75.502,26861.596403
1 Jan 2020 08:09:29.000,148.478,-75.439,26988.218155
1 Jan 2020 08:09:59.000,146.955,-75.380,27116.907340
1 Jan 2020 08:10:29.000,145.455,-75.326,27247.489463
1 Jan 2020 08:10:59.000,143.974,-75.277,27379.791154
1 Jan 2020 08:11:29.000,142.514,-75.233,27513.640404
1 Jan 2020 08:11:59.000,141.071,-75.195,27648.866799
1 Jan 2020 08:12:29.000,139.645,-75.161,27785.301726
1 Jan 2020 08:12:59.000,138.234,-75.132,27922.778567
1 Jan 2020 08:13:29.000,136.836,-75.109,28061.132874
1 Jan 2020 08:13:59.000,135.452,-75.091,28200.202533
1 Jan 2020 08:14:29.000,134.079,-75.079,28339.827908
1 Jan 2020 08:14:59.000,132.715,-75.071,28479.851973
1 Jan 2020 08:15:26.417,131.477,-75.069,28608.038711
1 Jan 2020 10:36:47.211,32.543,-75.075,28610.895556
1 Jan 2020 10:37:17.000,31.038,-75.077,28501.020389
1 Jan 2020 10:37:47.000,29.512,-75.082,28391.067323
1 Jan 2020 10:38:17.000,27.975,-75.090,28281.956925
1 Jan 2020 10:38:47.000,26.427,-75.101,28173.831750
1 Jan 2020 10:39:17.000,24.867,-75.115,28066.835658
1 Jan 2020 10:39:47.000,23.295,-75.133,27961.113627
1 Jan 2020 10:40:17.000,21.708,-75.153,27856.811569
1 Jan 2020 10:40:47.000,20.107,-75.176,27754.076125
1 Jan 2020 10:41:17.000,18.491,-75.201,27653.054447
1 Jan 2020 10:41:47.000,16.858,-75.229,27553.893978
1 Jan 2020 10:42:17.000,15.210,-75.260,27456.742209
1 Jan 2020 10:42:47.000,13.543,-75.292,27361.746428
1 Jan 2020 10:43:17.000,11.859,-75.327,27269.053462
1 Jan 2020 10:43:47.000,10.157,-75.363,27178.809398
1 Jan 2020 10:44:17.000,8.435,-75.401,27091.159305
1 Jan 2020 10:44:47.000,6.695,-75.439,27006.246937
1 Jan 2020 10:45:17.000,4.934,-75.479,26924.214337
1 Jan 2020 10:45:47.000,3.154,-75.520,26845.201898
1 Jan 2020 10:46:17.000,1.354,-75.561,26769.347478
1 Jan 2020 10:46:47.000,359.534,-75.602,26696.786456
1 Jan 2020 10:47:17.000,357.693,-75.643,26627.651303
1 Jan 2020 10:47:47.000,355.833,-75.683,26562.071246
1 Jan 2020 10:48:17.000,353.954,-75.723,26500.171932
1 Jan 2020 10:48:47.000,352.056,-75.761,26442.075092
1 Jan 2020 10:49:17.000,350.139,-75.798,26387.898195
1 Jan 2020 10:49:47.000,348.205,-75.834,26337.754085
1 Jan 2020 10:50:17.000,346.253,-75.867,26291.750809
1 Jan 2020 10:50:47.000,344.287,-75.898,26249.991036
1 Jan 2020 10:51:17.000,342.305,-75.926,26212.571925
1 Jan 2020 10:51:47.000,340.311,-75.952,26179.584772
1 Jan 2020 10:52:17.000,338.305,-75.974,26151.114719
1 Jan 2020 10:52:47.000,336.289,-75.993,26127.240478
1 Jan 2020 10:53:17.000,334.264,-76.008,26108.034085
1 Jan 2020 10:53:47.000,332.233,-76.020,26093.560616
1 Jan 2020 10:54:17.000,330.197,-76.028,26083.878014
1 Jan 2020 10:54:47.000,328.158,-76.032,26079.036869
1 Jan 2020 10:55:17.000,326.119,-76.032,26079.080245
1 Jan 2020 10:55:47.000,324.081,-76.028,26084.043528
1 Jan 2020 10:56:17.000,322.046,-76.020,26093.954303
1 Jan 2020 10:56:47.000,320.017,-76.008,26108.832326
1 Jan 2020 10:57:17.000,317.996,-75.992,26128.689179
1 Jan 2020 10:57:47.000,315.985,-75.973,26153.528627
1 Jan 2020 10:58:17.000,313.985,-75.949,26183.346348
1 Jan 2020 10:58:47.000,311.999,-75.923,26218.130006
1 Jan 2020 10:59:17.000,310.028,-75.893,26257.859299
1 Jan 2020 10:59:47.000,308.075,-75.860,26302.506021
1 Jan 2020 11:00:17.000,306.140,-75.825,26352.034294
1 Jan 2020 11:00:47.000,304.225,-75.787,26406.400185
1 Jan 2020 11:01:17.000,302.332,-75.747,26465.552593
1 Jan 2020 11:01:47.000,300.462,-75.705,26529.432939
1 Jan 2020 11:02:17.000,298.615,-75.662,26597.975473
1 Jan 2020 11:02:47.000,296.793,-75.619,26671.107491
1 Jan 2020 11:03:17.000,294.996,-75.574,26748.749567
1 Jan 2020 11:03:47.000,293.225,-75.529,26830.815964
1 Jan 2020 11:04:17.000,291.481,-75.485,26917.214248
1 Jan 2020 11:04:47.000,289.763,-75.441,27007.846533
1 Jan 2020 11:05:17.000,288.073,-75.398,27102.609132
1 Jan 2020 11:05:47.000,286.409,-75.356,27201.393006
1 Jan 2020 11:06:17.000,284.772,-75.316,27304.084074
1 Jan 2020 11:06:47.000,283.162,-75.277,27410.563523
1 Jan 2020 11:07:17.000,281.579,-75.242,27520.708116
1 Jan 2020 11:07:47.000,280.022,-75.209,27634.390509
1 Jan 2020 11:08:17.000,278.491,-75.179,27751.479793
1 Jan 2020 11:08:47.000,276.985,-75.152,27871.840914
1 Jan 2020 11:09:17.000,275.504,-75.129,27995.336310
1 Jan 2020 11:09:47.000,274.047,-75.110,28121.825340
1 Jan 2020 11:10:17.000,272.614,-75.096,28251.164802
1 Jan 2020 11:10:47.000,271.203,-75.085,28383.209227
1 Jan 2020 11:11:17.000,269.815,-75.079,28517.811167
1 Jan 2020 11:11:37.332,268.886,-75.078,28610.415573
1 Jan 2020 12:16:06.172,70.596,-75.070,28606.485952
1 Jan 2020 12:16:36.000,70.000,-75.076,28398.482789
1 Jan 2020 12:17:06.000,69.402,-75.094,28189.129551
1 Jan 2020 12:17:36.000,68.803,-75.123,27979.816595
1 Jan 2020 12:18:06.000,68.204,-75.165,27770.740523
1 Jan 2020 12:18:36.000,67.602,-75.220,27562.102638
1 Jan 2020 12:19:06.000,66.997,-75.288,27354.108910
1 Jan 2020 12:19:36.000,66.387,-75.369,27146.969920
1 Jan 2020 12:20:06.000,65.772,-75.463,26940.900793
1 Jan 2020 12:20:36.000,65.149,-75.571,26736.121106
1 Jan 2020 12:21:06.000,64.516,-75.693,26532.854768
1 Jan 2020 12:21:36.000,63.874,-75.828,26331.329886
1 Jan 2020 12:22:06.000,63.218,-75.979,26131.778590
1 Jan 2020 12:22:36.000,62.549,-76.143,25934.436843
1 Jan 2020 12:23:06.000,61.862,-76.322,25739.544202
1 Jan 2020 12:23:36.000,61.157,-76.516,25547.343558
1 Jan 2020 12:24:06.000,60.430,-76.724,25358.080833
1 Jan 2020 12:24:36.000,59.679,-76.947,25172.004636
1 Jan 2020 12:25:06.000,58.899,-77.185,24989.365573
1 Jan 2020 12:25:36.000,58.088,-77.438,24810.417058
1 Jan 2020 12:26:06.000,57.240,-77.704,24635.412975
1 Jan 2020 12:26:36.000,56.352,-77.985,24464.608407
1 Jan 2020 12:27:06.000,55.418,-78.280,24298.258764
1 Jan 2020 12:27:36.000,54.431,-78.589,24136.619161
1 Jan 2020 12:28:06.000,53.384,-78.910,23979.943761
1 Jan 2020 12:28:36.000,52.269,-79.245,23828.484809
1 Jan 2020 12:29:06.000,51.076,-79.591,23682.492927
1 Jan 2020 12:29:36.000,49.794,-79.949,23542.214725
1 Jan 2020 12:30:06.000,48.409,-80.317,23407.893041
1 Jan 2020 12:30:36.000,46.906,-80.694,23279.765790
1 Jan 2020 12:31:06.000,45.266,-81.079,23158.064881
1 Jan 2020 12:31:36.000,43.468,-81.471,23043.016042
1 Jan 2020 12:32:06.000,41.484,-81.867,22934.836718
1 Jan 2020 12:32:36.000,39.285,-82.266,22833.735894
1 Jan 2020 12:33:06.000,36.834,-82.665,22739.912933
1 Jan 2020 12:33:36.000,34.088,-83.061,22653.556477
1 Jan 2020 12:34:06.000,30.997,-83.450,22574.844105
1 Jan 2020 12:34:36.000,27.504,-83.829,22503.940501
1 Jan 2020 12:35:06.000,23.548,-84.191,22440.997208
1 Jan 2020 12:35:36.000,19.065,-84.531,22386.151565
1 Jan 2020 12:36:06.000,13.996,-84.841,22339.526248
1 Jan 2020 12:36:36.000,8.303,-85.113,22301.228085
1 Jan 2020 12:37:06.000,1.984,-85.338,22271.347769
1 Jan 2020 12:37:36.000,355.092,-85.507,22249.959223
1 Jan 2020 12:38:06.000,347.758,-85.613,22237.119232
1 Jan 2020 12:38:36.000,340.179,-85.648,22232.866969
1 Jan 2020 12:39:06.000,332.601,-85.612,22237.223862
1 Jan 2020 12:39:36.000,325.270,-85.506,22250.193493
1 Jan 2020 12:40:06.000,318.387,-85.336,22271.761407
1 Jan 2020 12:40:36.000,312.082,-85.109,22301.895446
1 Jan 2020 12:41:06.000,306.411,-84.835,22340.545818
1 Jan 2020 12:41:36.000,301.372,-84.523,22387.645542
1 Jan 2020 12:42:06.000,296.927,-84.180,22443.110460
1 Jan 2020 12:42:36.000,293.019,-83.815,22506.840337
1 Jan 2020 12:43:06.000,289.583,-83.432,22578.719077
1 Jan 2020 12:43:36.000,286.558,-83.039,22658.615651
1 Jan 2020 12:44:06.000,283.888,-82.639,22746.384231
1 Jan 2020 12:44:36.000,281.521,-82.235,22841.865892
1 Jan 2020 12:45:06.000,279.415,-81.831,22944.888886
1 Jan 2020 12:45:36.000,277.534,-81.430,23055.269676
1 Jan 2020 12:46:06.000,275.847,-81.033,23172.814105
1 Jan 2020 12:46:36.000,274.327,-80.643,23297.317363
1 Jan 2020 12:47:06.000,272.953,-80.261,23428.566376
1 Jan 2020 12:47:36.000,271.706,-79.888,23566.339805
1 Jan 2020 12:48:06.000,270.571,-79.526,23710.409217
1 Jan 2020 12:48:36.000,269.534,-79.175,23860.540265
1 Jan 2020 12:49:06.000,268.583,-78.836,24016.492550
1 Jan 2020 12:49:36.000,267.711,-78.510,24178.022026
1 Jan 2020 12:50:06.000,266.907,-78.198,24344.880812
1 Jan 2020 12:50:36.000,266.166,-77.900,24516.818242
1 Jan 2020 12:51:06.000,265.480,-77.617,24693.581609
1 Jan 2020 12:51:36.000,264.845,-77.348,24874.916877
1 Jan 2020 12:52:06.000,264.256,-77.094,25060.569671
1 Jan 2020 12:52:36.000,263.708,-76.855,25250.284567
1 Jan 2020 12:53:06.000,263.199,-76.631,25443.807636
1 Jan 2020 12:53:36.000,262.725,-76.423,25640.885656
1 Jan 2020 12:54:06.000,262.284,-76.230,25841.266909
1 Jan 2020 12:54:36.000,261.872,-76.053,26044.701616
1 Jan 2020 12:55:06.000,261.488,-75.891,26250.942323
1 Jan 2020 12:55:36.000,261.130,-75.744,26459.744246
1 Jan 2020 12:56:06.000,260.796,-75.612,26670.865583
1 Jan 2020 12:56:36.000,260.484,-75.496,26884.067785
1 Jan 2020 12:57:06.000,260.194,-75.394,27099.115788
1 Jan 2020 12:57:36.000,259.924,-75.306,27315.778225
1 Jan 2020 12:58:06.000,259.673,-75.233,27533.827596
1 Jan 2020 12:58:36.000,259.440,-75.174,27753.040415
1 Jan 2020 12:59:06.000,259.224,-75.129,27973.197336
1 Jan 2020 12:59:36.000,259.024,-75.098,28194.083251
1 Jan 2020 13:00:06.000,258.840,-75.080,28415.487365
1 Jan 2020 13:00:31.586,258.694,-75.076,28604.570477
1 Jan 2020 14:03:34.609,83.124,-75.066,28599.326382
1 Jan 2020 14:04:04.000,83.848,-75.071,28401.876595
1 Jan 2020 14:04:34.000,84.609,-75.087,28201.470103
1 Jan 2020 14:05:04.000,85.395,-75.114,28002.408244
1 Jan 2020 14:05:34.000,86.206,-75.152,27804.894447
1 Jan 2020 14:06:04.000,87.045,-75.200,27609.134528
1 Jan 2020 14:06:34.000,87.912,-75.260,27415.336491
1 Jan 2020 14:07:04.000,88.811,-75.330,27223.710311
1 Jan 2020 14:07:34.000,89.742,-75.411,27034.467689
1 Jan 2020 14:08:04.000,90.709,-75.502,26847.821779
1 Jan 2020 14:08:34.000,91.712,-75.604,26663.986900
1 Jan 2020 14:09:04.000,92.755,-75.716,26483.178208
1 Jan 2020 14:09:34.000,93.840,-75.838,26305.611347
1 Jan 2020 14:10:04.000,94.969,-75.969,26131.501760
1 Jan 2020 14:10:34.000,96.146,-76.110,25961.065524
1 Jan 2020 14:11:04.000,97.373,-76.259,25794.517039
1 Jan 2020 14:11:34.000,98.654,-76.417,25632.069812
1 Jan 2020 14:12:04.000,99.991,-76.583,25473.935653
1 Jan 2020 14:12:34.000,101.389,-76.756,25320.324147
1 Jan 2020 14:13:04.000,102.851,-76.935,25171.442106
1 Jan 2020 14:13:34.000,104.380,-77.121,25027.492721
1 Jan 2020 14:14:04.000,105.981,-77.311,24888.676068
1 Jan 2020 14:14:34.000,107.658,-77.505,24755.186825
1 Jan 2020 14:15:04.000,109.414,-77.702,24627.214757
1 Jan 2020 14:15:34.000,111.254,-77.901,24504.943787
1 Jan 2020 14:16:04.000,113.181,-78.101,24388.551343
1 Jan 2020 14:16:34.000,115.199,-78.301,24278.207461
1 Jan 2020 14:17:04.000,117.312,-78.498,24174.075072
1 Jan 2020 14:17:34.000,119.523,-78.692,24076.307912
1 Jan 2020 14:18:04.000,121.833,-78.881,23985.050848
1 Jan 2020 14:18:34.000,124.244,-79.064,23900.439010
1 Jan 2020 14:19:04.000,126.757,-79.239,23822.597021
1 Jan 2020 14:19:34.000,129.372,-79.404,23751.639095
1 Jan 2020 14:20:04.000,132.085,-79.558,23687.667482
1 Jan 2020 14:20:34.000,134.893,-79.699,23630.772664
1 Jan 2020 14:21:04.000,137.792,-79.826,23581.032730
1 Jan 2020 14:21:34.000,140.773,-79.937,23538.512878
1 Jan 2020 14:22:04.000,143.827,-80.031,23503.265520
1 Jan 2020 14:22:34.000,146.943,-80.107,23475.329319
1 Jan 2020 14:23:04.000,150.109,-80.164,23454.729455
1 Jan 2020 14:23:34.000,153.310,-80.201,23441.477358
1 Jan 2020 14:24:04.000,156.532,-80.217,23435.570600
1 Jan 2020 14:24:34.000,159.759,-80.213,23436.993072
1 Jan 2020 14:25:04.000,162.976,-80.189,23445.714767
1 Jan 2020 14:25:34.000,166.167,-80.145,23461.692131
1 Jan 2020 14:26:04.000,169.319,-80.082,23484.868221
1 Jan 2020 14:26:34.000,172.418,-80.001,23515.173010
1 Jan 2020 14:27:04.000,175.453,-79.902,23552.523627
1 Jan 2020 14:27:34.000,178.416,-79.787,23596.824895
1 Jan 2020 14:28:04.000,181.297,-79.658,23647.969711
1 Jan 2020 14:28:34.000,184.091,-79.516,23705.839564
1 Jan 2020 14:29:04.000,186.795,-79.362,23770.305181
1 Jan 2020 14:29:34.000,189.406,-79.199,23841.226762
1 Jan 2020 14:30:04.000,191.923,-79.027,23918.455105
1 Jan 2020 14:30:34.000,194.347,-78.849,24001.831927
1 Jan 2020 14:31:04.000,196.679,-78.665,24091.190605
1 Jan 2020 14:31:34.000,198.921,-78.477,24186.356856
1 Jan 2020 14:32:04.000,201.076,-78.287,24287.149579
1 Jan 2020 14:32:34.000,203.148,-78.096,24393.380907
1 Jan 2020 14:33:04.000,205.140,-77.905,24504.857830
1 Jan 2020 14:33:34.000,207.056,-77.715,24621.382250
1 Jan 2020 14:34:04.000,208.900,-77.528,24742.751794
1 Jan 2020 14:34:34.000,210.677,-77.343,24868.760460
1 Jan 2020 14:35:04.000,212.390,-77.163,24999.199238
1 Jan 2020 14:35:34.000,214.044,-76.987,25133.856919
1 Jan 2020 14:36:04.000,215.642,-76.816,25272.519856
1 Jan 2020 14:36:34.000,217.188,-76.652,25414.973719
1 Jan 2020 14:37:04.000,218.686,-76.495,25561.003220
1 Jan 2020 14:37:34.000,220.139,-76.344,25710.392795
1 Jan 2020 14:38:04.000,221.550,-76.201,25862.927067
1 Jan 2020 14:38:34.000,222.923,-76.066,26018.391271
1 Jan 2020 14:39:04.000,224.261,-75.939,26176.571654
1 Jan 2020 14:39:34.000,225.566,-75.820,26337.255838
1 Jan 2020 14:40:04.000,226.842,-75.710,26500.233163
1 Jan 2020 14:40:34.000,228.090,-75.608,26665.294987
1 Jan 2020 14:41:04.000,229.313,-75.516,26832.234975
1 Jan 2020 14:41:34.000,230.513,-75.432,27000.849344
1 Jan 2020 14:42:04.000,231.693,-75.357,27170.937356
1 Jan 2020 14:42:34.000,232.855,-75.291,27342.300481
1 Jan 2020 14:43:04.000,234.000,-75.234,27514.744127
1 Jan 2020 14:43:34.000,235.130,-75.185,27688.076774
1 Jan 2020 14:44:04.000,236.247,-75.146,27862.110359
1 Jan 2020 14:44:34.000,237.353,-75.115,28036.660405
1 Jan 2020 14:45:04.000,238.449,-75.092,28211.546113
1 Jan 2020 14:45:34.000,239.537,-75.078,28386.590457
1 Jan 2020 14:46:04.000,240.619,-75.073,28561.620248
1 Jan 2020 14:46:10.181,240.841,-75.072,28597.665337
1 Jan 2020 15:54:01.355,96.070,-75.063,28593.540174
1 Jan 2020 15:54:31.000,97.716,-75.064,28532.748630
1 Jan 2020 15:55:01.000,99.392,-75.065,28474.371634
1 Jan 2020 15:55:31.000,101.079,-75.067,28419.218869
1 Jan 2020 15:56:01.000,102.776,-75.070,28367.348048
1 Jan 2020 15:56:31.000,104.482,-75.074,28318.812012
1 Jan 2020 15:57:01.000,106.197,-75.077,28273.658600
1 Jan 2020 15:57:31.000,107.921,-75.081,28231.930530
1 Jan 2020 15:58:01.000,109.653,-75.085,28193.665288
1 Jan 2020 15:58:31.000,111.393,-75.089,28158.895037
1 Jan 2020 15:59:01.000,113.140,-75.093,28127.646460
1 Jan 2020 15:59:31.000,114.893,-75.097,28099.940990
1 Jan 2020 16:00:01.000,116.652,-75.100,28075.794302
1 Jan 2020 16:00:31.000,118.416,-75.103,28055.216585
1 Jan 2020 16:01:01.000,120.184,-75.106,28038.212433
1 Jan 2020 16:01:31.000,121.955,-75.108,28024.780847
1 Jan 2020 16:02:01.000,123.730,-75.110,28014.915233
1 Jan 2020 16:02:31.000,125.506,-75.111,28008.603429
1 Jan 2020 16:03:01.000,127.284,-75.111,28005.827741
1 Jan 2020 16:03:31.000,129.063,-75.111,28006.564970
1 Jan 2020 16:04:01.000,130.841,-75.111,28010.786592
1 Jan 2020 16:04:31.000,132.619,-75.110,28018.458664
1 Jan 2020 16:05:01.000,134.395,-75.108,28029.542039
1 Jan 2020 16:05:31.000,136.169,-75.106,28043.992450
1 Jan 2020 16:06:01.000,137.940,-75.104,28061.760627
1 Jan 2020 16:06:31.000,139.708,-75.101,28082.792433
1 Jan 2020 16:07:01.000,141.472,-75.098,28107.029011
1 Jan 2020 16:07:31.000,143.231,-75.094,28134.406940
1 Jan 2020 16:08:01.000,144.985,-75.091,28164.858397
1 Jan 2020 16:08:31.000,146.734,-75.087,28198.311359
1 Jan 2020 16:09:01.000,148.477,-75.084,28234.689702
1 Jan 2020 16:09:31.000,150.214,-75.080,28273.913505
1 Jan 2020 16:10:01.000,151.944,-75.077,28315.899174
1 Jan 2020 16:10:31.000,153.668,-75.074,28360.559659
1 Jan 2020 16:11:01.000,155.384,-75.072,28407.804661
1 Jan 2020 16:11:31.000,157.093,-75.070,28457.540837
1 Jan 2020 16:12:01.000,158.795,-75.068,28509.672013
1 Jan 2020 16:12:31.000,160.490,-75.067,28564.099394
1 Jan 2020 16:12:46.781,161.378,-75.067,28593.616832
1 Jan 2020 17:14:17.506,1.913,-75.063,28592.499980
1 Jan 2020 17:14:47.000,3.540,-75.063,28522.072916
1 Jan 2020 17:15:17.000,5.203,-75.065,28452.168055
1 Jan 2020 17:15:47.000,6.875,-75.068,28384.123955
1 Jan 2020 17:16:17.000,8.557,-75.072,28318.056787
1 Jan 2020 17:16:47.000,10.247,-75.078,28254.081314
1 Jan 2020 17:17:17.000,11.947,-75.084,28192.310667
1 Jan 2020 17:17:47.000,13.656,-75.090,28132.856118
1 Jan 2020 17:18:17.000,15.374,-75.098,28075.826852
1 Jan 2020 17:18:47.000,17.102,-75.106,28021.329734
1 Jan 2020 17:19:17.000,18.839,-75.114,27969.469077
1 Jan 2020 17:19:47.000,20.584,-75.123,27920.346403
1 Jan 2020 17:20:17.000,22.338,-75.132,27874.060218
1 Jan 2020 17:20:47.000,24.101,-75.140,27830.705772
1 Jan 2020 17:21:17.000,25.872,-75.149,27790.374809
1 Jan 2020 17:21:47.000,27.650,-75.157,27753.155443
1 Jan 2020 17:22:17.000,29.435,-75.165,27719.131774
1 Jan 2020 17:22:47.000,31.227,-75.173,27688.383783
1 Jan 2020 17:23:17.000,33.025,-75.180,27660.987099
1 Jan 2020 17:23:47.000,34.828,-75.186,27637.012789
1 Jan 2020 17:24:17.000,36.636,-75.191,27616.527172
1 Jan 2020 17:24:47.000,38.447,-75.196,27599.591635
1 Jan 2020 17:25:17.000,40.262,-75.200,27586.262461
1 Jan 2020 17:25:47.000,42.079,-75.203,27576.590688
1 Jan 2020 17:26:17.000,43.898,-75.204,27570.621886
1 Jan 2020 17:26:47.000,45.717,-75.205,27568.396138
1 Jan 2020 17:27:17.000,47.536,-75.204,27569.947846
1 Jan 2020 17:27:47.000,49.354,-75.203,27575.305653
1 Jan 2020 17:28:17.000,51.169,-75.200,27584.492348
1 Jan 2020 17:28:47.000,52.982,-75.197,27597.524801
1 Jan 2020 17:29:17.000,54.790,-75.192,27614.413910
1 Jan 2020 17:29:47.000,56.594,-75.186,27635.164624
1 Jan 2020 17:30:17.000,58.391,-75.180,27659.775682
1 Jan 2020 17:30:47.000,60.182,-75.173,27688.239970
1 Jan 2020 17:31:17.000,61.966,-75.165,27720.544306
1 Jan 2020 17:31:47.000,63.741,-75.156,27756.669524
1 Jan 2020 17:32:17.000,65.507,-75.147,27796.590533
1 Jan 2020 17:32:47.000,67.263,-75.138,27840.276376
1 Jan 2020 17:33:17.000,69.008,-75.128,27887.690317
1 Jan 2020 17:33:47.000,70.743,-75.119,27938.789937
1 Jan 2020 17:34:17.000,72.465,-75.110,27993.527369
1 Jan 2020 17:34:47.000,74.176,-75.101,28051.848951
1 Jan 2020 17:35:17.000,75.873,-75.092,28113.696064
1 Jan 2020 17:35:47.000,77.558,-75.084,28179.004826
1 Jan 2020 17:36:17.000,79.229,-75.077,28247.706368
1 Jan 2020 17:36:47.000,80.887,-75.071,28319.727004
1 Jan 2020 17:37:17.000,82.530,-75.067,28394.988419
1 Jan 2020 17:37:47.000,84.160,-75.064,28473.407855
1 Jan 2020 17:38:17.000,85.775,-75.062,28554.898310
1 Jan 2020 17:38:30.539,86.499,-75.062,28592.656294
1 Jan 2020 18:45:06.087,296.212,-75.069,28595.742350
1 Jan 2020 18:45:36.000,297.179,-75.073,28411.135408
1 Jan 2020 18:46:06.000,298.154,-75.087,28225.885077
1 Jan 2020 18:46:36.000,299.136,-75.110,28040.703533
1 Jan 2020 18:47:06.000,300.125,-75.143,27855.772591
1 Jan 2020 18:47:36.000,301.124,-75.185,27671.278143
1 Jan 2020 18:48:06.000,302.134,-75.237,27487.410094
1 Jan 2020 18:48:36.000,303.157,-75.299,27304.362277
1 Jan 2020 18:49:06.000,304.195,-75.372,27122.332354
1 Jan 2020 18:49:36.000,305.249,-75.454,26941.521695
1 Jan 2020 18:50:06.000,306.322,-75.547,26762.135241
1 Jan 2020 18:50:36.000,307.415,-75.651,26584.381336
1 Jan 2020 18:51:06.000,308.533,-75.764,26408.471545
1 Jan 2020 18:51:36.000,309.675,-75.888,26234.620437
1 Jan 2020 18:52:06.000,310.847,-76.022,26063.045352
1 Jan 2020 18:52:36.000,312.050,-76.166,25893.966123
1 Jan 2020 18:53:06.000,313.287,-76.320,25727.604784
1 Jan 2020 18:53:36.000,314.562,-76.483,25564.185237
1 Jan 2020 18:54:06.000,315.878,-76.656,25403.932651
1 Jan 2020 18:54:36.000,317.240,-76.838,25247.074015
1 Jan 2020 18:55:06.000,318.650,-77.029,25093.836272
1 Jan 2020 18:55:36.000,320.115,-77.228,24944.446810
1 Jan 2020 18:56:06.000,321.638,-77.434,24799.132721
1 Jan 2020 18:56:36.000,323.225,-77.647,24658.120262
1 Jan 2020 18:57:06.000,324.881,-77.867,24521.634278
1 Jan 2020 18:57:36.000,326.611,-78.091,24389.897412
1 Jan 2020 18:58:06.000,328.422,-78.320,24263.130234
1 Jan 2020 18:58:36.000,330.320,-78.553,24141.549408
1 Jan 2020 18:59:06.000,332.311,-78.787,24025.367784
1 Jan 2020 18:59:36.000,334.403,-79.023,23914.793484
1 Jan 2020 19:00:06.000,336.601,-79.257,23810.029169
1 Jan 2020 19:00:36.000,338.913,-79.490,23711.271136
1 Jan 2020 19:01:06.000,341.345,-79.718,23618.709172
1 Jan 2020 19:01:36.000,343.901,-79.940,23532.524859
1 Jan 2020 19:02:06.000,346.587,-80.155,23452.891447
1 Jan 2020 19:02:36.000,349.406,-80.360,23379.972946
1 Jan 2020 19:03:06.000,352.358,-80.553,23313.923303
1 Jan 2020 19:03:36.000,355.444,-80.731,23254.886051
1 Jan 2020 19:04:06.000,358.660,-80.893,23202.993079
1 Jan 2020 19:04:36.000,1.998,-81.037,23158.364374
1 Jan 2020 19:05:06.000,5.448,-81.159,23121.107329
1 Jan 2020 19:05:36.000,8.996,-81.260,23091.316182
1 Jan 2020 19:06:06.000,12.624,-81.336,23069.071628
1 Jan 2020 19:06:36.000,16.311,-81.386,23054.440242
1 Jan 2020 19:07:06.000,20.034,-81.410,23047.474256
1 Jan 2020 19:07:36.000,23.767,-81.408,23048.211286
1 Jan 2020 19:08:06.000,27.484,-81.378,23056.674018
1 Jan 2020 19:08:36.000,31.159,-81.322,23072.870262
1 Jan 2020 19:09:06.000,34.770,-81.240,23096.792820
1 Jan 2020 19:09:36.000,38.295,-81.134,23128.419646
1 Jan 2020 19:10:06.000,41.714,-81.005,23167.713657
1 Jan 2020 19:10:36.000,45.016,-80.855,23214.623409
1 Jan 2020 19:11:06.000,48.187,-80.686,23269.083087
1 Jan 2020 19:11:36.000,51.221,-80.501,23331.012936
1 Jan 2020 19:12:06.000,54.115,-80.300,23400.319867
1 Jan 2020 19:12:36.000,56.866,-80.088,23476.897265
1 Jan 2020 19:13:06.000,59.477,-79.865,23560.626531
1 Jan 2020 19:13:36.000,61.950,-79.634,23651.377025
1 Jan 2020 19:14:06.000,64.289,-79.397,23749.006863
1 Jan 2020 19:14:36.000,66.500,-79.157,23853.363808
1 Jan 2020 19:15:06.000,68.589,-78.914,23964.285104
1 Jan 2020 19:15:36.000,70.562,-78.670,24081.599467
1 Jan 2020 19:16:06.000,72.427,-78.427,24205.126986
1 Jan 2020 19:16:36.000,74.188,-78.187,24334.680057
1 Jan 2020 19:17:06.000,75.854,-77.950,24470.064132
1 Jan 2020 19:17:36.000,77.430,-77.719,24611.078726
1 Jan 2020 19:18:06.000,78.922,-77.493,24757.517014
1 Jan 2020 19:18:36.000,80.336,-77.274,24909.168216
1 Jan 2020 19:19:06.000,81.676,-77.062,25065.817170
1 Jan 2020 19:19:36.000,82.949,-76.859,25227.245269
1 Jan 2020 19:20:06.000,84.159,-76.665,25393.231095
1 Jan 2020 19:20:36.000,85.309,-76.481,25563.551025
1 Jan 2020 19:21:06.000,86.404,-76.307,25737.980106
1 Jan 2020 19:21:36.000,87.448,-76.143,25916.291397
1 Jan 2020 19:22:06.000,88.444,-75.990,26098.258271
1 Jan 2020 19:22:36.000,89.396,-75.848,26283.653696
1 Jan 2020 19:23:06.000,90.305,-75.718,26472.250977
1 Jan 2020 19:23:36.000,91.176,-75.599,26663.824162
1 Jan 2020 19:24:06.000,92.010,-75.492,26858.148414
1 Jan 2020 19:24:36.000,92.809,-75.397,27055.000356
1 Jan 2020 19:25:06.000,93.577,-75.314,27254.158382
1 Jan 2020 19:25:36.000,94.315,-75.243,27455.402940
1 Jan 2020 19:26:06.000,95.024,-75.184,27658.516779
1 Jan 2020 19:26:36.000,95.707,-75.137,27863.285184
1 Jan 2020 19:27:06.000,96.364,-75.101,28069.496171
1 Jan 2020 19:27:36.000,96.999,-75.078,28276.940664
1 Jan 2020 19:28:06.000,97.611,-75.066,28485.412653
1 Jan 2020 19:28:22.050,97.930,-75.064,28597.293419
1 Jan 2020 20:31:19.358,280.122,-75.073,28602.380306
1 Jan 2020 20:31:49.000,279.808,-75.079,28386.011300
1 Jan 2020 20:32:19.000,279.473,-75.098,28167.539600
1 Jan 2020 20:32:49.000,279.120,-75.130,27949.787196
1 Jan 2020 20:33:19.000,278.747,-75.176,27732.965349
1 Jan 2020 20:33:49.000,278.354,-75.234,27517.289269
1 Jan 2020 20:34:19.000,277.939,-75.307,27302.978010
1 Jan 2020 20:34:49.000,277.501,-75.393,27090.254346
1 Jan 2020 20:35:19.000,277.039,-75.493,26879.344618
1 Jan 2020 20:35:49.000,276.550,-75.608,26670.478551
1 Jan 2020 20:36:19.000,276.033,-75.736,26463.889055
1 Jan 2020 20:36:49.000,275.486,-75.879,26259.811985
1 Jan 2020 20:37:19.000,274.907,-76.036,26058.485873
1 Jan 2020 20:37:49.000,274.293,-76.207,25860.151624
1 Jan 2020 20:38:19.000,273.642,-76.392,25665.052180
1 Jan 2020 20:38:49.000,272.950,-76.592,25473.431790
1 Jan 2020 20:39:19.000,272.215,-76.805,25285.536990
1 Jan 2020 20:39:49.000,271.431,-77.032,25101.614047
1 Jan 2020 20:40:19.000,270.596,-77.273,24921.909860
1 Jan 2020 20:40:49.000,269.703,-77.527,24746.671067
1 Jan 2020 20:41:19.000,268.748,-77.793,24576.143460
1 Jan 2020 20:41:49.000,267.725,-78.072,24410.571355
1 Jan 2020 20:42:19.000,266.626,-78.362,24250.196617
1 Jan 2020 20:42:49.000,265.444,-78.663,24095.259185
1 Jan 2020 20:43:19.000,264.170,-78.974,23945.994456
1 Jan 2020 20:43:49.000,262.793,-79.294,23802.633759
1 Jan 2020 20:44:19.000,261.303,-79.623,23665.403223
1 Jan 2020 20:44:49.000,259.687,-79.958,23534.522708
1 Jan 2020 20:45:19.000,257.929,-80.298,23410.205871
1 Jan 2020 20:45:49.000,256.013,-80.642,23292.657884
1 Jan 2020 20:46:19.000,253.922,-80.987,23182.075494
1 Jan 2020 20:46:49.000,251.635,-81.331,23078.645901
1 Jan 2020 20:47:19.000,249.130,-81.672,22982.545682
1 Jan 2020 20:47:49.000,246.383,-82.007,22893.940741
1 Jan 2020 20:48:19.000,243.369,-82.333,22812.984237
1 Jan 2020 20:48:49.000,240.066,-82.646,22739.816627
1 Jan 2020 20:49:19.000,236.449,-82.941,22674.564574
1 Jan 2020 20:49:49.000,232.503,-83.214,22617.340752
1 Jan 2020 20:50:19.000,228.219,-83.461,22568.242439
1 Jan 2020 20:50:49.000,223.599,-83.676,22527.351482
1 Jan 2020 20:51:19.000,218.664,-83.854,22494.733609
1 Jan 2020 20:51:49.000,213.453,-83.991,22470.438329
1 Jan 2020 20:52:19.000,208.030,-84.084,22454.498165
1 Jan 2020 20:52:49.000,202.473,-84.128,22446.928771
1 Jan 2020 20:53:19.000,196.877,-84.123,22447.728738
1 Jan 2020 20:53:49.000,191.339,-84.069,22456.879641
1 Jan 2020 20:54:19.000,185.950,-83.968,22474.346039
1 Jan 2020 20:54:49.000,180.784,-83.824,22500.075757
1 Jan 2020 20:55:19.000,175.900,-83.639,22534.000213
1 Jan 2020 20:55:49.000,171.329,-83.419,22576.034632
1 Jan 2020 20:56:19.000,167.089,-83.170,22626.078773
1 Jan 2020 20:56:49.000,163.178,-82.895,22684.017348
1 Jan 2020 20:57:19.000,159.585,-82.600,22749.720786
1 Jan 2020 20:57:49.000,156.291,-82.289,22823.045566
1 Jan 2020 20:58:19.000,153.273,-81.967,22903.835521
1 Jan 2020 20:58:49.000,150.506,-81.636,22991.922297
1 Jan 2020 20:59:19.000,147.967,-81.299,23087.126283
1 Jan 2020 20:59:49.000,145.631,-80.961,23189.257662
1 Jan 2020 21:00:19.000,143.478,-80.622,23298.116603
1 Jan 2020 21:00:49.000,141.487,-80.286,23413.495198
1 Jan 2020 21:01:19.000,139.641,-79.953,23535.177685
1 Jan 2020 21:01:49.000,137.923,-79.626,23662.941514
1 Jan 2020 21:02:19.000,136.319,-79.305,23796.558224
1 Jan 2020 21:02:49.000,134.817,-78.993,23935.794558
1 Jan 2020 21:03:19.000,133.406,-78.690,24080.412305
1 Jan 2020 21:03:49.000,132.075,-78.396,24230.170572
1 Jan 2020 21:04:19.000,130.816,-78.113,24384.825582
1 Jan 2020 21:04:49.000,129.622,-77.842,24544.131647
1 Jan 2020 21:05:19.000,128.485,-77.582,24707.841852
1 Jan 2020 21:05:49.000,127.400,-77.334,24875.708703
1 Jan 2020 21:06:19.000,126.360,-77.099,25047.484727
1 Jan 2020 21:06:49.000,125.362,-76.876,25222.923333
1 Jan 2020 21:07:19.000,124.400,-76.667,25401.778132
1 Jan 2020 21:07:49.000,123.471,-76.470,25583.805188
1 Jan 2020 21:08:19.000,122.571,-76.287,25768.762263
1 Jan 2020 21:08:49.000,121.697,-76.117,25956.409503
1 Jan 2020 21:09:19.000,120.846,-75.961,26146.509784
1 Jan 2020 21:09:49.000,120.016,-75.817,26338.829020
1 Jan 2020 21:10:19.000,119.204,-75.687,26533.136441
1 Jan 2020 21:10:49.000,118.408,-75.569,26729.204831
1 Jan 2020 21:11:19.000,117.626,-75.465,26926.810739
1 Jan 2020 21:11:49.000,116.856,-75.373,27125.734660
1 Jan 2020 21:12:19.000,116.095,-75.293,27325.761184
1 Jan 2020 21:12:49.000,115.344,-75.226,27526.679128
1 Jan 2020 21:13:19.000,114.599,-75.171,27728.281637
1 Jan 2020 21:13:49.000,113.860,-75.128,27930.366271
1 Jan 2020 21:14:19.000,113.125,-75.097,28132.735068
1 Jan 2020 21:14:49.000,112.394,-75.077,28335.194594
1 Jan 2020 21:15:19.000,111.663,-75.068,28537.555970
1 Jan 2020 21:15:28.910,111.422,-75.067,28604.352605
1 Jan 2020 22:20:29.210,269.831,-75.077,28609.083393
1 Jan 2020 22:20:59.000,268.377,-75.079,28490.154716
1 Jan 2020 22:21:29.000,266.895,-75.084,28373.048841
1 Jan 2020 22:21:59.000,265.392,-75.093,28258.745214
1 Jan 2020 22:22:29.000,263.868,-75.105,28147.372524
1 Jan 2020 22:22:59.000,262.324,-75.120,28039.056540
1 Jan 2020 22:23:29.000,260.758,-75.138,27933.919838
1 Jan 2020 22:23:59.000,259.171,-75.158,27832.081532
1 Jan 2020 22:24:29.000,257.562,-75.180,27733.656990
1 Jan 2020 22:24:59.000,255.932,-75.204,27638.757571
1 Jan 2020 22:25:29.000,254.279,-75.230,27547.490175
1 Jan 2020 22:25:59.000,252.605,-75.258,27459.957657
1 Jan 2020 22:26:29.000,250.910,-75.286,27376.257533
1 Jan 2020 22:26:59.000,249.193,-75.315,27296.482415
1 Jan 2020 22:27:29.000,247.455,-75.344,27220.719582
1 Jan 2020 22:27:59.000,245.697,-75.373,27149.050740
1 Jan 2020 22:28:29.000,243.919,-75.402,27081.551789
1 Jan 2020 22:28:59.000,242.121,-75.431,27018.292607
1 Jan 2020 22:29:29.000,240.305,-75.459,26959.336712
1 Jan 2020 22:29:59.000,238.472,-75.486,26904.741609
1 Jan 2020 22:30:29.000,236.622,-75.512,26854.557799
1 Jan 2020 22:30:59.000,234.756,-75.536,26808.829180
1 Jan 2020 22:31:29.000,232.876,-75.558,26767.592768
1 Jan 2020 22:31:59.000,230.983,-75.579,26730.878584
1 Jan 2020 22:32:29.000,229.078,-75.597,26698.709562
1 Jan 2020 22:32:59.000,227.163,-75.613,26671.101395
1 Jan 2020 22:33:29.000,225.238,-75.626,26648.062812
1 Jan 2020 22:33:59.000,223.306,-75.637,26629.595060
1 Jan 2020 22:34:29.000,221.369,-75.645,26615.692234
1 Jan 2020 22:34:59.000,219.426,-75.651,26606.341217
1 Jan 2020 22:35:29.000,217.482,-75.654,26601.521726
1 Jan 2020 22:35:59.000,215.535,-75.654,26601.206382
1 Jan 2020 22:36:29.000,213.590,-75.651,26605.360769
1 Jan 2020 22:36:59.000,211.645,-75.646,26613.943677
1 Jan 2020 22:37:29.000,209.705,-75.638,26626.907041
1 Jan 2020 22:37:59.000,207.769,-75.627,26644.196234
1 Jan 2020 22:38:29.000,205.839,-75.615,26665.750208
1 Jan 2020 22:38:59.000,203.916,-75.599,26691.501691
1 Jan 2020 22:39:29.000,202.002,-75.582,26721.377394
1 Jan 2020 22:39:59.000,200.098,-75.563,26755.298242
1 Jan 2020 22:40:29.000,198.205,-75.542,26793.179641
1 Jan 2020 22:40:59.000,196.323,-75.519,26834.931632
1 Jan 2020 22:41:29.000,194.453,-75.496,26880.459294
1 Jan 2020 22:41:59.000,192.597,-75.471,26929.662930
1 Jan 2020 22:42:29.000,190.755,-75.445,26982.438373
1 Jan 2020 22:42:59.000,188.927,-75.418,27038.677270
1 Jan 2020 22:43:29.000,187.113,-75.392,27098.267372
1 Jan 2020 22:43:59.000,185.315,-75.364,27161.092834
1 Jan 2020 22:44:29.000,183.532,-75.337,27227.034504
1 Jan 2020 22:44:59.000,181.764,-75.311,27295.970296
1 Jan 2020 22:45:29.000,180.012,-75.284,27367.775201
1 Jan 2020 22:45:59.000,178.275,-75.259,27442.321992
1 Jan 2020 22:46:29.000,176.553,-75.234,27519.481243
1 Jan 2020 22:46:59.000,174.846,-75.211,27599.121677
1 Jan 2020 22:47:29.000,173.154,-75.188,27681.110443
1 Jan 2020 22:47:59.000,171.477,-75.168,27765.313391
1 Jan 2020 22:48:29.000,169.813,-75.148,27851.595328
1 Jan 2020 22:48:59.000,168.163,-75.131,27939.820279
1 Jan 2020 22:49:29.000,166.526,-75.116,28029.851731
1 Jan 2020 22:49:59.000,164.902,-75.102,28121.552873
1 Jan 2020 22:50:29.000,163.290,-75.091,28214.786822
1 Jan 2020 22:50:59.000,161.690,-75.082,28309.416840
1 Jan 2020 22:51:29.000,160.100,-75.076,28405.306549
1 Jan 2020 22:51:59.000,158.521,-75.072,28502.320122
1 Jan 2020 22:52:29.000,156.951,-75.070,28600.322478
1 Jan 2020 22:52:31.779,156.806,-75.070,28609.444632
2 Jan 2020 01:15:15.992,53.358,-75.073,28609.781011
2 Jan 2020 01:15:45.000,52.127,-75.076,28462.451933
2 Jan 2020 01:16:15.000,50.847,-75.085,28310.212632
2 Jan 2020 01:16:45.000,49.556,-75.101,28158.259676
2 Jan 2020 01:17:15.000,48.255,-75.122,28006.756661
2 Jan 2020 01:17:45.000,46.941,-75.150,27855.870228
2 Jan 2020 01:18:15.000,45.613,-75.185,27705.769956
2 Jan 2020 01:18:45.000,44.270,-75.226,27556.628221
2 Jan 2020 01:19:15.000,42.910,-75.273,27408.620062
2 Jan 2020 01:19:45.000,41.531,-75.327,27261.923010
2 Jan 2020 01:20:15.000,40.132,-75.386,27116.716908
2 Jan 2020 01:20:45.000,38.710,-75.452,26973.183719
2 Jan 2020 01:21:15.000,37.266,-75.524,26831.507300
2 Jan 2020 01:21:45.000,35.795,-75.601,26691.873170
2 Jan 2020 01:22:15.000,34.298,-75.685,26554.468245
2 Jan 2020 01:22:45.000,32.771,-75.773,26419.480561
2 Jan 2020 01:23:15.000,31.213,-75.866,26287.098973
2 Jan 2020 01:23:45.000,29.623,-75.965,26157.512825
2 Jan 2020 01:24:15.000,27.997,-76.067,26030.911608
2 Jan 2020 01:24:45.000,26.334,-76.174,25907.484406
2 Jan 2020 01:25:15.000,24.633,-76.284,25787.420242
2 Jan 2020 01:25:45.000,22.891,-76.397,25670.906551
2 Jan 2020 01:26:15.000,21.107,-76.512,25558.129495
2 Jan 2020 01:26:45.000,19.279,-76.630,25449.273322
2 Jan 2020 01:27:15.000,17.405,-76.748,25344.519896
2 Jan 2020 01:27:45.000,15.484,-76.867,25244.048206
2 Jan 2020 01:28:15.000,13.515,-76.986,25148.033864
2 Jan 2020 01:28:45.000,11.496,-77.104,25056.648470
2 Jan 2020 01:29:15.000,9.428,-77.221,24970.059584
2 Jan 2020 01:29:45.000,7.309,-77.334,24888.429430
2 Jan 2020 01:30:15.000,5.139,-77.445,24811.914880
2 Jan 2020 01:30:45.000,2.920,-77.551,24740.666788
2 Jan 2020 01:31:15.000,0.651,-77.652,24674.829452
2 Jan 2020 01:31:45.000,358.335,-77.748,24614.540031
2 Jan 2020 01:32:15.000,355.973,-77.836,24559.928288
2 Jan 2020 01:32:45.000,353.568,-77.917,24511.115687
2 Jan 2020 01:33:15.000,351.124,-77.990,24468.215200
2 Jan 2020 01:33:45.000,348.643,-78.053,24431.330770
2 Jan 2020 01:34:15.000,346.131,-78.107,24400.556894
2 Jan 2020 01:34:45.000,343.593,-78.151,24375.978224
2 Jan 2020 01:35:15.000,341.034,-78.184,24357.669222
2 Jan 2020 01:35:45.000,338.460,-78.205,24345.693805
2 Jan 2020 01:36:15.000,335.878,-78.215,24340.105109
2 Jan 2020 01:36:45.000,333.293,-78.214,24340.945242
2 Jan 2020 01:37:15.000,330.712,-78.201,24348.245159
2 Jan 2020 01:37:45.000,328.143,-78.176,24362.024325
2 Jan 2020 01:38:15.000,325.591,-78.140,24382.290922
2 Jan 2020 01:38:45.000,323.063,-78.093,24409.041639
2 Jan 2020 01:39:15.000,320.565,-78.035,24442.261733
2 Jan 2020 01:39:45.000,318.102,-77.967,24481.925214
2 Jan 2020 01:40:15.000,315.678,-77.890,24527.994552
2 Jan 2020 01:40:45.000,313.299,-77.804,24580.421456
2 Jan 2020 01:41:15.000,310.968,-77.710,24639.146700
2 Jan 2020 01:41:45.000,308.689,-77.608,24704.100485
2 Jan 2020 01:42:15.000,306.463,-77.501,24775.202889
2 Jan 2020 01:42:45.000,304.293,-77.388,24852.363628
2 Jan 2020 01:43:15.000,302.180,-77.270,24935.483301
2 Jan 2020 01:43:45.000,300.124,-77.149,25024.453224
2 Jan 2020 01:44:15.000,298.128,-77.025,25119.156014
2 Jan 2020 01:44:45.000,296.189,-76.899,25219.466039
2 Jan 2020 01:45:15.000,294.309,-76.773,25325.250117
2 Jan 2020 01:45:45.000,292.486,-76.646,25436.367139
2 Jan 2020 01:46:15.000,290.718,-76.520,25552.669854
2 Jan 2020 01:46:45.000,289.006,-76.396,25674.004532
2 Jan 2020 01:47:15.000,287.348,-76.274,25800.211676
2 Jan 2020 01:47:45.000,285.741,-76.155,25931.126538
2 Jan 2020 01:48:15.000,284.185,-76.040,26066.579619
2 Jan 2020 01:48:45.000,282.677,-75.930,26206.397427
2 Jan 2020 01:49:15.000,281.217,-75.824,26350.401932
2 Jan 2020 01:49:45.000,279.801,-75.723,26498.412583
2 Jan 2020 01:50:15.000,278.428,-75.629,26650.245743
2 Jan 2020 01:50:45.000,277.097,-75.541,26805.715398
2 Jan 2020 01:51:15.000,275.806,-75.460,26964.633575
2 Jan 2020 01:51:45.000,274.552,-75.385,27126.810758
2 Jan 2020 01:52:15.000,273.334,-75.319,27292.056275
2 Jan 2020 01:52:45.000,272.150,-75.259,27460.178669
2 Jan 2020 01:53:15.000,270.999,-75.208,27630.986045
2 Jan 2020 01:53:45.000,269.878,-75.165,27804.286405
2 Jan 2020 01:54:15.000,268.788,-75.131,27979.888252
2 Jan 2020 01:54:45.000,267.724,-75.105,28157.599670
2 Jan 2020 01:55:15.000,266.688,-75.087,28337.230403
2 Jan 2020 01:55:45.000,265.676,-75.078,28518.590900
2 Jan 2020 01:55:59.808,265.185,-75.077,28608.691833
2 Jan 2020 02:59:21.035,76.090,-75.069,28604.045572
2 Jan 2020 02:59:51.000,75.967,-75.075,28382.103544
2 Jan 2020 03:00:21.000,75.854,-75.095,28159.971929
2 Jan 2020 03:00:51.000,75.751,-75.129,27938.112668
2 Jan 2020 03:01:21.000,75.658,-75.176,27716.733825
2 Jan 2020 03:01:51.000,75.575,-75.238,27496.048180
2 Jan 2020 03:02:21.000,75.501,-75.314,27276.273186
2 Jan 2020 03:02:51.000,75.438,-75.405,27057.630906
2 Jan 2020 03:03:21.000,75.384,-75.511,26840.347926
2 Jan 2020 03:03:51.000,75.341,-75.633,26624.655246
2 Jan 2020 03:04:21.000,75.309,-75.770,26410.788143
2 Jan 2020 03:04:51.000,75.287,-75.923,26198.986010
2 Jan 2020 03:05:21.000,75.277,-76.092,25989.492159
2 Jan 2020 03:05:51.000,75.279,-76.277,25782.553594
2 Jan 2020 03:06:21.000,75.292,-76.479,25578.420742
2 Jan 2020 03:06:51.000,75.319,-76.698,25377.347155
2 Jan 2020 03:07:21.000,75.358,-76.933,25179.588839
2 Jan 2020 03:07:51.000,75.413,-77.186,24985.405152
2 Jan 2020 03:08:21.000,75.482,-77.455,24795.056433
2 Jan 2020 03:08:51.000,75.568,-77.741,24608.804814
2 Jan 2020 03:09:21.000,75.672,-78.044,24426.913359
2 Jan 2020 03:09:51.000,75.795,-78.364,24249.645487
2 Jan 2020 03:10:21.000,75.940,-78.701,24077.264327
2 Jan 2020 03:10:51.000,76.108,-79.055,23910.031738
2 Jan 2020 03:11:21.000,76.302,-79.425,23748.208784
2 Jan 2020 03:11:51.000,76.526,-79.811,23592.053107
2 Jan 2020 03:12:21.000,76.784,-80.213,23441.819329
2 Jan 2020 03:12:51.000,77.079,-80.630,23297.757860
2 Jan 2020 03:13:21.000,77.420,-81.063,23160.113753
2 Jan 2020 03:13:51.000,77.812,-81.510,23029.126678
2 Jan 2020 03:14:21.000,78.266,-81.970,22905.028524
2 Jan 2020 03:14:51.000,78.793,-82.444,22788.043353
2 Jan 2020 03:15:21.000,79.411,-82.931,22678.386138
2 Jan 2020 03:15:51.000,80.141,-83.429,22576.261543
2 Jan 2020 03:16:21.000,81.011,-83.937,22481.863719
2 Jan 2020 03:16:51.000,82.064,-84.454,22395.374064
2 Jan 2020 03:17:21.000,83.357,-84.980,22316.961095
2 Jan 2020 03:17:51.000,84.978,-85.511,22246.779183
2 Jan 2020 03:18:21.000,87.060,-86.045,22184.968164
2 Jan 2020 03:18:51.000,89.822,-86.580,22131.651762
2 Jan 2020 03:19:21.000,93.632,-87.110,22086.937371
2 Jan 2020 03:19:51.000,99.159,-87.627,22050.915196
2 Jan 2020 03:20:21.000,107.677,-88.113,22023.657962
2 Jan 2020 03:20:51.000,121.586,-88.533,22005.220026
2 Jan 2020 03:21:21.000,144.027,-88.810,21995.637331
2 Jan 2020 03:21:51.000,172.735,-88.834,21994.927092
2 Jan 2020 03:22:21.000,196.671,-88.592,22003.087691
2 Jan 2020 03:22:51.000,211.797,-88.189,22020.098649
2 Jan 2020 03:23:21.000,221.020,-87.710,22045.920797
2 Jan 2020 03:23:51.000,226.957,-87.198,22080.496575
2 Jan 2020 03:24:21.000,231.030,-86.670,22123.750136
2 Jan 2020 03:24:51.000,233.978,-86.136,22175.588188
2 Jan 2020 03:25:21.000,236.208,-85.602,22235.900338
2 Jan 2020 03:25:51.000,237.955,-85.071,22304.559944
2 Jan 2020 03:26:21.000,239.364,-84.546,22381.424373
2 Jan 2020 03:26:51.000,240.529,-84.028,22466.336548
2 Jan 2020 03:27:21.000,241.512,-83.520,22559.125370
2 Jan 2020 03:27:51.000,242.356,-83.022,22659.606943
2 Jan 2020 03:28:21.000,243.093,-82.535,22767.584883
2 Jan 2020 03:28:51.000,243.744,-82.060,22882.852304
2 Jan 2020 03:29:21.000,244.327,-81.598,23005.192195
2 Jan 2020 03:29:51.000,244.856,-81.151,23134.378606
2 Jan 2020 03:30:21.000,245.339,-80.717,23270.177914
2 Jan 2020 03:30:51.000,245.786,-80.298,23412.348850
2 Jan 2020 03:31:21.000,246.202,-79.895,23560.644930
2 Jan 2020 03:31:51.000,246.593,-79.508,23714.814461
2 Jan 2020 03:32:21.000,246.962,-79.136,23874.601686
2 Jan 2020 03:32:51.000,247.314,-78.781,24039.747669
2 Jan 2020 03:33:21.000,247.652,-78.443,24209.991415
2 Jan 2020 03:33:51.000,247.977,-78.121,24385.069497
2 Jan 2020 03:34:21.000,248.292,-77.816,24564.718517
2 Jan 2020 03:34:51.000,248.598,-77.528,24748.674648
2 Jan 2020 03:35:21.000,248.899,-77.256,24936.674550
2 Jan 2020 03:35:51.000,249.193,-77.001,25128.455947
2 Jan 2020 03:36:21.000,249.484,-76.764,25323.758160
2 Jan 2020 03:36:51.000,249.772,-76.542,25522.322586
2 Jan 2020 03:37:21.000,250.057,-76.337,25723.893128
2 Jan 2020 03:37:51.000,250.342,-76.149,25928.216581
2 Jan 2020 03:38:21.000,250.626,-75.977,26135.043326
2 Jan 2020 03:38:51.000,250.910,-75.820,26344.126232
2 Jan 2020 03:39:21.000,251.196,-75.680,26555.223007
2 Jan 2020 03:39:51.000,251.483,-75.554,26768.095035
2 Jan 2020 03:40:21.000,251.772,-75.444,26982.507913
2 Jan 2020 03:40:51.000,252.065,-75.349,27198.231612
2 Jan 2020 03:41:21.000,252.360,-75.269,27415.040612
2 Jan 2020 03:41:51.000,252.660,-75.203,27632.714002
2 Jan 2020 03:42:21.000,252.964,-75.151,27851.035569
2 Jan 2020 03:42:51.000,253.272,-75.112,28069.793858
2 Jan 2020 03:43:21.000,253.587,-75.087,28288.782213
2 Jan 2020 03:43:51.000,253.907,-75.075,28507.798804
2 Jan 2020 03:44:03.901,254.046,-75.074,28601.945639
2 Jan 2020 04:47:46.293,86.648,-75.065,28596.824098
2 Jan 2020 04:48:16.000,87.801,-75.068,28433.242872
2 Jan 2020 04:48:46.000,88.988,-75.079,28270.017824
2 Jan 2020 04:49:16.000,90.201,-75.097,28108.948475
2 Jan 2020 04:49:46.000,91.441,-75.121,27950.210170
2 Jan 2020 04:50:16.000,92.707,-75.153,27793.977960
2 Jan 2020 04:50:46.000,94.003,-75.190,27640.426317
2 Jan 2020 04:51:16.000,95.329,-75.234,27489.728835
2 Jan 2020 04:51:46.000,96.686,-75.283,27342.057917
2 Jan 2020 04:52:16.000,98.075,-75.338,27197.584441
2 Jan 2020 04:52:46.000,99.498,-75.399,27056.477419
2 Jan 2020 04:53:16.000,100.956,-75.464,26918.903393
2 Jan 2020 04:53:46.000,102.451,-75.533,26785.027044
2 Jan 2020 04:54:16.000,103.982,-75.607,26655.009330
2 Jan 2020 04:54:46.000,105.552,-75.684,26529.008084
2 Jan 2020 04:55:16.000,107.160,-75.764,26407.177364
2 Jan 2020 04:55:46.000,108.809,-75.847,26289.667039
2 Jan 2020 04:56:16.000,110.498,-75.931,26176.622377
2 Jan 2020 04:56:46.000,112.229,-76.017,26068.183425
2 Jan 2020 04:57:16.000,114.001,-76.104,25964.485411
2 Jan 2020 04:57:46.000,115.815,-76.191,25865.657084
2 Jan 2020 04:58:16.000,117.671,-76.278,25771.821142
2 Jan 2020 04:58:46.000,119.568,-76.364,25683.093614
2 Jan 2020 04:59:16.000,121.507,-76.448,25599.583470
2 Jan 2020 04:59:46.000,123.486,-76.529,25521.392081
2 Jan 2020 05:00:16.000,125.504,-76.608,25448.613503
2 Jan 2020 05:00:46.000,127.561,-76.683,25381.333153
2 Jan 2020 05:01:16.000,129.654,-76.754,25319.628153
2 Jan 2020 05:01:46.000,131.782,-76.820,25263.566863
2 Jan 2020 05:02:16.000,133.942,-76.881,25213.208624
2 Jan 2020 05:02:46.000,136.131,-76.936,25168.603398
2 Jan 2020 05:03:16.000,138.348,-76.985,25129.792044
2 Jan 2020 05:03:46.000,140.588,-77.028,25096.805429
2 Jan 2020 05:04:16.000,142.848,-77.063,25069.664788
2 Jan 2020 05:04:46.000,145.125,-77.091,25048.381512
2 Jan 2020 05:05:16.000,147.414,-77.111,25032.957092
2 Jan 2020 05:05:46.000,149.713,-77.124,25023.383058
2 Jan 2020 05:06:16.000,152.017,-77.129,25019.641239
2 Jan 2020 05:06:46.000,154.321,-77.126,25021.703469
2 Jan 2020 05:07:16.000,156.622,-77.116,25029.531950
2 Jan 2020 05:07:46.000,158.917,-77.098,25043.079337
2 Jan 2020 05:08:16.000,161.201,-77.073,25062.288926
2 Jan 2020 05:08:46.000,163.471,-77.041,25087.094878
2 Jan 2020 05:09:16.000,165.723,-77.002,25117.422464
2 Jan 2020 05:09:46.000,167.955,-76.957,25153.188360
2 Jan 2020 05:10:16.000,170.164,-76.906,25194.300972
2 Jan 2020 05:10:46.000,172.347,-76.850,25240.660770
2 Jan 2020 05:11:16.000,174.502,-76.788,25292.160662
2 Jan 2020 05:11:46.000,176.628,-76.723,25348.686433
2 Jan 2020 05:12:16.000,178.723,-76.653,25410.116928
2 Jan 2020 05:12:46.000,180.785,-76.580,25476.324796
2 Jan 2020 05:13:16.000,182.814,-76.505,25547.176711
