STKdata/Satellite-MEO_Satellite10001-To-Satellite-LEO_Satellite20000 AER.csv

"Time (UTCG)","Azimuth (deg)","Elevation (deg)","Range (km)"
1 Jan 2020 00:02:53.090,172.808,-75.075,28602.834874
1 Jan 2020 00:03:23.000,173.762,-75.078,28452.335916
1 Jan 2020 00:03:53.000,174.732,-75.087,28302.108960
1 Jan 2020 00:04:23.000,175.714,-75.102,28152.704704
1 Jan 2020 00:04:53.000,176.710,-75.123,28004.219048
1 Jan 2020 00:05:23.000,177.720,-75.150,27856.748621
1 Jan 2020 00:05:53.000,178.745,-75.183,27710.390724
1 Jan 2020 00:06:23.000,179.787,-75.222,27565.243273
1 Jan 2020 00:06:53.000,180.845,-75.267,27421.404730
1 Jan 2020 00:07:23.000,181.921,-75.318,27278.974040
1 Jan 2020 00:07:53.000,183.015,-75.375,27138.050553
1 Jan 2020 00:08:23.000,184.130,-75.437,26998.733943
1 Jan 2020 00:08:53.000,185.265,-75.505,26861.124126
1 Jan 2020 00:09:23.000,186.422,-75.579,26725.321169
1 Jan 2020 00:09:53.000,187.602,-75.658,26591.425193
1 Jan 2020 00:10:23.000,188.806,-75.742,26459.536271
1 Jan 2020 00:10:53.000,190.035,-75.831,26329.754319
1 Jan 2020 00:11:23.000,191.291,-75.925,26202.178986
1 Jan 2020 00:11:53.000,192.574,-76.023,26076.909271
1 Jan 2020 00:12:23.000,193.886,-76.127,25954.044448
1 Jan 2020 00:12:53.000,195.229,-76.234,25833.682356
1 Jan 2020 00:13:23.000,196.603,-76.345,25715.920318
1 Jan 2020 00:13:53.000,198.010,-76.460,25600.854737
1 Jan 2020 00:14:23.000,199.451,-76.578,25488.580950
1 Jan 2020 00:14:53.000,200.928,-76.700,25379.193076
1 Jan 2020 00:15:23.000,202.442,-76.823,25272.783858
1 Jan 2020 00:15:53.000,203.995,-76.950,25169.444509
1 Jan 2020 00:16:23.000,205.587,-77.077,25069.264546
1 Jan 2020 00:16:53.000,207.221,-77.207,24972.331416
1 Jan 2020 00:17:23.000,208.897,-77.337,24878.731165
1 Jan 2020 00:17:53.000,210.617,-77.468,24788.547005
1 Jan 2020 00:18:23.000,212.382,-77.598,24701.859988
1 Jan 2020 00:18:53.000,214.192,-77.728,24618.748624
1 Jan 2020 00:19:23.000,216.050,-77.857,24539.288710
1 Jan 2020 00:19:53.000,217.955,-77.984,24463.553157
1 Jan 2020 00:20:23.000,219.907,-78.108,24391.611822
1 Jan 2020 00:20:53.000,221.908,-78.230,24323.531203
1 Jan 2020 00:21:23.000,223.957,-78.348,24259.374854
1 Jan 2020 00:21:53.000,226.054,-78.462,24199.202349
1 Jan 2020 00:22:23.000,228.198,-78.571,24143.069727
1 Jan 2020 00:22:53.000,230.389,-78.675,24091.029194
1 Jan 2020 00:23:23.000,232.624,-78.773,24043.128989
1 Jan 2020 00:23:53.000,234.902,-78.864,23999.413255
1 Jan 2020 00:24:23.000,237.221,-78.948,23959.921921
1 Jan 2020 00:24:53.000,239.578,-79.024,23924.690507
1 Jan 2020 00:25:23.000,241.970,-79.092,23893.750371
1 Jan 2020 00:25:53.000,244.393,-79.151,23867.128096
1 Jan 2020 00:26:23.000,246.843,-79.201,23844.845774
1 Jan 2020 00:26:53.000,249.316,-79.242,23826.920853
1 Jan 2020 00:27:23.000,251.808,-79.273,23813.366091
1 Jan 2020 00:27:53.000,254.313,-79.294,23804.189520
1 Jan 2020 00:28:23.000,256.825,-79.305,23799.394413
1 Jan 2020 00:28:53.000,259.341,-79.306,23798.979338
1 Jan 2020 00:29:23.000,261.855,-79.296,23802.938062
1 Jan 2020 00:29:53.000,264.361,-79.277,23811.259652
1 Jan 2020 00:30:23.000,266.854,-79.248,23823.928487
1 Jan 2020 00:30:53.000,269.329,-79.209,23840.924312
1 Jan 2020 00:31:23.000,271.783,-79.161,23862.222297
1 Jan 2020 00:31:53.000,274.210,-79.103,23887.793163
1 Jan 2020 00:32:23.000,276.607,-79.037,23917.603085
1 Jan 2020 00:32:53.000,278.969,-78.963,23951.614060
1 Jan 2020 00:33:23.000,281.295,-78.882,23989.783848
1 Jan 2020 00:33:53.000,283.582,-78.793,24032.066134
1 Jan 2020 00:34:23.000,285.826,-78.698,24078.410659
1 Jan 2020 00:34:53.000,288.028,-78.597,24128.763363
1 Jan 2020 00:35:23.000,290.184,-78.490,24183.066529
1 Jan 2020 00:35:53.000,292.295,-78.379,24241.259062
1 Jan 2020 00:36:23.000,294.359,-78.264,24303.276172
1 Jan 2020 00:36:53.000,296.377,-78.145,24369.050244
1 Jan 2020 00:37:23.000,298.349,-78.023,24438.510544
1 Jan 2020 00:37:53.000,300.274,-77.899,24511.583507
1 Jan 2020 00:38:23.000,302.154,-77.773,24588.192914
1 Jan 2020 00:38:53.000,303.989,-77.646,24668.260063
1 Jan 2020 00:39:23.000,305.780,-77.518,24751.703952
1 Jan 2020 00:39:53.000,307.528,-77.390,24838.441451
1 Jan 2020 00:40:23.000,309.235,-77.262,24928.387476
1 Jan 2020 00:40:53.000,310.901,-77.136,25021.455369
1 Jan 2020 00:41:23.000,312.527,-77.010,25117.556267
1 Jan 2020 00:41:53.000,314.116,-76.886,25216.600455
1 Jan 2020 00:42:23.000,315.669,-76.764,25318.496748
1 Jan 2020 00:42:53.000,317.186,-76.645,25423.152847
1 Jan 2020 00:43:23.000,318.670,-76.528,25530.475489
1 Jan 2020 00:43:53.000,320.121,-76.414,25640.370599
1 Jan 2020 00:44:23.000,321.542,-76.304,25752.743439
1 Jan 2020 00:44:53.000,322.933,-76.197,25867.498742
1 Jan 2020 00:45:23.000,324.295,-76.095,25984.540847
1 Jan 2020 00:45:53.000,325.631,-75.996,26103.773827
1 Jan 2020 00:46:23.000,326.941,-75.901,26225.101611
1 Jan 2020 00:46:53.000,328.226,-75.811,26348.428099
1 Jan 2020 00:47:23.000,329.489,-75.726,26473.657270
1 Jan 2020 00:47:53.000,330.729,-75.646,26600.693287
1 Jan 2020 00:48:23.000,331.948,-75.570,26729.440855
1 Jan 2020 00:48:53.000,333.148,-75.499,26859.804267
1 Jan 2020 00:49:23.000,334.328,-75.434,26991.689052
1 Jan 2020 00:49:53.000,335.491,-75.374,27125.001014
1 Jan 2020 00:50:23.000,336.637,-75.319,27259.646568
1 Jan 2020 00:50:53.000,337.767,-75.269,27395.532806
1 Jan 2020 00:51:23.000,338.882,-75.225,27532.567558
1 Jan 2020 00:51:53.000,339.983,-75.186,27670.659454
1 Jan 2020 00:52:23.000,341.071,-75.153,27809.717971
1 Jan 2020 00:52:53.000,342.147,-75.125,27949.653487
1 Jan 2020 00:53:23.000,343.210,-75.103,28090.377321
1 Jan 2020 00:53:53.000,344.263,-75.086,28231.801771
1 Jan 2020 00:54:23.000,345.306,-75.075,28373.840155
1 Jan 2020 00:54:53.000,346.339,-75.069,28516.406835
1 Jan 2020 00:55:11.612,346.976,-75.068,28605.085217
1 Jan 2020 02:13:48.699,210.103,-75.075,28609.885703
1 Jan 2020 02:14:18.000,210.944,-75.078,28453.987688
1 Jan 2020 02:14:48.000,211.810,-75.088,28294.487548
1 Jan 2020 02:15:18.000,212.683,-75.105,28135.204919
1 Jan 2020 02:15:48.000,213.563,-75.129,27976.241477
1 Jan 2020 02:16:18.000,214.451,-75.160,27817.700806
1 Jan 2020 02:16:48.000,215.347,-75.198,27659.688373
1 Jan 2020 02:17:18.000,216.253,-75.243,27502.311506
1 Jan 2020 02:17:48.000,217.170,-75.295,27345.679362
1 Jan 2020 02:18:18.000,218.099,-75.355,27189.902894
1 Jan 2020 02:18:48.000,219.040,-75.423,27035.094802
1 Jan 2020 02:19:18.000,219.996,-75.497,26881.369491
1 Jan 2020 02:19:48.000,220.966,-75.579,26728.843007
1 Jan 2020 02:20:18.000,221.953,-75.669,26577.632977
1 Jan 2020 02:20:48.000,222.958,-75.766,26427.858531
1 Jan 2020 02:21:18.000,223.981,-75.870,26279.640227
1 Jan 2020 02:21:48.000,225.026,-75.982,26133.099954
1 Jan 2020 02:22:18.000,226.093,-76.101,25988.360834
1 Jan 2020 02:22:48.000,227.183,-76.227,25845.547110
1 Jan 2020 02:23:18.000,228.300,-76.361,25704.784027
1 Jan 2020 02:23:48.000,229.444,-76.501,25566.197699
1 Jan 2020 02:24:18.000,230.618,-76.648,25429.914710
1 Jan 2020 02:24:48.000,231.824,-76.801,25296.062984
1 Jan 2020 02:25:18.000,233.065,-76.961,25164.770075
1 Jan 2020 02:25:48.000,234.342,-77.127,25036.164028
1 Jan 2020 02:26:18.000,235.660,-77.299,24910.372921
1 Jan 2020 02:26:48.000,237.019,-77.476,24787.524670
1 Jan 2020 02:27:18.000,238.424,-77.658,24667.746813
1 Jan 2020 02:27:48.000,239.878,-77.845,24551.166284
1 Jan 2020 02:28:18.000,241.383,-78.036,24437.909180
1 Jan 2020 02:28:48.000,242.944,-78.230,24328.100511
1 Jan 2020 02:29:18.000,244.565,-78.428,24221.863730
1 Jan 2020 02:29:48.000,246.249,-78.628,24119.321328
1 Jan 2020 02:30:18.000,247.999,-78.829,24020.593254
1 Jan 2020 02:30:48.000,249.822,-79.032,23925.797507
1 Jan 2020 02:31:18.000,251.719,-79.235,23835.049629
1 Jan 2020 02:31:48.000,253.696,-79.436,23748.462404
1 Jan 2020 02:32:18.000,255.757,-79.636,23666.145561
1 Jan 2020 02:32:48.000,257.906,-79.834,23588.205337
1 Jan 2020 02:33:18.000,260.146,-80.027,23514.744717
1 Jan 2020 02:33:48.000,262.480,-80.215,23445.862305
1 Jan 2020 02:34:18.000,264.912,-80.397,23381.652584
1 Jan 2020 02:34:48.000,267.442,-80.571,23322.205474
1 Jan 2020 02:35:18.000,270.072,-80.736,23267.606051
1 Jan 2020 02:35:48.000,272.801,-80.891,23217.934263
1 Jan 2020 02:36:18.000,275.627,-81.035,23173.264580
1 Jan 2020 02:36:48.000,278.548,-81.165,23133.666065
1 Jan 2020 02:37:18.000,281.556,-81.281,23099.201628
1 Jan 2020 02:37:48.000,284.645,-81.382,23069.928147
1 Jan 2020 02:38:18.000,287.806,-81.466,23045.896172
1 Jan 2020 02:38:48.000,291.026,-81.532,23027.149736
1 Jan 2020 02:39:18.000,294.294,-81.580,23013.726189
1 Jan 2020 02:39:48.000,297.594,-81.610,23005.656088
1 Jan 2020 02:40:18.000,300.910,-81.619,23002.963011
1 Jan 2020 02:40:48.000,304.227,-81.609,23005.663526
1 Jan 2020 02:41:18.000,307.528,-81.580,23013.767102
1 Jan 2020 02:41:48.000,310.797,-81.532,23027.276079
1 Jan 2020 02:42:18.000,314.018,-81.464,23046.185710
1 Jan 2020 02:42:48.000,317.180,-81.379,23070.483955
1 Jan 2020 02:43:18.000,320.268,-81.277,23100.151842
1 Jan 2020 02:43:48.000,323.275,-81.159,23135.163337
1 Jan 2020 02:44:18.000,326.190,-81.027,23175.485486
1 Jan 2020 02:44:48.000,329.010,-80.881,23221.078534
1 Jan 2020 02:45:18.000,331.729,-80.722,23271.896188
1 Jan 2020 02:45:48.000,334.345,-80.553,23327.885318
1 Jan 2020 02:46:18.000,336.857,-80.375,23388.986829
1 Jan 2020 02:46:48.000,339.265,-80.188,23455.135418
1 Jan 2020 02:47:18.000,341.572,-79.995,23526.259908
1 Jan 2020 02:47:48.000,343.779,-79.796,23602.283488
1 Jan 2020 02:48:18.000,345.890,-79.593,23683.123962
1 Jan 2020 02:48:48.000,347.908,-79.387,23768.694217
1 Jan 2020 02:49:18.000,349.837,-79.179,23858.901702
1 Jan 2020 02:49:48.000,351.681,-78.970,23953.649883
1 Jan 2020 02:50:18.000,353.443,-78.761,24052.837755
1 Jan 2020 02:50:48.000,355.129,-78.553,24156.360323
1 Jan 2020 02:51:18.000,356.743,-78.347,24264.108897
1 Jan 2020 02:51:48.000,358.287,-78.143,24375.971378
1 Jan 2020 02:52:18.000,359.767,-77.942,24491.832554
1 Jan 2020 02:52:48.000,1.186,-77.745,24611.574636
1 Jan 2020 02:53:18.000,2.548,-77.553,24735.076534
1 Jan 2020 02:53:48.000,3.855,-77.366,24862.215637
1 Jan 2020 02:54:18.000,5.112,-77.184,24992.867086
1 Jan 2020 02:54:48.000,6.321,-77.007,25126.904289
1 Jan 2020 02:55:18.000,7.485,-76.838,25264.199166
1 Jan 2020 02:55:48.000,8.606,-76.674,25404.622400
1 Jan 2020 02:56:18.000,9.688,-76.518,25548.043668
1 Jan 2020 02:56:48.000,10.733,-76.369,25694.331868
1 Jan 2020 02:57:18.000,11.743,-76.228,25843.355328
1 Jan 2020 02:57:48.000,12.719,-76.094,25994.982011
1 Jan 2020 02:58:18.000,13.665,-75.968,26149.079709
1 Jan 2020 02:58:48.000,14.581,-75.850,26305.516539
1 Jan 2020 02:59:18.000,15.470,-75.740,26464.159830
1 Jan 2020 02:59:48.000,16.332,-75.638,26624.878204
1 Jan 2020 03:00:18.000,17.170,-75.545,26787.540448
1 Jan 2020 03:00:48.000,17.985,-75.460,26952.015962
1 Jan 2020 03:01:18.000,18.779,-75.384,27118.174895
1 Jan 2020 03:01:48.000,19.551,-75.315,27285.888252
1 Jan 2020 03:02:18.000,20.305,-75.256,27455.028010
1 Jan 2020 03:02:48.000,21.040,-75.205,27625.467209
1 Jan 2020 03:03:18.000,21.758,-75.162,27797.080045
1 Jan 2020 03:03:48.000,22.460,-75.128,27969.741952
1 Jan 2020 03:04:18.000,23.146,-75.102,28143.329671
1 Jan 2020 03:04:48.000,23.818,-75.084,28317.721317
1 Jan 2020 03:05:18.000,24.476,-75.075,28492.796441
1 Jan 2020 03:05:38.165,24.911,-75.073,28610.800010
1 Jan 2020 04:18:31.177,217.294,-75.072,28610.340008
1 Jan 2020 04:19:01.000,217.357,-75.077,28417.814535
1 Jan 2020 04:19:31.000,217.415,-75.092,28224.232472
1 Jan 2020 04:20:01.000,217.467,-75.117,28030.865887
1 Jan 2020 04:20:31.000,217.513,-75.152,27837.848894
1 Jan 2020 04:21:01.000,217.553,-75.199,27645.318238
1 Jan 2020 04:21:31.000,217.586,-75.256,27453.413270
1 Jan 2020 04:22:01.000,217.613,-75.324,27262.275929
1 Jan 2020 04:22:31.000,217.634,-75.403,27072.050700
1 Jan 2020 04:23:01.000,217.648,-75.494,26882.884574
1 Jan 2020 04:23:31.000,217.655,-75.596,26694.926993
1 Jan 2020 04:24:01.000,217.656,-75.710,26508.329787
1 Jan 2020 04:24:31.000,217.649,-75.836,26323.247093
1 Jan 2020 04:25:01.000,217.636,-75.974,26139.835268
1 Jan 2020 04:25:31.000,217.614,-76.124,25958.252787
1 Jan 2020 04:26:01.000,217.585,-76.287,25778.660123
1 Jan 2020 04:26:31.000,217.547,-76.462,25601.219611
1 Jan 2020 04:27:01.000,217.501,-76.650,25426.095305
1 Jan 2020 04:27:31.000,217.445,-76.850,25253.452802
1 Jan 2020 04:28:01.000,217.380,-77.062,25083.458737
1 Jan 2020 04:28:31.000,217.305,-77.288,24916.281878
1 Jan 2020 04:29:01.000,217.218,-77.526,24752.090939
1 Jan 2020 04:29:31.000,217.120,-77.777,24591.055650
1 Jan 2020 04:30:01.000,217.010,-78.041,24433.346158
1 Jan 2020 04:30:31.000,216.886,-78.318,24279.132739
1 Jan 2020 04:31:01.000,216.747,-78.607,24128.585490
1 Jan 2020 04:31:31.000,216.591,-78.909,23981.873998
1 Jan 2020 04:32:01.000,216.418,-79.223,23839.166715
1 Jan 2020 04:32:31.000,216.225,-79.549,23700.631676
1 Jan 2020 04:33:01.000,216.011,-79.888,23566.434458
1 Jan 2020 04:33:31.000,215.771,-80.238,23436.738873
1 Jan 2020 04:34:01.000,215.504,-80.600,23311.706260
1 Jan 2020 04:34:31.000,215.206,-80.973,23191.495033
1 Jan 2020 04:35:01.000,214.871,-81.358,23076.260227
1 Jan 2020 04:35:31.000,214.494,-81.753,22966.152781
1 Jan 2020 04:36:01.000,214.069,-82.158,22861.320015
1 Jan 2020 04:36:31.000,213.586,-82.572,22761.903687
1 Jan 2020 04:37:01.000,213.034,-82.996,22668.040477
1 Jan 2020 04:37:31.000,212.398,-83.429,22579.861250
1 Jan 2020 04:38:01.000,211.661,-83.869,22497.490562
1 Jan 2020 04:38:31.000,210.797,-84.316,22421.046017
1 Jan 2020 04:39:01.000,209.771,-84.770,22350.638460
1 Jan 2020 04:39:31.000,208.535,-85.229,22286.370509
1 Jan 2020 04:40:01.000,207.022,-85.692,22228.336809
1 Jan 2020 04:40:31.000,205.130,-86.156,22176.623448
1 Jan 2020 04:41:01.000,202.701,-86.621,22131.307489
1 Jan 2020 04:41:31.000,199.485,-87.083,22092.456980
1 Jan 2020 04:42:01.000,195.056,-87.535,22060.130091
1 Jan 2020 04:42:31.000,188.666,-87.970,22034.375218
1 Jan 2020 04:43:01.000,178.966,-88.369,22015.230663
1 Jan 2020 04:43:31.000,163.755,-88.695,22002.724425
1 Jan 2020 04:44:01.000,141.278,-88.880,21996.874167
1 Jan 2020 04:44:31.000,115.491,-88.853,21997.686961
1 Jan 2020 04:45:01.000,94.721,-88.626,22005.159379
1 Jan 2020 04:45:31.000,81.063,-88.278,22019.277473
1 Jan 2020 04:46:01.000,72.313,-87.868,22040.016891
1 Jan 2020 04:46:31.000,66.470,-87.429,22067.342818
1 Jan 2020 04:47:01.000,62.361,-86.974,22101.210381
1 Jan 2020 04:47:31.000,59.334,-86.512,22141.564718
1 Jan 2020 04:48:01.000,57.017,-86.047,22188.341262
1 Jan 2020 04:48:31.000,55.186,-85.584,22241.466151
1 Jan 2020 04:49:01.000,53.702,-85.123,22300.856141
1 Jan 2020 04:49:31.000,52.471,-84.666,22366.419589
1 Jan 2020 04:50:01.000,51.431,-84.215,22438.056455
1 Jan 2020 04:50:31.000,50.538,-83.770,22515.658830
1 Jan 2020 04:51:01.000,49.760,-83.333,22599.111378
1 Jan 2020 04:51:31.000,49.074,-82.904,22688.292001
1 Jan 2020 04:52:01.000,48.462,-82.483,22783.071552
1 Jan 2020 04:52:31.000,47.911,-82.072,22883.315455
1 Jan 2020 04:53:01.000,47.409,-81.670,22988.883459
1 Jan 2020 04:53:31.000,46.950,-81.279,23099.630316
1 Jan 2020 04:54:01.000,46.525,-80.899,23215.406274
1 Jan 2020 04:54:31.000,46.130,-80.530,23336.057568
1 Jan 2020 04:55:01.000,45.759,-80.172,23461.427163
1 Jan 2020 04:55:31.000,45.410,-79.825,23591.354172
1 Jan 2020 04:56:01.000,45.080,-79.491,23725.675874
1 Jan 2020 04:56:31.000,44.765,-79.168,23864.227123
1 Jan 2020 04:57:01.000,44.463,-78.858,24006.841023
1 Jan 2020 04:57:31.000,44.173,-78.560,24153.349335
1 Jan 2020 04:58:01.000,43.893,-78.275,24303.582855
1 Jan 2020 04:58:31.000,43.621,-78.002,24457.371781
1 Jan 2020 04:59:01.000,43.357,-77.742,24614.546052
1 Jan 2020 04:59:31.000,43.099,-77.494,24774.935979
1 Jan 2020 05:00:01.000,42.846,-77.259,24938.371303
1 Jan 2020 05:00:31.000,42.598,-77.037,25104.683321
1 Jan 2020 05:01:01.000,42.353,-76.828,25273.703915
1 Jan 2020 05:01:31.000,42.112,-76.631,25445.266092
1 Jan 2020 05:02:01.000,41.873,-76.446,25619.204191
1 Jan 2020 05:02:31.000,41.635,-76.274,25795.354087
1 Jan 2020 05:03:01.000,41.399,-76.114,25973.553357
1 Jan 2020 05:03:31.000,41.164,-75.966,26153.641443
1 Jan 2020 05:04:01.000,40.930,-75.830,26335.459790
1 Jan 2020 05:04:31.000,40.695,-75.706,26518.851971
1 Jan 2020 05:05:01.000,40.460,-75.594,26703.663795
1 Jan 2020 05:05:31.000,40.224,-75.493,26889.743401
1 Jan 2020 05:06:01.000,39.988,-75.404,27076.941341
1 Jan 2020 05:06:31.000,39.750,-75.325,27265.110648
1 Jan 2020 05:07:01.000,39.510,-75.258,27454.106895
1 Jan 2020 05:07:31.000,39.269,-75.202,27643.788240
1 Jan 2020 05:08:01.000,39.025,-75.156,27834.015465
1 Jan 2020 05:08:31.000,38.779,-75.121,28024.652003
1 Jan 2020 05:09:01.000,38.530,-75.096,28215.563961
1 Jan 2020 05:09:31.000,38.278,-75.081,28406.620133
1 Jan 2020 05:10:01.000,38.023,-75.075,28597.692003
1 Jan 2020 05:10:02.785,38.007,-75.075,28609.055813
1 Jan 2020 06:23:47.079,198.955,-75.067,28604.014836
1 Jan 2020 06:24:17.000,198.164,-75.071,28438.827905
1 Jan 2020 06:24:47.000,197.358,-75.081,28273.903581
1 Jan 2020 06:25:17.000,196.539,-75.100,28109.789355
1 Jan 2020 06:25:47.000,195.704,-75.125,27946.596482
1 Jan 2020 06:26:17.000,194.854,-75.158,27784.437268
1 Jan 2020 06:26:47.000,193.987,-75.198,27623.425009
1 Jan 2020 06:27:17.000,193.103,-75.246,27463.673919
1 Jan 2020 06:27:47.000,192.199,-75.301,27305.299057
1 Jan 2020 06:28:17.000,191.277,-75.363,27148.416244
1 Jan 2020 06:28:47.000,190.333,-75.432,26993.141973
1 Jan 2020 06:29:17.000,189.367,-75.509,26839.593313
1 Jan 2020 06:29:47.000,188.378,-75.592,26687.887804
1 Jan 2020 06:30:17.000,187.365,-75.683,26538.143345
1 Jan 2020 06:30:47.000,186.325,-75.781,26390.478074
1 Jan 2020 06:31:17.000,185.259,-75.885,26245.010240
1 Jan 2020 06:31:47.000,184.163,-75.996,26101.858066
1 Jan 2020 06:32:17.000,183.037,-76.113,25961.139321
1 Jan 2020 06:32:47.000,181.878,-76.236,25822.972300
1 Jan 2020 06:33:17.000,180.686,-76.365,25687.473958
1 Jan 2020 06:33:47.000,179.458,-76.500,25554.760877
1 Jan 2020 06:34:17.000,178.193,-76.640,25424.948805
1 Jan 2020 06:34:47.000,176.887,-76.786,25298.152469
1 Jan 2020 06:35:17.000,175.540,-76.936,25174.485377
1 Jan 2020 06:35:47.000,174.149,-77.090,25054.059624
1 Jan 2020 06:36:17.000,172.712,-77.248,24936.985677
1 Jan 2020 06:36:47.000,171.227,-77.409,24823.371935
1 Jan 2020 06:37:17.000,169.690,-77.573,24713.325437
1 Jan 2020 06:37:47.000,168.101,-77.739,24606.950231
1 Jan 2020 06:38:17.000,166.455,-77.907,24504.348094
1 Jan 2020 06:38:47.000,164.752,-78.076,24405.618057
1 Jan 2020 06:39:17.000,162.989,-78.246,24310.856177
1 Jan 2020 06:39:47.000,161.163,-78.415,24220.155300
1 Jan 2020 06:40:17.000,159.273,-78.583,24133.604827
1 Jan 2020 06:40:47.000,157.316,-78.749,24051.290298
1 Jan 2020 06:41:17.000,155.290,-78.912,23973.293920
1 Jan 2020 06:41:47.000,153.195,-79.072,23899.693190
1 Jan 2020 06:42:17.000,151.030,-79.227,23830.561453
1 Jan 2020 06:42:47.000,148.793,-79.377,23765.967498
1 Jan 2020 06:43:17.000,146.485,-79.520,23705.975349
1 Jan 2020 06:43:47.000,144.107,-79.656,23650.644080
1 Jan 2020 06:44:17.000,141.660,-79.784,23600.027511
1 Jan 2020 06:44:47.000,139.147,-79.903,23554.174525
1 Jan 2020 06:45:17.000,136.569,-80.012,23513.128176
1 Jan 2020 06:45:47.000,133.933,-80.110,23476.926053
1 Jan 2020 06:46:17.000,131.242,-80.196,23445.600031
1 Jan 2020 06:46:47.000,128.503,-80.270,23419.176168
1 Jan 2020 06:47:17.000,125.722,-80.331,23397.674623
1 Jan 2020 06:47:47.000,122.907,-80.379,23381.109539
1 Jan 2020 06:48:17.000,120.067,-80.412,23369.489199
1 Jan 2020 06:48:47.000,117.209,-80.432,23362.815690
1 Jan 2020 06:49:17.000,114.344,-80.437,23361.085113
1 Jan 2020 06:49:47.000,111.481,-80.428,23364.287549
1 Jan 2020 06:50:17.000,108.628,-80.405,23372.407092
1 Jan 2020 06:50:47.000,105.795,-80.367,23385.421909
1 Jan 2020 06:51:17.000,102.991,-80.316,23403.304346
1 Jan 2020 06:51:47.000,100.222,-80.252,23426.020919
1 Jan 2020 06:52:17.000,97.497,-80.176,23453.532575
1 Jan 2020 06:52:47.000,94.820,-80.088,23485.794743
1 Jan 2020 06:53:17.000,92.199,-79.988,23522.757496
1 Jan 2020 06:53:47.000,89.636,-79.879,23564.365724
1 Jan 2020 06:54:17.000,87.136,-79.760,23610.559311
1 Jan 2020 06:54:47.000,84.701,-79.633,23661.273426
1 Jan 2020 06:55:17.000,82.332,-79.498,23716.438347
1 Jan 2020 06:55:47.000,80.031,-79.356,23775.980233
1 Jan 2020 06:56:17.000,77.797,-79.209,23839.820984
1 Jan 2020 06:56:47.000,75.631,-79.057,23907.878562
1 Jan 2020 06:57:17.000,73.531,-78.901,23980.067224
1 Jan 2020 06:57:47.000,71.496,-78.742,24056.297765
1 Jan 2020 06:58:17.000,69.525,-78.581,24136.477757
1 Jan 2020 06:58:47.000,67.616,-78.418,24220.511963
1 Jan 2020 06:59:17.000,65.766,-78.255,24308.301919
1 Jan 2020 06:59:47.000,63.974,-78.091,24399.747156
1 Jan 2020 07:00:17.000,62.236,-77.928,24494.744794
1 Jan 2020 07:00:47.000,60.552,-77.766,24593.189941
1 Jan 2020 07:01:17.000,58.918,-77.606,24694.975922
1 Jan 2020 07:01:47.000,57.331,-77.448,24799.994508
1 Jan 2020 07:02:17.000,55.790,-77.293,24908.136136
1 Jan 2020 07:02:47.000,54.292,-77.141,25019.290123
1 Jan 2020 07:03:17.000,52.836,-76.992,25133.344871
1 Jan 2020 07:03:47.000,51.418,-76.848,25250.188070
1 Jan 2020 07:04:17.000,50.036,-76.708,25369.707129
1 Jan 2020 07:04:47.000,48.689,-76.572,25491.788381
1 Jan 2020 07:05:17.000,47.375,-76.442,25616.318718
1 Jan 2020 07:05:47.000,46.091,-76.317,25743.184783
1 Jan 2020 07:06:17.000,44.837,-76.197,25872.273367
1 Jan 2020 07:06:47.000,43.609,-76.082,26003.471557
1 Jan 2020 07:07:17.000,42.408,-75.974,26136.666868
1 Jan 2020 07:07:47.000,41.230,-75.871,26271.747374
1 Jan 2020 07:08:17.000,40.075,-75.774,26408.601824
1 Jan 2020 07:08:47.000,38.940,-75.683,26547.119757
1 Jan 2020 07:09:17.000,37.826,-75.599,26687.191596
1 Jan 2020 07:09:47.000,36.730,-75.520,26828.708748
1 Jan 2020 07:10:17.000,35.652,-75.449,26971.563686
1 Jan 2020 07:10:47.000,34.589,-75.383,27115.650031
1 Jan 2020 07:11:17.000,33.542,-75.324,27260.862617
1 Jan 2020 07:11:47.000,32.508,-75.271,27407.097558
1 Jan 2020 07:12:17.000,31.488,-75.224,27554.252306
1 Jan 2020 07:12:47.000,30.479,-75.184,27702.225702
1 Jan 2020 07:13:17.000,29.482,-75.150,27850.918017
1 Jan 2020 07:13:47.000,28.495,-75.123,28000.230995
1 Jan 2020 07:14:17.000,27.517,-75.101,28150.067888
1 Jan 2020 07:14:47.000,26.547,-75.086,28300.333482
1 Jan 2020 07:15:17.000,25.586,-75.077,28450.934122
1 Jan 2020 07:15:46.981,24.631,-75.074,28601.683761
1 Jan 2020 08:34:59.818,159.158,-75.065,28595.863643
1 Jan 2020 08:35:29.000,158.194,-75.068,28452.990707
1 Jan 2020 08:35:59.000,157.195,-75.076,28306.431568
1 Jan 2020 08:36:29.000,156.188,-75.091,28160.281482
1 Jan 2020 08:36:59.000,155.171,-75.111,28014.630189
1 Jan 2020 08:37:29.000,154.145,-75.137,27869.568793
1 Jan 2020 08:37:59.000,153.107,-75.169,27725.189744
1 Jan 2020 08:38:29.000,152.058,-75.206,27581.586796
1 Jan 2020 08:38:59.000,150.997,-75.250,27438.854984
1 Jan 2020 08:39:29.000,149.922,-75.300,27297.090571
1 Jan 2020 08:39:59.000,148.833,-75.355,27156.391013
1 Jan 2020 08:40:29.000,147.728,-75.417,27016.854902
1 Jan 2020 08:40:59.000,146.607,-75.484,26878.581910
1 Jan 2020 08:41:29.000,145.468,-75.557,26741.672729
1 Jan 2020 08:41:59.000,144.310,-75.636,26606.229000
1 Jan 2020 08:42:29.000,143.133,-75.720,26472.353235
1 Jan 2020 08:42:59.000,141.935,-75.810,26340.148741
1 Jan 2020 08:43:29.000,140.714,-75.906,26209.719523
1 Jan 2020 08:43:59.000,139.469,-76.006,26081.170194
1 Jan 2020 08:44:29.000,138.199,-76.112,25954.605867
1 Jan 2020 08:44:59.000,136.903,-76.223,25830.132042
1 Jan 2020 08:45:29.000,135.579,-76.339,25707.854252
1 Jan 2020 08:45:59.000,134.224,-76.459,25587.878895
1 Jan 2020 08:46:29.000,132.839,-76.583,25470.311647
1 Jan 2020 08:46:59.000,131.420,-76.712,25355.258295
1 Jan 2020 08:47:29.000,129.966,-76.844,25242.824334
1 Jan 2020 08:47:59.000,128.476,-76.980,25133.114820
1 Jan 2020 08:48:29.000,126.947,-77.118,25026.234193
1 Jan 2020 08:48:59.000,125.378,-77.260,24922.286110
1 Jan 2020 08:49:29.000,123.767,-77.403,24821.373263
1 Jan 2020 08:49:59.000,122.112,-77.548,24723.597193
1 Jan 2020 08:50:29.000,120.411,-77.695,24629.057915
1 Jan 2020 08:50:59.000,118.662,-77.842,24537.854448
1 Jan 2020 08:51:29.000,116.863,-77.990,24450.083510
1 Jan 2020 08:51:59.000,115.013,-78.137,24365.840052
1 Jan 2020 08:52:29.000,113.110,-78.283,24285.216859
1 Jan 2020 08:52:59.000,111.153,-78.427,24208.304335
1 Jan 2020 08:53:29.000,109.141,-78.569,24135.190292
1 Jan 2020 08:53:59.000,107.072,-78.708,24065.959728
1 Jan 2020 08:54:29.000,104.946,-78.843,24000.694497
1 Jan 2020 08:54:59.000,102.763,-78.973,23939.473579
1 Jan 2020 08:55:29.000,100.523,-79.098,23882.372125
1 Jan 2020 08:55:59.000,98.226,-79.217,23829.461755
1 Jan 2020 08:56:29.000,95.874,-79.330,23780.810230
1 Jan 2020 08:56:59.000,93.469,-79.434,23736.481249
1 Jan 2020 08:57:29.000,91.013,-79.530,23696.534269
1 Jan 2020 08:57:59.000,88.509,-79.618,23661.024263
1 Jan 2020 08:58:29.000,85.961,-79.695,23630.001790
1 Jan 2020 08:58:59.000,83.373,-79.762,23603.512469
1 Jan 2020 08:59:29.000,80.751,-79.818,23581.597089
1 Jan 2020 08:59:59.000,78.100,-79.863,23564.291410
1 Jan 2020 09:00:29.000,75.426,-79.896,23551.626044
1 Jan 2020 09:00:59.000,72.736,-79.918,23543.626359
1 Jan 2020 09:01:29.000,70.037,-79.926,23540.312396
1 Jan 2020 09:01:59.000,67.337,-79.923,23541.698775
1 Jan 2020 09:02:29.000,64.642,-79.907,23547.794671
1 Jan 2020 09:02:59.000,61.959,-79.879,23558.603772
1 Jan 2020 09:03:29.000,59.297,-79.838,23574.124258
1 Jan 2020 09:03:59.000,56.660,-79.786,23594.348809
1 Jan 2020 09:04:29.000,54.056,-79.723,23619.264619
1 Jan 2020 09:04:59.000,51.490,-79.649,23648.853516
1 Jan 2020 09:05:29.000,48.966,-79.564,23683.091706
1 Jan 2020 09:05:59.000,46.491,-79.470,23721.950294
1 Jan 2020 09:06:29.000,44.066,-79.367,23765.395083
1 Jan 2020 09:06:59.000,41.696,-79.256,23813.386747
1 Jan 2020 09:07:29.000,39.382,-79.137,23865.880946
1 Jan 2020 09:07:59.000,37.126,-79.011,23922.828462
1 Jan 2020 09:08:29.000,34.930,-78.879,23984.175480
1 Jan 2020 09:08:59.000,32.794,-78.743,24049.863196
1 Jan 2020 09:09:29.000,30.718,-78.601,24119.828795
1 Jan 2020 09:09:59.000,28.702,-78.456,24194.005093
1 Jan 2020 09:10:29.000,26.745,-78.309,24272.320853
1 Jan 2020 09:10:59.000,24.847,-78.159,24354.700976
1 Jan 2020 09:11:29.000,23.005,-78.008,24441.066698
1 Jan 2020 09:11:59.000,21.219,-77.855,24531.335791
1 Jan 2020 09:12:29.000,19.488,-77.703,24625.422967
1 Jan 2020 09:12:59.000,17.808,-77.552,24723.239287
1 Jan 2020 09:13:29.000,16.179,-77.401,24824.693556
1 Jan 2020 09:13:59.000,14.599,-77.252,24929.691745
1 Jan 2020 09:14:29.000,13.066,-77.106,25038.137393
1 Jan 2020 09:14:59.000,11.578,-76.962,25149.931811
1 Jan 2020 09:15:29.000,10.133,-76.821,25264.974280
1 Jan 2020 09:15:59.000,8.729,-76.683,25383.162257
1 Jan 2020 09:16:29.000,7.365,-76.550,25504.391559
1 Jan 2020 09:16:59.000,6.038,-76.421,25628.556561
1 Jan 2020 09:17:29.000,4.748,-76.296,25755.550372
1 Jan 2020 09:17:59.000,3.491,-76.177,25885.265297
1 Jan 2020 09:18:29.000,2.267,-76.062,26017.591893
1 Jan 2020 09:18:59.000,1.074,-75.953,26152.420796
1 Jan 2020 09:19:29.000,359.911,-75.850,26289.641776
1 Jan 2020 09:19:59.000,358.776,-75.753,26429.144162
1 Jan 2020 09:20:29.000,357.667,-75.661,26570.816987
1 Jan 2020 09:20:59.000,356.584,-75.576,26714.549122
1 Jan 2020 09:21:29.000,355.525,-75.497,26860.229406
1 Jan 2020 09:21:59.000,354.489,-75.425,27007.746769
1 Jan 2020 09:22:29.000,353.474,-75.359,27156.990347
1 Jan 2020 09:22:59.000,352.480,-75.300,27307.849585
1 Jan 2020 09:23:29.000,351.506,-75.247,27460.214344
1 Jan 2020 09:23:59.000,350.550,-75.201,27613.974991
1 Jan 2020 09:24:29.000,349.611,-75.162,27769.022487
1 Jan 2020 09:24:59.000,348.689,-75.130,27925.248470
1 Jan 2020 09:25:29.000,347.782,-75.105,28082.545327
1 Jan 2020 09:25:59.000,346.891,-75.086,28240.806263
1 Jan 2020 09:26:29.000,346.013,-75.075,28399.925370
1 Jan 2020 09:26:59.000,345.148,-75.070,28559.797675
1 Jan 2020 09:27:05.469,344.963,-75.069,28594.357461
1 Jan 2020 10:41:29.458,142.027,-75.067,28593.063230
1 Jan 2020 10:41:59.000,141.673,-75.072,28407.647210
1 Jan 2020 10:42:29.000,141.315,-75.086,28219.340241
1 Jan 2020 10:42:59.000,140.959,-75.110,28031.139878
1 Jan 2020 10:43:29.000,140.604,-75.144,27843.174332
1 Jan 2020 10:43:59.000,140.249,-75.188,27655.574493
1 Jan 2020 10:44:29.000,139.894,-75.242,27468.473922
1 Jan 2020 10:44:59.000,139.539,-75.307,27282.008832
1 Jan 2020 10:45:29.000,139.182,-75.382,27096.318065
1 Jan 2020 10:45:59.000,138.825,-75.468,26911.543053
1 Jan 2020 10:46:29.000,138.465,-75.566,26727.827780
1 Jan 2020 10:46:59.000,138.103,-75.674,26545.318724
1 Jan 2020 10:47:29.000,137.738,-75.794,26364.164796
1 Jan 2020 10:47:59.000,137.368,-75.925,26184.517262
1 Jan 2020 10:48:29.000,136.995,-76.068,26006.529651
1 Jan 2020 10:48:59.000,136.615,-76.223,25830.357661
1 Jan 2020 10:49:29.000,136.230,-76.390,25656.159029
1 Jan 2020 10:49:59.000,135.837,-76.568,25484.093411
1 Jan 2020 10:50:29.000,135.436,-76.759,25314.322221
1 Jan 2020 10:50:59.000,135.026,-76.961,25147.008471
1 Jan 2020 10:51:29.000,134.605,-77.176,24982.316274
1 Jan 2020 10:51:59.000,134.172,-77.403,24820.411888
1 Jan 2020 10:52:29.000,133.725,-77.643,24661.461610
1 Jan 2020 10:52:59.000,133.263,-77.894,24505.632791
1 Jan 2020 10:53:29.000,132.783,-78.157,24353.093258
1 Jan 2020 10:53:59.000,132.283,-78.433,24204.011025
1 Jan 2020 10:54:29.000,131.761,-78.720,24058.553987
1 Jan 2020 10:54:59.000,131.213,-79.019,23916.889592
1 Jan 2020 10:55:29.000,130.636,-79.330,23779.184237
1 Jan 2020 10:55:59.000,130.026,-79.652,23645.603920
1 Jan 2020 10:56:29.000,129.378,-79.985,23516.312304
1 Jan 2020 10:56:59.000,128.686,-80.329,23391.471350
1 Jan 2020 10:57:29.000,127.944,-80.683,23271.240624
1 Jan 2020 10:57:59.000,127.144,-81.048,23155.776860
1 Jan 2020 10:58:29.000,126.277,-81.421,23045.233496
1 Jan 2020 10:58:59.000,125.330,-81.804,22939.759997
1 Jan 2020 10:59:29.000,124.290,-82.195,22839.502251
1 Jan 2020 10:59:59.000,123.140,-82.594,22744.600752
1 Jan 2020 11:00:29.000,121.857,-82.999,22655.191013
1 Jan 2020 11:00:59.000,120.415,-83.409,22571.402848
1 Jan 2020 11:01:29.000,118.780,-83.824,22493.359896
1 Jan 2020 11:01:59.000,116.906,-84.242,22421.178992
1 Jan 2020 11:02:29.000,114.736,-84.660,22354.970298
1 Jan 2020 11:02:59.000,112.194,-85.077,22294.835950
1 Jan 2020 11:03:29.000,109.181,-85.489,22240.870243
1 Jan 2020 11:03:59.000,105.562,-85.893,22193.159071
1 Jan 2020 11:04:29.000,101.165,-86.282,22151.779482
1 Jan 2020 11:04:59.000,95.764,-86.650,22116.799621
1 Jan 2020 11:05:29.000,89.090,-86.985,22088.277972
1 Jan 2020 11:05:59.000,80.873,-87.273,22066.263397
1 Jan 2020 11:06:29.000,70.952,-87.496,22050.794834
1 Jan 2020 11:06:59.000,59.489,-87.634,22041.901105
1 Jan 2020 11:07:29.000,47.146,-87.671,22039.600813
1 Jan 2020 11:07:59.000,34.971,-87.602,22043.902187
1 Jan 2020 11:08:29.000,23.934,-87.436,22054.803098
1 Jan 2020 11:08:59.000,14.540,-87.190,22072.291057
1 Jan 2020 11:09:29.000,6.830,-86.885,22096.343333
1 Jan 2020 11:09:59.000,0.592,-86.538,22126.926835
1 Jan 2020 11:10:29.000,355.547,-86.162,22163.998589
1 Jan 2020 11:10:59.000,351.438,-85.766,22207.505744
1 Jan 2020 11:11:29.000,348.056,-85.358,22257.385858
1 Jan 2020 11:11:59.000,345.240,-84.942,22313.567308
1 Jan 2020 11:12:29.000,342.868,-84.522,22375.969143
1 Jan 2020 11:12:59.000,340.848,-84.102,22444.502127
1 Jan 2020 11:13:29.000,339.110,-83.683,22519.068680
1 Jan 2020 11:13:59.000,337.601,-83.266,22599.563402
1 Jan 2020 11:14:29.000,336.280,-82.855,22685.873503
1 Jan 2020 11:14:59.000,335.114,-82.449,22777.879465
1 Jan 2020 11:15:29.000,334.079,-82.051,22875.454694
1 Jan 2020 11:15:59.000,333.154,-81.659,22978.467197
1 Jan 2020 11:16:29.000,332.323,-81.277,23086.779275
1 Jan 2020 11:16:59.000,331.573,-80.903,23200.248201
1 Jan 2020 11:17:29.000,330.893,-80.539,23318.726699
1 Jan 2020 11:17:59.000,330.274,-80.186,23442.063421
1 Jan 2020 11:18:29.000,329.709,-79.843,23570.103697
1 Jan 2020 11:18:59.000,329.191,-79.511,23702.688892
1 Jan 2020 11:19:29.000,328.715,-79.190,23839.658481
1 Jan 2020 11:19:59.000,328.277,-78.881,23980.849409
1 Jan 2020 11:20:29.000,327.872,-78.583,24126.096763
1 Jan 2020 11:20:59.000,327.498,-78.298,24275.234177
1 Jan 2020 11:21:29.000,327.151,-78.024,24428.094202
1 Jan 2020 11:21:59.000,326.830,-77.763,24584.508665
1 Jan 2020 11:22:29.000,326.531,-77.514,24744.309007
1 Jan 2020 11:22:59.000,326.254,-77.278,24907.326918
1 Jan 2020 11:23:29.000,325.996,-77.054,25073.393355
1 Jan 2020 11:23:59.000,325.756,-76.843,25242.340721
1 Jan 2020 11:24:29.000,325.532,-76.644,25414.001852
1 Jan 2020 11:24:59.000,325.324,-76.457,25588.210568
1 Jan 2020 11:25:29.000,325.131,-76.283,25764.801885
1 Jan 2020 11:25:59.000,324.951,-76.121,25943.612205
1 Jan 2020 11:26:29.000,324.784,-75.971,26124.479499
1 Jan 2020 11:26:59.000,324.629,-75.833,26307.243456
1 Jan 2020 11:27:29.000,324.486,-75.707,26491.745634
1 Jan 2020 11:27:59.000,324.353,-75.593,26677.829578
1 Jan 2020 11:28:29.000,324.231,-75.490,26865.340934
1 Jan 2020 11:28:59.000,324.119,-75.399,27054.127549
1 Jan 2020 11:29:29.000,324.016,-75.320,27244.039548
1 Jan 2020 11:29:59.000,323.922,-75.251,27434.929412
1 Jan 2020 11:30:29.000,323.837,-75.194,27626.652033
1 Jan 2020 11:30:59.000,323.760,-75.147,27819.064770
1 Jan 2020 11:31:29.000,323.692,-75.111,28012.027486
1 Jan 2020 11:31:59.000,323.631,-75.086,28205.402579
1 Jan 2020 11:32:29.000,323.579,-75.071,28399.055009
1 Jan 2020 11:32:59.000,323.533,-75.066,28592.852312
1 Jan 2020 11:32:59.124,323.533,-75.066,28593.651490
1 Jan 2020 12:45:35.770,152.309,-75.072,28597.481150
1 Jan 2020 12:46:05.000,152.854,-75.076,28421.668812
1 Jan 2020 12:46:35.000,153.427,-75.089,28241.747534
1 Jan 2020 12:47:05.000,154.013,-75.110,28062.478881
1 Jan 2020 12:47:35.000,154.613,-75.141,27883.988473
1 Jan 2020 12:48:05.000,155.228,-75.180,27706.403585
1 Jan 2020 12:48:35.000,155.860,-75.229,27529.853087
1 Jan 2020 12:49:05.000,156.508,-75.286,27354.467383
1 Jan 2020 12:49:35.000,157.175,-75.353,27180.378336
1 Jan 2020 12:50:05.000,157.861,-75.428,27007.719187
1 Jan 2020 12:50:35.000,158.567,-75.513,26836.624463
1 Jan 2020 12:51:05.000,159.294,-75.607,26667.229880
1 Jan 2020 12:51:35.000,160.045,-75.710,26499.672229
1 Jan 2020 12:52:05.000,160.820,-75.822,26334.089256
1 Jan 2020 12:52:35.000,161.621,-75.943,26170.619531
1 Jan 2020 12:53:05.000,162.450,-76.073,26009.402299
1 Jan 2020 12:53:35.000,163.308,-76.212,25850.577331
1 Jan 2020 12:54:05.000,164.198,-76.360,25694.284446
1 Jan 2020 12:54:35.000,165.121,-76.516,25540.664549
1 Jan 2020 12:55:05.000,166.080,-76.681,25389.857609
1 Jan 2020 12:55:35.000,167.077,-76.853,25242.003672
1 Jan 2020 12:56:05.000,168.115,-77.034,25097.242337
1 Jan 2020 12:56:35.000,169.197,-77.222,24955.712524
1 Jan 2020 12:57:05.000,170.326,-77.417,24817.552229
1 Jan 2020 12:57:35.000,171.505,-77.619,24682.898264
1 Jan 2020 12:58:05.000,172.737,-77.828,24551.885990
1 Jan 2020 12:58:35.000,174.028,-78.042,24424.648767
1 Jan 2020 12:59:05.000,175.380,-78.262,24301.318751
1 Jan 2020 12:59:35.000,176.799,-78.487,24182.024947
1 Jan 2020 13:00:05.000,178.288,-78.715,24066.894006
1 Jan 2020 13:00:35.000,179.854,-78.947,23956.049632
1 Jan 2020 13:01:05.000,181.501,-79.181,23849.612257
1 Jan 2020 13:01:35.000,183.236,-79.417,23747.698717
1 Jan 2020 13:02:05.000,185.063,-79.654,23650.421715
1 Jan 2020 13:02:35.000,186.990,-79.890,23557.890331
1 Jan 2020 13:03:05.000,189.022,-80.124,23470.208422
1 Jan 2020 13:03:35.000,191.165,-80.355,23387.475155
1 Jan 2020 13:04:05.000,193.426,-80.582,23309.784471
1 Jan 2020 13:04:35.000,195.810,-80.804,23237.224779
1 Jan 2020 13:05:05.000,198.321,-81.018,23169.878507
1 Jan 2020 13:05:35.000,200.964,-81.223,23107.822399
1 Jan 2020 13:06:05.000,203.742,-81.418,23051.126361
1 Jan 2020 13:06:35.000,206.654,-81.600,22999.853801
1 Jan 2020 13:07:05.000,209.700,-81.769,22954.061247
1 Jan 2020 13:07:35.000,212.875,-81.921,22913.798135
1 Jan 2020 13:08:05.000,216.173,-82.056,22879.106533
1 Jan 2020 13:08:35.000,219.582,-82.171,22850.021331
1 Jan 2020 13:09:05.000,223.091,-82.267,22826.569565
1 Jan 2020 13:09:35.000,226.680,-82.340,22808.770682
1 Jan 2020 13:10:05.000,230.331,-82.390,22796.636369
1 Jan 2020 13:10:35.000,234.021,-82.418,22790.170508
1 Jan 2020 13:11:05.000,237.726,-82.421,22789.369149
1 Jan 2020 13:11:35.000,241.422,-82.400,22794.220587
1 Jan 2020 13:12:05.000,245.085,-82.356,22804.705303
1 Jan 2020 13:12:35.000,248.692,-82.289,22820.796131
1 Jan 2020 13:13:05.000,252.223,-82.201,22842.458338
1 Jan 2020 13:13:35.000,255.662,-82.092,22869.649768
1 Jan 2020 13:14:05.000,258.993,-81.964,22902.321066
1 Jan 2020 13:14:35.000,262.207,-81.818,22940.415644
1 Jan 2020 13:15:05.000,265.297,-81.656,22983.870226
1 Jan 2020 13:15:35.000,268.257,-81.481,23032.614882
1 Jan 2020 13:16:05.000,271.087,-81.293,23086.573335
1 Jan 2020 13:16:35.000,273.787,-81.095,23145.663248
1 Jan 2020 13:17:05.000,276.359,-80.887,23209.796627
1 Jan 2020 13:17:35.000,278.808,-80.673,23278.879681
1 Jan 2020 13:18:05.000,281.138,-80.453,23352.813808
1 Jan 2020 13:18:35.000,283.355,-80.228,23431.495489
1 Jan 2020 13:19:05.000,285.465,-80.000,23514.816729
1 Jan 2020 13:19:35.000,287.473,-79.771,23602.665396
1 Jan 2020 13:20:05.000,289.387,-79.541,23694.925565
1 Jan 2020 13:20:35.000,291.212,-79.311,23791.478033
1 Jan 2020 13:21:05.000,292.953,-79.082,23892.199948
1 Jan 2020 13:21:35.000,294.618,-78.856,23996.966201
1 Jan 2020 13:22:05.000,296.211,-78.633,24105.649053
1 Jan 2020 13:22:35.000,297.737,-78.414,24218.118635
1 Jan 2020 13:23:05.000,299.201,-78.198,24334.243251
1 Jan 2020 13:23:35.000,300.607,-77.988,24453.889688
1 Jan 2020 13:24:05.000,301.961,-77.783,24576.923501
1 Jan 2020 13:24:35.000,303.265,-77.584,24703.209295
1 Jan 2020 13:25:05.000,304.524,-77.391,24832.610993
1 Jan 2020 13:25:35.000,305.741,-77.205,24964.992354
1 Jan 2020 13:26:05.000,306.918,-77.026,25100.216151
1 Jan 2020 13:26:35.000,308.060,-76.854,25238.145986
1 Jan 2020 13:27:05.000,309.168,-76.689,25378.645448
1 Jan 2020 13:27:35.000,310.245,-76.532,25521.578579
1 Jan 2020 13:28:05.000,311.294,-76.383,25666.810054
1 Jan 2020 13:28:35.000,312.316,-76.241,25814.205358
1 Jan 2020 13:29:05.000,313.314,-76.108,25963.630944
1 Jan 2020 13:29:35.000,314.289,-75.982,26114.954377
1 Jan 2020 13:30:05.000,315.244,-75.865,26268.044471
1 Jan 2020 13:30:35.000,316.179,-75.756,26422.771410
1 Jan 2020 13:31:05.000,317.097,-75.655,26579.006860
1 Jan 2020 13:31:35.000,317.999,-75.562,26736.624065
1 Jan 2020 13:32:05.000,318.886,-75.478,26895.497941
1 Jan 2020 13:32:35.000,319.759,-75.401,27055.505149
1 Jan 2020 13:33:05.000,320.620,-75.333,27216.524172
1 Jan 2020 13:33:35.000,321.470,-75.272,27378.435371
1 Jan 2020 13:34:05.000,322.309,-75.220,27541.121038
1 Jan 2020 13:34:35.000,323.140,-75.175,27704.465443
1 Jan 2020 13:35:05.000,323.961,-75.138,27868.354873
1 Jan 2020 13:35:35.000,324.776,-75.109,28032.677657
1 Jan 2020 13:36:05.000,325.584,-75.087,28197.324198
1 Jan 2020 13:36:35.000,326.386,-75.073,28362.186988
1 Jan 2020 13:37:05.000,327.183,-75.066,28527.160623
1 Jan 2020 13:37:18.189,327.533,-75.066,28599.695211
1 Jan 2020 14:55:21.855,188.267,-75.076,28605.907801
1 Jan 2020 14:55:51.000,189.269,-75.078,28467.345160
1 Jan 2020 14:56:21.000,190.311,-75.086,28325.266320
1 Jan 2020 14:56:51.000,191.362,-75.099,28183.827929
1 Jan 2020 14:57:21.000,192.425,-75.118,28043.116172
1 Jan 2020 14:57:51.000,193.500,-75.142,27903.218123
1 Jan 2020 14:58:21.000,194.587,-75.171,27764.221704
1 Jan 2020 14:58:51.000,195.688,-75.206,27626.215648
1 Jan 2020 14:59:21.000,196.803,-75.247,27489.289449
1 Jan 2020 14:59:51.000,197.933,-75.292,27353.533316
1 Jan 2020 15:00:21.000,199.079,-75.343,27219.038116
1 Jan 2020 15:00:51.000,200.241,-75.399,27085.895315
1 Jan 2020 15:01:21.000,201.422,-75.460,26954.196919
1 Jan 2020 15:01:51.000,202.621,-75.526,26824.035397
1 Jan 2020 15:02:21.000,203.840,-75.597,26695.503618
1 Jan 2020 15:02:51.000,205.080,-75.673,26568.694761
1 Jan 2020 15:03:21.000,206.341,-75.754,26443.702239
1 Jan 2020 15:03:51.000,207.626,-75.839,26320.619607
1 Jan 2020 15:04:21.000,208.935,-75.929,26199.540465
1 Jan 2020 15:04:51.000,210.268,-76.022,26080.558359
1 Jan 2020 15:05:21.000,211.629,-76.120,25963.766430
1 Jan 2020 15:05:51.000,213.016,-76.222,25849.258285
1 Jan 2020 15:06:21.000,214.433,-76.327,25737.126397
1 Jan 2020 15:06:51.000,215.880,-76.435,25627.462977
1 Jan 2020 15:07:21.000,217.358,-76.547,25520.359596
1 Jan 2020 15:07:51.000,218.868,-76.661,25415.907051
1 Jan 2020 15:08:21.000,220.413,-76.777,25314.195226
1 Jan 2020 15:08:51.000,221.993,-76.895,25215.312953
1 Jan 2020 15:09:21.000,223.609,-77.015,25119.347863
1 Jan 2020 15:09:51.000,225.262,-77.137,25026.386236
1 Jan 2020 15:10:21.000,226.955,-77.259,24936.512670
1 Jan 2020 15:10:51.000,228.687,-77.381,24849.810632
1 Jan 2020 15:11:21.000,230.460,-77.503,24766.361231
1 Jan 2020 15:11:51.000,232.275,-77.625,24686.243770
1 Jan 2020 15:12:21.000,234.132,-77.746,24609.535407
1 Jan 2020 15:12:51.000,236.032,-77.865,24536.310990
1 Jan 2020 15:13:21.000,237.977,-77.982,24466.642891
1 Jan 2020 15:13:51.000,239.964,-78.096,24400.600847
1 Jan 2020 15:14:21.000,241.996,-78.207,24338.251799
1 Jan 2020 15:14:51.000,244.071,-78.314,24279.659607
1 Jan 2020 15:15:21.000,246.190,-78.417,24224.885398
1 Jan 2020 15:15:51.000,248.350,-78.514,24173.986653
1 Jan 2020 15:16:21.000,250.551,-78.607,24127.017574
1 Jan 2020 15:16:51.000,252.792,-78.693,24084.028814
1 Jan 2020 15:17:21.000,255.070,-78.772,24045.067348
1 Jan 2020 15:17:51.000,257.382,-78.845,24010.176339
1 Jan 2020 15:18:21.000,259.727,-78.910,23979.395027
1 Jan 2020 15:18:51.000,262.101,-78.967,23952.758566
1 Jan 2020 15:19:21.000,264.500,-79.015,23930.298139
1 Jan 2020 15:19:51.000,266.921,-79.055,23912.040535
1 Jan 2020 15:20:21.000,269.360,-79.086,23898.008306
1 Jan 2020 15:20:51.000,271.812,-79.108,23888.219640
1 Jan 2020 15:21:21.000,274.272,-79.120,23882.688306
1 Jan 2020 15:21:51.000,276.736,-79.122,23881.423613
1 Jan 2020 15:22:21.000,279.199,-79.116,23884.430383
1 Jan 2020 15:22:51.000,281.656,-79.099,23891.708960
1 Jan 2020 15:23:21.000,284.103,-79.074,23903.255116
1 Jan 2020 15:23:51.000,286.535,-79.039,23919.060181
1 Jan 2020 15:24:21.000,288.948,-78.995,23939.111000
1 Jan 2020 15:24:51.000,291.338,-78.943,23963.389981
1 Jan 2020 15:25:21.000,293.700,-78.882,23991.875144
1 Jan 2020 15:25:51.000,296.031,-78.813,24024.540181
1 Jan 2020 15:26:21.000,298.329,-78.737,24061.354529
1 Jan 2020 15:26:51.000,300.591,-78.654,24102.283555
1 Jan 2020 15:27:21.000,302.814,-78.564,24147.288257
1 Jan 2020 15:27:51.000,304.997,-78.469,24196.325941
1 Jan 2020 15:28:21.000,307.137,-78.368,24249.349962
1 Jan 2020 15:28:51.000,309.234,-78.262,24306.309936
1 Jan 2020 15:29:21.000,311.287,-78.152,24367.151870
1 Jan 2020 15:29:51.000,313.296,-78.038,24431.818297
1 Jan 2020 15:30:21.000,315.259,-77.922,24500.248419
1 Jan 2020 15:30:51.000,317.178,-77.802,24572.378254
1 Jan 2020 15:31:21.000,319.053,-77.681,24648.140963
1 Jan 2020 15:31:51.000,320.883,-77.558,24727.466311
1 Jan 2020 15:32:21.000,322.671,-77.435,24810.281853
1 Jan 2020 15:32:51.000,324.415,-77.311,24896.512418
1 Jan 2020 15:33:21.000,326.119,-77.187,24986.080436
1 Jan 2020 15:33:51.000,327.781,-77.063,25078.906095
1 Jan 2020 15:34:21.000,329.404,-76.941,25174.907510
1 Jan 2020 15:34:51.000,330.989,-76.820,25274.000873
1 Jan 2020 15:35:21.000,332.537,-76.701,25376.100617
1 Jan 2020 15:35:51.000,334.049,-76.584,25481.119571
1 Jan 2020 15:36:21.000,335.526,-76.470,25588.969110
1 Jan 2020 15:36:51.000,336.970,-76.359,25699.559544
1 Jan 2020 15:37:21.000,338.382,-76.251,25812.799317
1 Jan 2020 15:37:51.000,339.763,-76.146,25928.596560
1 Jan 2020 15:38:21.000,341.115,-76.045,26046.858297
1 Jan 2020 15:38:51.000,342.439,-75.948,26167.490803
1 Jan 2020 15:39:21.000,343.735,-75.856,26290.399736
1 Jan 2020 15:39:51.000,345.006,-75.768,26415.490261
1 Jan 2020 15:40:21.000,346.251,-75.684,26542.667165
1 Jan 2020 15:40:51.000,347.473,-75.606,26671.834968
1 Jan 2020 15:41:21.000,348.673,-75.532,26802.898036
1 Jan 2020 15:41:51.000,349.851,-75.464,26935.760676
1 Jan 2020 15:42:21.000,351.008,-75.400,27070.327236
1 Jan 2020 15:42:51.000,352.146,-75.342,27206.502195
1 Jan 2020 15:43:21.000,353.266,-75.290,27344.190247
1 Jan 2020 15:43:51.000,354.368,-75.243,27483.296384
1 Jan 2020 15:44:21.000,355.453,-75.201,27623.725971
1 Jan 2020 15:44:51.000,356.523,-75.165,27765.384815
1 Jan 2020 15:45:21.000,357.577,-75.135,27908.179230
1 Jan 2020 15:45:51.000,358.618,-75.111,28052.016102
1 Jan 2020 15:46:21.000,359.644,-75.092,28196.802940
1 Jan 2020 15:46:51.000,0.659,-75.079,28342.447932
1 Jan 2020 15:47:21.000,1.661,-75.071,28488.859992
1 Jan 2020 15:47:45.281,2.465,-75.069,28607.861155
1 Jan 2020 17:04:10.724,216.060,-75.074,28610.910345
1 Jan 2020 17:04:40.000,216.670,-75.078,28438.586029
1 Jan 2020 17:05:10.000,217.296,-75.090,28261.988156
1 Jan 2020 17:05:40.000,217.926,-75.111,28085.491660
1 Jan 2020 17:06:10.000,218.559,-75.140,27909.213656
1 Jan 2020 17:06:40.000,219.196,-75.178,27733.273679
1 Jan 2020 17:07:10.000,219.838,-75.225,27557.793669
1 Jan 2020 17:07:40.000,220.487,-75.282,27382.897955
1 Jan 2020 17:08:10.000,221.142,-75.347,27208.713230
1 Jan 2020 17:08:40.000,221.804,-75.422,27035.368517
1 Jan 2020 17:09:10.000,222.476,-75.506,26862.995128
1 Jan 2020 17:09:40.000,223.157,-75.600,26691.726615
1 Jan 2020 17:10:10.000,223.849,-75.704,26521.698714
1 Jan 2020 17:10:40.000,224.553,-75.817,26353.049271
1 Jan 2020 17:11:10.000,225.270,-75.941,26185.918167
1 Jan 2020 17:11:40.000,226.002,-76.074,26020.447225
1 Jan 2020 17:12:10.000,226.751,-76.217,25856.780106
1 Jan 2020 17:12:40.000,227.517,-76.370,25695.062193
1 Jan 2020 17:13:10.000,228.303,-76.533,25535.440465
1 Jan 2020 17:13:40.000,229.111,-76.706,25378.063345
1 Jan 2020 17:14:10.000,229.943,-76.889,25223.080547
1 Jan 2020 17:14:40.000,230.801,-77.082,25070.642604
1 Jan 2020 17:15:10.000,231.688,-77.284,24920.901857
1 Jan 2020 17:15:40.000,232.606,-77.496,24774.010470
1 Jan 2020 17:16:10.000,233.560,-77.718,24630.121394
1 Jan 2020 17:16:40.000,234.551,-77.948,24489.387827
1 Jan 2020 17:17:10.000,235.585,-78.188,24351.962955
1 Jan 2020 17:17:40.000,236.666,-78.436,24217.999672
1 Jan 2020 17:18:10.000,237.798,-78.692,24087.650286
1 Jan 2020 17:18:40.000,238.987,-78.956,23961.066211
1 Jan 2020 17:19:10.000,240.238,-79.228,23838.397391
1 Jan 2020 17:19:40.000,241.559,-79.506,23719.792941
1 Jan 2020 17:20:10.000,242.957,-79.791,23605.399302
1 Jan 2020 17:20:40.000,244.441,-80.081,23495.360868
1 Jan 2020 17:21:10.000,246.020,-80.375,23389.819351
1 Jan 2020 17:21:40.000,247.704,-80.673,23288.913386
1 Jan 2020 17:22:10.000,249.505,-80.973,23192.778124
1 Jan 2020 17:22:40.000,251.436,-81.275,23101.544655
1 Jan 2020 17:23:10.000,253.513,-81.577,23015.340299
1 Jan 2020 17:23:40.000,255.750,-81.877,22934.287109
1 Jan 2020 17:24:10.000,258.164,-82.174,22858.502191
1 Jan 2020 17:24:40.000,260.775,-82.465,22788.097108
1 Jan 2020 17:25:10.000,263.600,-82.748,22723.177476
1 Jan 2020 17:25:40.000,266.659,-83.021,22663.842469
1 Jan 2020 17:26:10.000,269.970,-83.281,22610.184872
1 Jan 2020 17:26:40.000,273.546,-83.525,22562.290051
1 Jan 2020 17:27:10.000,277.399,-83.750,22520.236072
1 Jan 2020 17:27:40.000,281.531,-83.951,22484.093262
1 Jan 2020 17:28:10.000,285.936,-84.125,22453.923922
1 Jan 2020 17:28:40.000,290.594,-84.270,22429.782027
1 Jan 2020 17:29:10.000,295.470,-84.381,22411.713146
1 Jan 2020 17:29:40.000,300.514,-84.456,22399.754002
1 Jan 2020 17:30:10.000,305.664,-84.493,22393.932491
1 Jan 2020 17:30:40.000,310.848,-84.491,22394.267506
1 Jan 2020 17:31:10.000,315.991,-84.450,22400.768890
1 Jan 2020 17:31:40.000,321.020,-84.370,22413.437284
1 Jan 2020 17:32:10.000,325.875,-84.255,22432.264263
1 Jan 2020 17:32:40.000,330.505,-84.106,22457.232299
1 Jan 2020 17:33:10.000,334.877,-83.927,22488.314846
1 Jan 2020 17:33:40.000,338.971,-83.721,22525.476551
1 Jan 2020 17:34:10.000,342.780,-83.492,22568.673070
1 Jan 2020 17:34:40.000,346.309,-83.244,22617.851741
1 Jan 2020 17:35:10.000,349.567,-82.979,22672.951500
1 Jan 2020 17:35:40.000,352.569,-82.701,22733.903208
1 Jan 2020 17:36:10.000,355.334,-82.412,22800.629937
1 Jan 2020 17:36:40.000,357.880,-82.116,22873.047449
1 Jan 2020 17:37:10.000,0.225,-81.814,22951.063858
1 Jan 2020 17:37:40.000,2.389,-81.509,23034.580973
1 Jan 2020 17:38:10.000,4.387,-81.201,23123.494021
1 Jan 2020 17:38:40.000,6.236,-80.894,23217.692187
1 Jan 2020 17:39:10.000,7.950,-80.588,23317.059006
1 Jan 2020 17:39:40.000,9.543,-80.285,23421.472976
1 Jan 2020 17:40:10.000,11.025,-79.986,23530.807126
1 Jan 2020 17:40:40.000,12.408,-79.691,23644.930664
1 Jan 2020 17:41:10.000,13.700,-79.402,23763.708558
1 Jan 2020 17:41:40.000,14.910,-79.119,23887.002141
1 Jan 2020 17:42:10.000,16.046,-78.843,24014.669506
1 Jan 2020 17:42:40.000,17.114,-78.575,24146.565888
1 Jan 2020 17:43:10.000,18.120,-78.315,24282.544042
1 Jan 2020 17:43:40.000,19.069,-78.063,24422.454900
1 Jan 2020 17:44:10.000,19.967,-77.821,24566.146745
1 Jan 2020 17:44:40.000,20.817,-77.588,24713.467302
1 Jan 2020 17:45:10.000,21.623,-77.365,24864.262894
1 Jan 2020 17:45:40.000,22.389,-77.151,25018.379037
1 Jan 2020 17:46:10.000,23.118,-76.948,25175.660732
1 Jan 2020 17:46:40.000,23.812,-76.755,25335.952729
1 Jan 2020 17:47:10.000,24.474,-76.572,25499.099790
1 Jan 2020 17:47:40.000,25.107,-76.400,25664.946920
1 Jan 2020 17:48:10.000,25.712,-76.239,25833.339595
1 Jan 2020 17:48:40.000,26.291,-76.088,26004.123964
1 Jan 2020 17:49:10.000,26.846,-75.948,26177.147036
1 Jan 2020 17:49:40.000,27.379,-75.818,26352.256860
1 Jan 2020 17:50:10.000,27.891,-75.699,26529.303028
1 Jan 2020 17:50:40.000,28.383,-75.591,26708.135424
1 Jan 2020 17:51:10.000,28.856,-75.493,26888.606447
1 Jan 2020 17:51:40.000,29.312,-75.406,27070.569734
1 Jan 2020 17:52:10.000,29.752,-75.329,27253.880616
1 Jan 2020 17:52:40.000,30.176,-75.263,27438.396209
1 Jan 2020 17:53:10.000,30.586,-75.207,27623.975495
1 Jan 2020 17:53:40.000,30.981,-75.161,27810.479397
1 Jan 2020 17:54:10.000,31.364,-75.124,27997.770839
1 Jan 2020 17:54:40.000,31.734,-75.098,28185.714798
1 Jan 2020 17:55:10.000,32.093,-75.082,28374.178354
1 Jan 2020 17:55:40.000,32.440,-75.075,28563.030722
1 Jan 2020 17:55:47.623,32.526,-75.074,28611.062489
1 Jan 2020 19:08:01.625,213.635,-75.070,28608.690198
1 Jan 2020 19:08:31.000,213.363,-75.075,28422.010104
1 Jan 2020 19:09:01.000,213.075,-75.089,28231.657496
1 Jan 2020 19:09:31.000,212.776,-75.113,28041.737438
1 Jan 2020 19:10:01.000,212.466,-75.147,27852.383339
1 Jan 2020 19:10:31.000,212.143,-75.192,27663.730841
1 Jan 2020 19:11:01.000,211.808,-75.246,27475.917780
1 Jan 2020 19:11:31.000,211.460,-75.311,27289.084139
1 Jan 2020 19:12:01.000,211.097,-75.387,27103.371994
1 Jan 2020 19:12:31.000,210.720,-75.473,26918.925449
1 Jan 2020 19:13:01.000,210.327,-75.570,26735.890563
1 Jan 2020 19:13:31.000,209.917,-75.678,26554.415263
1 Jan 2020 19:14:01.000,209.490,-75.797,26374.649248
1 Jan 2020 19:14:31.000,209.043,-75.927,26196.743875
1 Jan 2020 19:15:01.000,208.577,-76.068,26020.852042
1 Jan 2020 19:15:31.000,208.089,-76.220,25847.128046
1 Jan 2020 19:16:01.000,207.577,-76.384,25675.727434
1 Jan 2020 19:16:31.000,207.041,-76.558,25506.806834
1 Jan 2020 19:17:01.000,206.478,-76.743,25340.523446
1 Jan 2020 19:17:31.000,205.886,-76.940,25177.036149
1 Jan 2020 19:18:01.000,205.264,-77.147,25016.503317
1 Jan 2020 19:18:31.000,204.607,-77.365,24859.083902
1 Jan 2020 19:19:01.000,203.914,-77.594,24704.936847
1 Jan 2020 19:19:31.000,203.182,-77.833,24554.220821
1 Jan 2020 19:20:01.000,202.406,-78.083,24407.093926
1 Jan 2020 19:20:31.000,201.583,-78.342,24263.713395
1 Jan 2020 19:21:01.000,200.708,-78.611,24124.234999
1 Jan 2020 19:21:31.000,199.776,-78.889,23988.813787
1 Jan 2020 19:22:01.000,198.781,-79.176,23857.602097
1 Jan 2020 19:22:31.000,197.717,-79.471,23730.750285
1 Jan 2020 19:23:01.000,196.576,-79.774,23608.406058
1 Jan 2020 19:23:31.000,195.350,-80.084,23490.714082
1 Jan 2020 19:24:01.000,194.030,-80.400,23377.815574
1 Jan 2020 19:24:31.000,192.603,-80.721,23269.847651
1 Jan 2020 19:25:01.000,191.058,-81.047,23166.943851
1 Jan 2020 19:25:31.000,189.380,-81.376,23069.232283
1 Jan 2020 19:26:01.000,187.554,-81.706,22976.836155
1 Jan 2020 19:26:31.000,185.559,-82.037,22889.873114
1 Jan 2020 19:27:01.000,183.377,-82.367,22808.454827
1 Jan 2020 19:27:31.000,180.982,-82.693,22732.686400
1 Jan 2020 19:28:01.000,178.350,-83.013,22662.666655
1 Jan 2020 19:28:31.000,175.453,-83.326,22598.486723
1 Jan 2020 19:29:01.000,172.261,-83.627,22540.230374
1 Jan 2020 19:29:31.000,168.747,-83.913,22487.973497
1 Jan 2020 19:30:01.000,164.883,-84.181,22441.783694
1 Jan 2020 19:30:31.000,160.649,-84.426,22401.720370
1 Jan 2020 19:31:01.000,156.037,-84.644,22367.833894
1 Jan 2020 19:31:31.000,151.052,-84.831,22340.165777
1 Jan 2020 19:32:01.000,145.724,-84.980,22318.748389
1 Jan 2020 19:32:31.000,140.109,-85.090,22303.604774
1 Jan 2020 19:33:01.000,134.286,-85.155,22294.748699
1 Jan 2020 19:33:31.000,128.359,-85.174,22292.184347
1 Jan 2020 19:34:01.000,122.443,-85.146,22295.906472
1 Jan 2020 19:34:31.000,116.651,-85.073,22305.900374
1 Jan 2020 19:35:01.000,111.082,-84.957,22322.141994
1 Jan 2020 19:35:31.000,105.810,-84.801,22344.597922
1 Jan 2020 19:36:01.000,100.886,-84.610,22373.225673
1 Jan 2020 19:36:31.000,96.332,-84.389,22407.973804
1 Jan 2020 19:37:01.000,92.151,-84.141,22448.782152
1 Jan 2020 19:37:31.000,88.331,-83.872,22495.582180
1 Jan 2020 19:38:01.000,84.849,-83.586,22548.296942
1 Jan 2020 19:38:31.000,81.680,-83.286,22606.841877
1 Jan 2020 19:39:01.000,78.793,-82.976,22671.124853
1 Jan 2020 19:39:31.000,76.161,-82.658,22741.046613
1 Jan 2020 19:40:01.000,73.754,-82.336,22816.501161
1 Jan 2020 19:40:31.000,71.549,-82.010,22897.376335
1 Jan 2020 19:41:01.000,69.523,-81.684,22983.553581
1 Jan 2020 19:41:31.000,67.654,-81.359,23074.909327
1 Jan 2020 19:42:01.000,65.926,-81.035,23171.314797
1 Jan 2020 19:42:31.000,64.322,-80.715,23272.636595
1 Jan 2020 19:43:01.000,62.828,-80.400,23378.737146
1 Jan 2020 19:43:31.000,61.432,-80.090,23489.475120
1 Jan 2020 19:44:01.000,60.123,-79.787,23604.706090
1 Jan 2020 19:44:31.000,58.892,-79.490,23724.282040
1 Jan 2020 19:45:01.000,57.731,-79.201,23848.053118
1 Jan 2020 19:45:31.000,56.633,-78.920,23975.867142
1 Jan 2020 19:46:01.000,55.590,-78.648,24107.570197
1 Jan 2020 19:46:31.000,54.597,-78.384,24243.007000
1 Jan 2020 19:47:01.000,53.650,-78.130,24382.021249
1 Jan 2020 19:47:31.000,52.743,-77.886,24524.455952
1 Jan 2020 19:48:01.000,51.873,-77.651,24670.153739
1 Jan 2020 19:48:31.000,51.036,-77.427,24818.957436
1 Jan 2020 19:49:01.000,50.230,-77.213,24970.709234
1 Jan 2020 19:49:31.000,49.451,-77.009,25125.252597
1 Jan 2020 19:50:01.000,48.696,-76.815,25282.431404
1 Jan 2020 19:50:31.000,47.963,-76.632,25442.090449
1 Jan 2020 19:51:01.000,47.251,-76.460,25604.075634
1 Jan 2020 19:51:31.000,46.557,-76.298,25768.234164
1 Jan 2020 19:52:01.000,45.879,-76.146,25934.414711
1 Jan 2020 19:52:31.000,45.217,-76.005,26102.467570
1 Jan 2020 19:53:01.000,44.568,-75.874,26272.244795
1 Jan 2020 19:53:31.000,43.930,-75.754,26443.600325
1 Jan 2020 19:54:01.000,43.304,-75.644,26616.390088
1 Jan 2020 19:54:31.000,42.688,-75.544,26790.472104
1 Jan 2020 19:55:01.000,42.080,-75.454,26965.706567
1 Jan 2020 19:55:31.000,41.479,-75.374,27141.955914
1 Jan 2020 19:56:01.000,40.886,-75.304,27319.084893
1 Jan 2020 19:56:31.000,40.298,-75.244,27496.960613
1 Jan 2020 19:57:01.000,39.715,-75.193,27675.452582
1 Jan 2020 19:57:31.000,39.136,-75.151,27854.432751
1 Jan 2020 19:58:01.000,38.561,-75.119,28033.775533
1 Jan 2020 19:58:31.000,37.989,-75.096,28213.357826
1 Jan 2020 19:59:01.000,37.419,-75.081,28393.059024
1 Jan 2020 19:59:31.000,36.850,-75.075,28572.761029
1 Jan 2020 19:59:36.689,36.742,-75.075,28606.829970
1 Jan 2020 21:15:33.293,185.490,-75.066,28600.854049
1 Jan 2020 21:16:03.000,184.528,-75.068,28452.970754
1 Jan 2020 21:16:33.000,183.545,-75.077,28304.340314
1 Jan 2020 21:17:03.000,182.550,-75.092,28156.519374
1 Jan 2020 21:17:33.000,181.541,-75.113,28009.601829
1 Jan 2020 21:18:03.000,180.518,-75.139,27863.682299
1 Jan 2020 21:18:33.000,179.481,-75.171,27718.856071
1 Jan 2020 21:19:03.000,178.428,-75.210,27575.219044
1 Jan 2020 21:19:33.000,177.358,-75.254,27432.867667
1 Jan 2020 21:20:03.000,176.271,-75.303,27291.898875
1 Jan 2020 21:20:33.000,175.165,-75.359,27152.410019
1 Jan 2020 21:21:03.000,174.040,-75.420,27014.498786
1 Jan 2020 21:21:33.000,172.895,-75.486,26878.263120
1 Jan 2020 21:22:03.000,171.729,-75.558,26743.801135
1 Jan 2020 21:22:33.000,170.540,-75.635,26611.211026
1 Jan 2020 21:23:03.000,169.327,-75.717,26480.590966
1 Jan 2020 21:23:33.000,168.090,-75.805,26352.039006
1 Jan 2020 21:24:03.000,166.827,-75.897,26225.652968
1 Jan 2020 21:24:33.000,165.537,-75.993,26101.530072
1 Jan 2020 21:25:03.000,164.219,-76.094,25979.767841
1 Jan 2020 21:25:33.000,162.871,-76.199,25860.462436
1 Jan 2020 21:26:03.000,161.492,-76.308,25743.709553
1 Jan 2020 21:26:33.000,160.081,-76.420,25629.604032
1 Jan 2020 21:27:03.000,158.637,-76.536,25518.239716
1 Jan 2020 21:27:33.000,157.158,-76.654,25409.709301
1 Jan 2020 21:28:03.000,155.642,-76.775,25304.104192
1 Jan 2020 21:28:33.000,154.089,-76.899,25201.514345
1 Jan 2020 21:29:03.000,152.498,-77.024,25102.028110
1 Jan 2020 21:29:33.000,150.866,-77.150,25005.731872
1 Jan 2020 21:30:03.000,149.193,-77.278,24912.710695
1 Jan 2020 21:30:33.000,147.478,-77.406,24823.046935
1 Jan 2020 21:31:03.000,145.719,-77.533,24736.820891
1 Jan 2020 21:31:33.000,143.915,-77.661,24654.110438
1 Jan 2020 21:32:03.000,142.066,-77.787,24574.990854
1 Jan 2020 21:32:33.000,140.171,-77.911,24499.534657
1 Jan 2020 21:33:03.000,138.230,-78.034,24427.811440
1 Jan 2020 21:33:33.000,136.242,-78.153,24359.887567
1 Jan 2020 21:34:03.000,134.207,-78.269,24295.826585
1 Jan 2020 21:34:33.000,132.126,-78.381,24235.688206
1 Jan 2020 21:35:03.000,129.999,-78.489,24179.528737
1 Jan 2020 21:35:33.000,127.827,-78.591,24127.400798
1 Jan 2020 21:36:03.000,125.611,-78.687,24079.353176
1 Jan 2020 21:36:33.000,123.354,-78.777,24035.430702
1 Jan 2020 21:37:03.000,121.057,-78.861,23995.674134
1 Jan 2020 21:37:33.000,118.723,-78.936,23960.119957
1 Jan 2020 21:38:03.000,116.355,-79.004,23928.800627
1 Jan 2020 21:38:33.000,113.956,-79.063,23901.743961
1 Jan 2020 21:39:03.000,111.530,-79.114,23878.973415
1 Jan 2020 21:39:33.000,109.081,-79.155,23860.507926
1 Jan 2020 21:40:03.000,106.614,-79.187,23846.361860
1 Jan 2020 21:40:33.000,104.133,-79.210,23836.544977
1 Jan 2020 21:41:03.000,101.643,-79.222,23831.062386
1 Jan 2020 21:41:33.000,99.149,-79.225,23829.914594
1 Jan 2020 21:42:03.000,96.657,-79.218,23833.097408
1 Jan 2020 21:42:33.000,94.171,-79.201,23840.602022
1 Jan 2020 21:43:03.000,91.697,-79.174,23852.415027
1 Jan 2020 21:43:33.000,89.238,-79.138,23868.518452
1 Jan 2020 21:44:03.000,86.799,-79.093,23888.889819
1 Jan 2020 21:44:33.000,84.386,-79.039,23913.502209
1 Jan 2020 21:45:03.000,82.000,-78.976,23942.324410
1 Jan 2020 21:45:33.000,79.647,-78.906,23975.320759
1 Jan 2020 21:46:03.000,77.329,-78.828,24012.451601
1 Jan 2020 21:46:33.000,75.049,-78.742,24053.673173
1 Jan 2020 21:47:03.000,72.808,-78.650,24098.937785
1 Jan 2020 21:47:33.000,70.609,-78.553,24148.193949
1 Jan 2020 21:48:03.000,68.454,-78.450,24201.386518
1 Jan 2020 21:48:33.000,66.342,-78.342,24258.456833
1 Jan 2020 21:49:03.000,64.276,-78.230,24319.343005
1 Jan 2020 21:49:33.000,62.255,-78.114,24383.979574
1 Jan 2020 21:50:03.000,60.279,-77.995,24452.298401
1 Jan 2020 21:50:33.000,58.348,-77.874,24524.228360
1 Jan 2020 21:51:03.000,56.462,-77.751,24599.695622
1 Jan 2020 21:51:33.000,54.620,-77.627,24678.623822
1 Jan 2020 21:52:03.000,52.821,-77.502,24760.934235
1 Jan 2020 21:52:33.000,51.064,-77.376,24846.545944
1 Jan 2020 21:53:03.000,49.349,-77.251,24935.376014
1 Jan 2020 21:53:33.000,47.674,-77.126,25027.339655
1 Jan 2020 21:54:03.000,46.038,-77.003,25122.350599
1 Jan 2020 21:54:33.000,44.439,-76.881,25220.320456
1 Jan 2020 21:55:03.000,42.877,-76.761,25321.160073
1 Jan 2020 21:55:33.000,41.349,-76.643,25424.778898
1 Jan 2020 21:56:03.000,39.856,-76.527,25531.085333
1 Jan 2020 21:56:33.000,38.394,-76.415,25639.986880
1 Jan 2020 21:57:03.000,36.964,-76.306,25751.390286
