STKdata/Satellite-MEO_Satellite10104-To-Satellite-LEO_Satellite20000 AER.csv

"Time (UTCG)","Azimuth (deg)","Elevation (deg)","Range (km)"
1 Jan 2020 00:00:00.000,273.302,-76.282,25789.083271
1 Jan 2020 00:00:30.000,272.271,-76.120,25968.436203
1 Jan 2020 00:01:00.000,271.287,-75.970,26151.393149
1 Jan 2020 00:01:30.000,270.347,-75.830,26337.726540
1 Jan 2020 00:02:00.000,269.448,-75.703,26527.209246
1 Jan 2020 00:02:30.000,268.588,-75.587,26719.614981
1 Jan 2020 00:03:00.000,267.764,-75.482,26914.718665
1 Jan 2020 00:03:30.000,266.973,-75.390,27112.296767
1 Jan 2020 00:04:00.000,266.214,-75.309,27312.127607
1 Jan 2020 00:04:30.000,265.485,-75.241,27513.991634
1 Jan 2020 00:05:00.000,264.784,-75.184,27717.671673
1 Jan 2020 00:05:30.000,264.108,-75.140,27922.953145
1 Jan 2020 00:06:00.000,263.458,-75.107,28129.624267
1 Jan 2020 00:06:30.000,262.830,-75.086,28337.476218
1 Jan 2020 00:07:00.000,262.224,-75.077,28546.303297
1 Jan 2020 00:07:08.664,262.053,-75.077,28606.764965
1 Jan 2020 01:10:07.283,79.893,-75.067,28601.652954
1 Jan 2020 01:10:37.000,80.209,-75.074,28384.797698
1 Jan 2020 01:11:07.000,80.546,-75.093,28166.390524
1 Jan 2020 01:11:37.000,80.901,-75.125,27948.704988
1 Jan 2020 01:12:07.000,81.275,-75.170,27731.952150
1 Jan 2020 01:12:37.000,81.670,-75.229,27516.347027
1 Jan 2020 01:13:07.000,82.087,-75.302,27302.108494
1 Jan 2020 01:13:37.000,82.527,-75.388,27089.459148
1 Jan 2020 01:14:07.000,82.991,-75.489,26878.625166
1 Jan 2020 01:14:37.000,83.482,-75.603,26669.836120
1 Jan 2020 01:15:07.000,84.001,-75.731,26463.324778
1 Jan 2020 01:15:37.000,84.550,-75.874,26259.326863
1 Jan 2020 01:16:07.000,85.131,-76.031,26058.080787
1 Jan 2020 01:16:37.000,85.747,-76.202,25859.827348
1 Jan 2020 01:17:07.000,86.400,-76.388,25664.809390
1 Jan 2020 01:17:37.000,87.094,-76.587,25473.271084
1 Jan 2020 01:18:07.000,87.832,-76.801,25285.458892
1 Jan 2020 01:18:37.000,88.618,-77.028,25101.619023
1 Jan 2020 01:19:07.000,89.456,-77.268,24921.998334
1 Jan 2020 01:19:37.000,90.351,-77.522,24746.843428
1 Jan 2020 01:20:07.000,91.309,-77.788,24576.400079
1 Jan 2020 01:20:37.000,92.335,-78.067,24410.912592
1 Jan 2020 01:21:07.000,93.437,-78.357,24250.622837
1 Jan 2020 01:21:37.000,94.622,-78.658,24095.770765
1 Jan 2020 01:22:07.000,95.899,-78.969,23946.591800
1 Jan 2020 01:22:37.000,97.279,-79.289,23803.317301
1 Jan 2020 01:23:07.000,98.773,-79.617,23666.173441
1 Jan 2020 01:23:37.000,100.393,-79.951,23535.380128
1 Jan 2020 01:24:07.000,102.154,-80.291,23411.151077
1 Jan 2020 01:24:37.000,104.073,-80.634,23293.691520
1 Jan 2020 01:25:07.000,106.167,-80.979,23183.198270
1 Jan 2020 01:25:37.000,108.458,-81.323,23079.858596
1 Jan 2020 01:26:07.000,110.966,-81.664,22983.849144
1 Jan 2020 01:26:37.000,113.716,-81.998,22895.335886
1 Jan 2020 01:27:07.000,116.731,-82.323,22814.472052
1 Jan 2020 01:27:37.000,120.036,-82.635,22741.398161
1 Jan 2020 01:28:07.000,123.652,-82.929,22676.240937
1 Jan 2020 01:28:37.000,127.596,-83.202,22619.113110
1 Jan 2020 01:29:07.000,131.878,-83.448,22570.112003
1 Jan 2020 01:29:37.000,136.492,-83.662,22529.319502
1 Jan 2020 01:30:07.000,141.420,-83.839,22496.801363
1 Jan 2020 01:30:37.000,146.620,-83.976,22472.607110
1 Jan 2020 01:31:07.000,152.031,-84.068,22456.769270
1 Jan 2020 01:31:37.000,157.574,-84.111,22449.303489
1 Jan 2020 01:32:07.000,163.155,-84.106,22450.208331
1 Jan 2020 01:32:37.000,168.678,-84.052,22459.465333
1 Jan 2020 01:33:07.000,174.053,-83.952,22477.038999
1 Jan 2020 01:33:37.000,179.206,-83.807,22502.877081
1 Jan 2020 01:34:07.000,184.079,-83.623,22536.910909
1 Jan 2020 01:34:37.000,188.641,-83.403,22579.055603
1 Jan 2020 01:35:07.000,192.874,-83.154,22629.210800
1 Jan 2020 01:35:37.000,196.779,-82.880,22687.261073
1 Jan 2020 01:36:07.000,200.368,-82.586,22753.076697
1 Jan 2020 01:36:37.000,203.660,-82.276,22826.513978
1 Jan 2020 01:37:07.000,206.677,-81.954,22907.416563
1 Jan 2020 01:37:37.000,209.443,-81.623,22995.615898
1 Jan 2020 01:38:07.000,211.983,-81.288,23090.932153
1 Jan 2020 01:38:37.000,214.319,-80.950,23193.175286
1 Jan 2020 01:39:07.000,216.473,-80.612,23302.145222
1 Jan 2020 01:39:37.000,218.466,-80.276,23417.633801
1 Jan 2020 01:40:07.000,220.314,-79.944,23539.424998
1 Jan 2020 01:40:37.000,222.034,-79.617,23667.295989
1 Jan 2020 01:41:07.000,223.640,-79.297,23801.018032
1 Jan 2020 01:41:37.000,225.144,-78.986,23940.357582
1 Jan 2020 01:42:07.000,226.557,-78.683,24085.076131
1 Jan 2020 01:42:37.000,227.890,-78.390,24234.932488
1 Jan 2020 01:43:07.000,229.151,-78.108,24389.682571
1 Jan 2020 01:43:37.000,230.347,-77.837,24549.080383
1 Jan 2020 01:44:07.000,231.487,-77.577,24712.878702
1 Jan 2020 01:44:37.000,232.574,-77.330,24880.829720
1 Jan 2020 01:45:07.000,233.616,-77.095,25052.685657
1 Jan 2020 01:45:37.000,234.617,-76.873,25228.199609
1 Jan 2020 01:46:07.000,235.581,-76.664,25407.124883
1 Jan 2020 01:46:37.000,236.512,-76.469,25589.217235
1 Jan 2020 01:47:07.000,237.414,-76.286,25774.234127
1 Jan 2020 01:47:37.000,238.290,-76.117,25961.935408
1 Jan 2020 01:48:07.000,239.143,-75.960,26152.083662
1 Jan 2020 01:48:37.000,239.975,-75.817,26344.444519
1 Jan 2020 01:49:07.000,240.790,-75.687,26538.786929
1 Jan 2020 01:49:37.000,241.588,-75.571,26734.883408
1 Jan 2020 01:50:07.000,242.372,-75.467,26932.510241
1 Jan 2020 01:50:37.000,243.145,-75.375,27131.447668
1 Jan 2020 01:51:07.000,243.907,-75.296,27331.480038
1 Jan 2020 01:51:37.000,244.661,-75.230,27532.395933
1 Jan 2020 01:52:07.000,245.408,-75.175,27733.988276
1 Jan 2020 01:52:37.000,246.149,-75.133,27936.054414
1 Jan 2020 01:53:07.000,246.886,-75.102,28138.396188
1 Jan 2020 01:53:37.000,247.620,-75.082,28340.819973
1 Jan 2020 01:54:07.000,248.353,-75.074,28543.136719
1 Jan 2020 01:54:15.389,248.557,-75.073,28599.670167
1 Jan 2020 02:59:17.593,90.212,-75.064,28594.942232
1 Jan 2020 02:59:47.000,91.647,-75.066,28477.842081
1 Jan 2020 03:00:17.000,93.130,-75.071,28361.026653
1 Jan 2020 03:00:47.000,94.634,-75.080,28247.015466
1 Jan 2020 03:01:17.000,96.157,-75.092,28135.936813
1 Jan 2020 03:01:47.000,97.702,-75.107,28027.916067
1 Jan 2020 03:02:17.000,99.268,-75.125,27923.075411
1 Jan 2020 03:02:47.000,100.855,-75.145,27821.533561
1 Jan 2020 03:03:17.000,102.464,-75.168,27723.405497
1 Jan 2020 03:03:47.000,104.094,-75.192,27628.802184
1 Jan 2020 03:04:17.000,105.746,-75.218,27537.830137
1 Jan 2020 03:04:47.000,107.420,-75.245,27450.591826
1 Jan 2020 03:05:17.000,109.116,-75.273,27367.184389
1 Jan 2020 03:05:47.000,110.832,-75.302,27287.700061
1 Jan 2020 03:06:17.000,112.570,-75.331,27212.225753
1 Jan 2020 03:06:47.000,114.328,-75.361,27140.842807
1 Jan 2020 03:07:17.000,116.105,-75.390,27073.626766
1 Jan 2020 03:07:47.000,117.902,-75.418,27010.647158
1 Jan 2020 03:08:17.000,119.717,-75.446,26951.967159
1 Jan 2020 03:08:47.000,121.550,-75.473,26897.643937
1 Jan 2020 03:09:17.000,123.400,-75.499,26847.727671
1 Jan 2020 03:09:47.000,125.265,-75.523,26802.261940
1 Jan 2020 03:10:17.000,127.144,-75.545,26761.283453
1 Jan 2020 03:10:47.000,129.036,-75.566,26724.821933
1 Jan 2020 03:11:17.000,130.940,-75.584,26692.900028
1 Jan 2020 03:11:47.000,132.854,-75.600,26665.533153
1 Jan 2020 03:12:17.000,134.778,-75.613,26642.729772
1 Jan 2020 03:12:47.000,136.709,-75.624,26624.490874
1 Jan 2020 03:13:17.000,138.645,-75.633,26610.810312
1 Jan 2020 03:13:47.000,140.586,-75.638,26601.674736
1 Jan 2020 03:14:17.000,142.530,-75.641,26597.063640
1 Jan 2020 03:14:47.000,144.475,-75.641,26596.949434
1 Jan 2020 03:15:17.000,146.420,-75.639,26601.297504
1 Jan 2020 03:15:47.000,148.362,-75.634,26610.066450
1 Jan 2020 03:16:17.000,150.302,-75.626,26623.208028
1 Jan 2020 03:16:47.000,152.237,-75.616,26640.667445
1 Jan 2020 03:17:17.000,154.166,-75.603,26662.383497
1 Jan 2020 03:17:47.000,156.087,-75.588,26688.288764
1 Jan 2020 03:18:17.000,158.000,-75.571,26718.309820
1 Jan 2020 03:18:47.000,159.903,-75.552,26752.367463
1 Jan 2020 03:19:17.000,161.796,-75.532,26790.376979
1 Jan 2020 03:19:47.000,163.677,-75.509,26832.248300
1 Jan 2020 03:20:17.000,165.546,-75.486,26877.886403
1 Jan 2020 03:20:47.000,167.401,-75.461,26927.191497
1 Jan 2020 03:21:17.000,169.243,-75.436,26980.059328
1 Jan 2020 03:21:47.000,171.070,-75.410,27036.381462
1 Jan 2020 03:22:17.000,172.883,-75.383,27096.045579
1 Jan 2020 03:22:47.000,174.681,-75.357,27158.935765
1 Jan 2020 03:23:17.000,176.464,-75.330,27224.932806
1 Jan 2020 03:23:47.000,178.232,-75.304,27293.914559
1 Jan 2020 03:24:17.000,179.984,-75.278,27365.755963
1 Jan 2020 03:24:47.000,181.721,-75.253,27440.329744
1 Jan 2020 03:25:17.000,183.443,-75.229,27517.506431
1 Jan 2020 03:25:47.000,185.150,-75.205,27597.154709
1 Jan 2020 03:26:17.000,186.843,-75.184,27679.141691
1 Jan 2020 03:26:47.000,188.521,-75.163,27763.333192
1 Jan 2020 03:27:17.000,190.185,-75.145,27849.593990
1 Jan 2020 03:27:47.000,191.836,-75.128,27937.788082
1 Jan 2020 03:28:17.000,193.473,-75.113,28027.778933
1 Jan 2020 03:28:47.000,195.098,-75.100,28119.429708
1 Jan 2020 03:29:17.000,196.711,-75.089,28212.603506
1 Jan 2020 03:29:47.000,198.313,-75.081,28307.163573
1 Jan 2020 03:30:17.000,199.903,-75.075,28402.973515
1 Jan 2020 03:30:47.000,201.484,-75.071,28499.897496
1 Jan 2020 03:31:16.021,203.004,-75.070,28594.592091
1 Jan 2020 05:53:59.642,306.518,-75.068,28594.302134
1 Jan 2020 05:54:29.000,307.761,-75.071,28444.850995
1 Jan 2020 05:54:59.000,309.040,-75.080,28292.253936
1 Jan 2020 05:55:29.000,310.328,-75.095,28139.941459
1 Jan 2020 05:55:59.000,311.627,-75.117,27988.077414
1 Jan 2020 05:56:29.000,312.939,-75.145,27836.828700
1 Jan 2020 05:56:59.000,314.264,-75.179,27686.365149
1 Jan 2020 05:57:29.000,315.605,-75.220,27536.859396
1 Jan 2020 05:57:59.000,316.963,-75.267,27388.486735
1 Jan 2020 05:58:29.000,318.340,-75.321,27241.424955
1 Jan 2020 05:58:59.000,319.737,-75.381,27095.854160
1 Jan 2020 05:59:29.000,321.156,-75.447,26951.956571
1 Jan 2020 05:59:59.000,322.598,-75.519,26809.916309
1 Jan 2020 06:00:29.000,324.066,-75.597,26669.919153
1 Jan 2020 06:00:59.000,325.561,-75.680,26532.152286
1 Jan 2020 06:01:29.000,327.086,-75.769,26396.804010
1 Jan 2020 06:01:59.000,328.641,-75.863,26264.063447
1 Jan 2020 06:02:29.000,330.230,-75.962,26134.120214
1 Jan 2020 06:02:59.000,331.854,-76.065,26007.164073
1 Jan 2020 06:03:29.000,333.514,-76.172,25883.384383
1 Jan 2020 06:03:59.000,335.214,-76.283,25762.970445
1 Jan 2020 06:04:29.000,336.954,-76.396,25646.109974
1 Jan 2020 06:04:59.000,338.736,-76.512,25532.989412
1 Jan 2020 06:05:29.000,340.563,-76.630,25423.793292
1 Jan 2020 06:05:59.000,342.436,-76.750,25318.703762
1 Jan 2020 06:06:29.000,344.356,-76.870,25217.900097
1 Jan 2020 06:06:59.000,346.325,-76.989,25121.558199
1 Jan 2020 06:07:29.000,348.343,-77.108,25029.849954
1 Jan 2020 06:07:59.000,350.412,-77.225,24942.943212
1 Jan 2020 06:08:29.000,352.531,-77.340,24861.000486
1 Jan 2020 06:08:59.000,354.701,-77.451,24784.178936
1 Jan 2020 06:09:29.000,356.922,-77.558,24712.629700
1 Jan 2020 06:09:59.000,359.192,-77.661,24646.497360
1 Jan 2020 06:10:29.000,1.510,-77.757,24585.919355
1 Jan 2020 06:10:59.000,3.874,-77.846,24531.025724
1 Jan 2020 06:11:29.000,6.282,-77.928,24481.938204
1 Jan 2020 06:11:59.000,8.729,-78.001,24438.770030
1 Jan 2020 06:12:29.000,11.213,-78.065,24401.625406
1 Jan 2020 06:12:59.000,13.729,-78.120,24370.599068
1 Jan 2020 06:13:29.000,16.272,-78.164,24345.775942
1 Jan 2020 06:13:59.000,18.836,-78.197,24327.230690
1 Jan 2020 06:14:29.000,21.415,-78.219,24315.027467
1 Jan 2020 06:14:59.000,24.003,-78.230,24309.219620
1 Jan 2020 06:15:29.000,26.593,-78.229,24309.849501
1 Jan 2020 06:15:59.000,29.179,-78.216,24316.948128
1 Jan 2020 06:16:29.000,31.754,-78.191,24330.535269
1 Jan 2020 06:16:59.000,34.311,-78.155,24350.619229
1 Jan 2020 06:17:29.000,36.845,-78.108,24377.196847
1 Jan 2020 06:17:59.000,39.348,-78.050,24410.253617
1 Jan 2020 06:18:29.000,41.817,-77.981,24449.763384
1 Jan 2020 06:18:59.000,44.245,-77.904,24495.689020
1 Jan 2020 06:19:29.000,46.629,-77.817,24547.982236
1 Jan 2020 06:19:59.000,48.964,-77.722,24606.583896
1 Jan 2020 06:20:29.000,51.248,-77.620,24671.424415
1 Jan 2020 06:20:59.000,53.477,-77.512,24742.423515
1 Jan 2020 06:21:29.000,55.651,-77.398,24819.491386
1 Jan 2020 06:21:59.000,57.767,-77.280,24902.528529
1 Jan 2020 06:22:29.000,59.825,-77.158,24991.426297
1 Jan 2020 06:22:59.000,61.824,-77.033,25086.067330
1 Jan 2020 06:23:29.000,63.764,-76.906,25186.326231
1 Jan 2020 06:23:59.000,65.646,-76.779,25292.069187
1 Jan 2020 06:24:29.000,67.470,-76.651,25403.155730
1 Jan 2020 06:24:59.000,69.238,-76.524,25519.438397
1 Jan 2020 06:25:29.000,70.951,-76.399,25640.763453
1 Jan 2020 06:25:59.000,72.609,-76.276,25766.971393
1 Jan 2020 06:26:29.000,74.216,-76.156,25897.897455
1 Jan 2020 06:26:59.000,75.772,-76.040,26033.372388
1 Jan 2020 06:27:29.000,77.279,-75.929,26173.221904
1 Jan 2020 06:27:59.000,78.739,-75.822,26317.268723
1 Jan 2020 06:28:29.000,80.153,-75.720,26465.332020
1 Jan 2020 06:28:59.000,81.524,-75.625,26617.228139
1 Jan 2020 06:29:29.000,82.854,-75.536,26772.771041
1 Jan 2020 06:29:59.000,84.144,-75.453,26931.772732
1 Jan 2020 06:30:29.000,85.397,-75.378,27094.043674
1 Jan 2020 06:30:59.000,86.613,-75.310,27259.393170
1 Jan 2020 06:31:29.000,87.794,-75.251,27427.629739
1 Jan 2020 06:31:59.000,88.943,-75.199,27598.561765
1 Jan 2020 06:32:29.000,90.061,-75.155,27771.996624
1 Jan 2020 06:32:59.000,91.150,-75.119,27947.742786
1 Jan 2020 06:33:29.000,92.211,-75.092,28125.608913
1 Jan 2020 06:33:59.000,93.245,-75.074,28305.404421
1 Jan 2020 06:34:29.000,94.254,-75.065,28486.939724
1 Jan 2020 06:34:46.794,94.842,-75.063,28595.359610
1 Jan 2020 07:38:06.230,283.860,-75.072,28600.061545
1 Jan 2020 07:38:36.000,283.976,-75.078,28379.505281
1 Jan 2020 07:39:06.000,284.084,-75.098,28157.315394
1 Jan 2020 07:39:36.000,284.182,-75.131,27935.400808
1 Jan 2020 07:40:06.000,284.269,-75.178,27713.969824
1 Jan 2020 07:40:36.000,284.347,-75.240,27493.235443
1 Jan 2020 07:41:06.000,284.415,-75.316,27273.415323
1 Jan 2020 07:41:36.000,284.473,-75.407,27054.731710
1 Jan 2020 07:42:06.000,284.520,-75.513,26837.411355
1 Jan 2020 07:42:36.000,284.556,-75.634,26621.685400
1 Jan 2020 07:43:06.000,284.582,-75.771,26407.789242
1 Jan 2020 07:43:36.000,284.597,-75.924,26195.962369
1 Jan 2020 07:44:06.000,284.600,-76.093,25986.448165
1 Jan 2020 07:44:36.000,284.591,-76.278,25779.493675
1 Jan 2020 07:45:06.000,284.570,-76.480,25575.349344
1 Jan 2020 07:45:36.000,284.535,-76.698,25374.268712
1 Jan 2020 07:46:06.000,284.487,-76.933,25176.507740
1 Jan 2020 07:46:36.000,284.423,-77.186,24982.325718
1 Jan 2020 07:47:06.000,284.344,-77.455,24791.982879
1 Jan 2020 07:47:36.000,284.248,-77.741,24605.741220
1 Jan 2020 07:48:06.000,284.133,-78.043,24423.863638
1 Jan 2020 07:48:36.000,283.998,-78.363,24246.613350
1 Jan 2020 07:49:06.000,283.841,-78.700,24074.253254
1 Jan 2020 07:49:36.000,283.659,-79.053,23907.044943
1 Jan 2020 07:50:06.000,283.450,-79.423,23745.249185
1 Jan 2020 07:50:36.000,283.210,-79.809,23589.123290
1 Jan 2020 07:51:06.000,282.936,-80.210,23438.921523
1 Jan 2020 07:51:36.000,282.621,-80.627,23294.893905
1 Jan 2020 07:52:06.000,282.259,-81.059,23157.285069
1 Jan 2020 07:52:36.000,281.843,-81.506,23026.334243
1 Jan 2020 07:53:06.000,281.363,-81.966,22902.272850
1 Jan 2020 07:53:36.000,280.805,-82.439,22785.324461
1 Jan 2020 07:54:06.000,280.153,-82.925,22675.703542
1 Jan 2020 07:54:36.000,279.384,-83.422,22573.614233
1 Jan 2020 07:55:06.000,278.468,-83.929,22479.250148
1 Jan 2020 07:55:36.000,277.361,-84.445,22392.792141
1 Jan 2020 07:56:06.000,276.003,-84.969,22314.408177
1 Jan 2020 07:56:36.000,274.303,-85.498,22244.252078
1 Jan 2020 07:57:06.000,272.124,-86.030,22182.463131
1 Jan 2020 07:57:36.000,269.242,-86.562,22129.164522
1 Jan 2020 07:58:06.000,265.281,-87.088,22084.463115
1 Jan 2020 07:58:36.000,259.572,-87.599,22048.448604
1 Jan 2020 07:59:06.000,250.868,-88.078,22021.193224
1 Jan 2020 07:59:36.000,236.937,-88.487,22002.750867
1 Jan 2020 08:00:06.000,215.125,-88.752,21993.157036
1 Jan 2020 08:00:36.000,187.806,-88.774,21992.428544
1 Jan 2020 08:01:06.000,164.697,-88.542,22000.563403
1 Jan 2020 08:01:36.000,149.646,-88.149,22017.540807
1 Jan 2020 08:02:06.000,140.268,-87.679,22043.321297
1 Jan 2020 08:02:36.000,134.156,-87.172,22077.847068
1 Jan 2020 08:03:06.000,129.935,-86.649,22121.042079
1 Jan 2020 08:03:36.000,126.866,-86.118,22172.812883
1 Jan 2020 08:04:06.000,124.538,-85.586,22233.048985
1 Jan 2020 08:04:36.000,122.712,-85.058,22301.623687
1 Jan 2020 08:05:06.000,121.237,-84.534,22378.394350
1 Jan 2020 08:05:36.000,120.017,-84.018,22463.203937
1 Jan 2020 08:06:06.000,118.988,-83.510,22555.881436
1 Jan 2020 08:06:36.000,118.104,-83.013,22656.243081
1 Jan 2020 08:07:06.000,117.333,-82.527,22764.092667
1 Jan 2020 08:07:36.000,116.652,-82.053,22879.223523
1 Jan 2020 08:08:06.000,116.042,-81.592,23001.418895
1 Jan 2020 08:08:36.000,115.490,-81.145,23130.453127
1 Jan 2020 08:09:06.000,114.985,-80.712,23266.092921
1 Jan 2020 08:09:36.000,114.519,-80.293,23408.097370
1 Jan 2020 08:10:06.000,114.085,-79.891,23556.220380
1 Jan 2020 08:10:36.000,113.679,-79.503,23710.210667
1 Jan 2020 08:11:06.000,113.294,-79.132,23869.812915
1 Jan 2020 08:11:36.000,112.929,-78.777,24034.768643
1 Jan 2020 08:12:06.000,112.579,-78.439,24204.817332
1 Jan 2020 08:12:36.000,112.242,-78.117,24379.696044
1 Jan 2020 08:13:06.000,111.916,-77.812,24559.141883
1 Jan 2020 08:13:36.000,111.599,-77.524,24742.891534
1 Jan 2020 08:14:06.000,111.290,-77.253,24930.682174
1 Jan 2020 08:14:36.000,110.986,-76.998,25122.252051
1 Jan 2020 08:15:06.000,110.687,-76.760,25317.341012
1 Jan 2020 08:15:36.000,110.391,-76.539,25515.690980
1 Jan 2020 08:16:06.000,110.098,-76.334,25717.046384
1 Jan 2020 08:16:36.000,109.806,-76.145,25921.154541
1 Jan 2020 08:17:06.000,109.515,-75.972,26127.766350
1 Jan 2020 08:17:36.000,109.224,-75.816,26336.635192
1 Jan 2020 08:18:06.000,108.932,-75.675,26547.519279
1 Jan 2020 08:18:36.000,108.638,-75.550,26760.180490
1 Jan 2020 08:19:06.000,108.343,-75.439,26974.384908
1 Jan 2020 08:19:36.000,108.045,-75.344,27189.902978
1 Jan 2020 08:20:06.000,107.744,-75.263,27406.509642
1 Jan 2020 08:20:36.000,107.439,-75.197,27623.984439
1 Jan 2020 08:21:06.000,107.130,-75.144,27842.111592
1 Jan 2020 08:21:36.000,106.816,-75.105,28060.680067
1 Jan 2020 08:22:06.000,106.497,-75.080,28279.483614
1 Jan 2020 08:22:36.000,106.172,-75.068,28498.320795
1 Jan 2020 08:22:50.238,106.016,-75.066,28602.138362
1 Jan 2020 09:26:31.914,273.325,-75.076,28607.235119
1 Jan 2020 09:27:01.000,272.192,-75.079,28447.468629
1 Jan 2020 09:27:31.000,271.001,-75.090,28284.638066
1 Jan 2020 09:28:01.000,269.784,-75.107,28123.967654
1 Jan 2020 09:28:31.000,268.541,-75.131,27965.632469
1 Jan 2020 09:29:01.000,267.270,-75.162,27809.807258
1 Jan 2020 09:29:31.000,265.971,-75.199,27656.666147
1 Jan 2020 09:30:01.000,264.641,-75.242,27506.382348
1 Jan 2020 09:30:31.000,263.281,-75.291,27359.127841
1 Jan 2020 09:31:01.000,261.888,-75.345,27215.073042
1 Jan 2020 09:31:31.000,260.461,-75.405,27074.386464
1 Jan 2020 09:32:01.000,259.000,-75.469,26937.234111
1 Jan 2020 09:32:31.000,257.503,-75.538,26803.780085
1 Jan 2020 09:33:01.000,255.969,-75.611,26674.184732
1 Jan 2020 09:33:31.000,254.397,-75.687,26548.605236
1 Jan 2020 09:34:01.000,252.786,-75.766,26427.194970
1 Jan 2020 09:34:31.000,251.135,-75.848,26310.103088
1 Jan 2020 09:35:01.000,249.444,-75.931,26197.474113
1 Jan 2020 09:35:31.000,247.712,-76.016,26089.447317
1 Jan 2020 09:36:01.000,245.939,-76.102,25986.157131
1 Jan 2020 09:36:31.000,244.124,-76.188,25887.731483
1 Jan 2020 09:37:01.000,242.268,-76.274,25794.292232
1 Jan 2020 09:37:31.000,240.370,-76.358,25705.954555
1 Jan 2020 09:38:01.000,238.432,-76.441,25622.826556
1 Jan 2020 09:38:31.000,236.454,-76.522,25545.008738
1 Jan 2020 09:39:01.000,234.437,-76.599,25472.594280
1 Jan 2020 09:39:31.000,232.382,-76.673,25405.667729
1 Jan 2020 09:40:01.000,230.291,-76.743,25344.305342
1 Jan 2020 09:40:31.000,228.166,-76.808,25288.574626
1 Jan 2020 09:41:01.000,226.009,-76.868,25238.534082
1 Jan 2020 09:41:31.000,223.823,-76.922,25194.232857
1 Jan 2020 09:42:01.000,221.611,-76.970,25155.711016
1 Jan 2020 09:42:31.000,219.375,-77.012,25122.998663
1 Jan 2020 09:43:01.000,217.120,-77.046,25096.116305
1 Jan 2020 09:43:31.000,214.848,-77.073,25075.074641
1 Jan 2020 09:44:01.000,212.564,-77.093,25059.874515
1 Jan 2020 09:44:31.000,210.272,-77.105,25050.506852
1 Jan 2020 09:45:01.000,207.974,-77.110,25046.952926
1 Jan 2020 09:45:31.000,205.676,-77.107,25049.184068
1 Jan 2020 09:46:01.000,203.382,-77.096,25057.162033
1 Jan 2020 09:46:31.000,201.094,-77.078,25070.839082
1 Jan 2020 09:47:01.000,198.816,-77.053,25090.158176
1 Jan 2020 09:47:31.000,196.553,-77.021,25115.053203
1 Jan 2020 09:48:01.000,194.308,-76.982,25145.449217
1 Jan 2020 09:48:31.000,192.082,-76.937,25181.262742
1 Jan 2020 09:49:01.000,189.880,-76.886,25222.402090
1 Jan 2020 09:49:31.000,187.703,-76.830,25268.767698
1 Jan 2020 09:50:01.000,185.554,-76.769,25320.252500
1 Jan 2020 09:50:31.000,183.434,-76.703,25376.742366
1 Jan 2020 09:51:01.000,181.345,-76.634,25438.116284
1 Jan 2020 09:51:31.000,179.288,-76.562,25504.247100
1 Jan 2020 09:52:01.000,177.264,-76.487,25575.001737
1 Jan 2020 09:52:31.000,175.273,-76.410,25650.241682
1 Jan 2020 09:53:01.000,173.316,-76.332,25729.823423
1 Jan 2020 09:53:31.000,171.393,-76.252,25813.598893
1 Jan 2020 09:54:01.000,169.504,-76.172,25901.416017
1 Jan 2020 09:54:31.000,167.648,-76.092,25993.118727
1 Jan 2020 09:55:01.000,165.825,-76.013,26088.548017
1 Jan 2020 09:55:31.000,164.034,-75.935,26187.541961
1 Jan 2020 09:56:01.000,162.274,-75.858,26289.936222
1 Jan 2020 09:56:31.000,160.545,-75.783,26395.564461
1 Jan 2020 09:57:01.000,158.846,-75.710,26504.258724
1 Jan 2020 09:57:31.000,157.175,-75.640,26615.849821
1 Jan 2020 09:58:01.000,155.531,-75.573,26730.167682
1 Jan 2020 09:58:31.000,153.913,-75.510,26847.041708
1 Jan 2020 09:59:01.000,152.320,-75.450,26966.301098
1 Jan 2020 09:59:31.000,150.751,-75.393,27087.775330
1 Jan 2020 10:00:01.000,149.204,-75.341,27211.293782
1 Jan 2020 10:00:31.000,147.678,-75.293,27336.687014
1 Jan 2020 10:01:01.000,146.172,-75.249,27463.786366
1 Jan 2020 10:01:31.000,144.685,-75.210,27592.424364
1 Jan 2020 10:02:01.000,143.215,-75.176,27722.434947
1 Jan 2020 10:02:31.000,141.760,-75.146,27853.653678
1 Jan 2020 10:03:01.000,140.320,-75.121,27985.917938
1 Jan 2020 10:03:31.000,138.894,-75.101,28119.067104
1 Jan 2020 10:04:01.000,137.480,-75.086,28252.942716
1 Jan 2020 10:04:31.000,136.077,-75.076,28387.388624
1 Jan 2020 10:05:01.000,134.684,-75.070,28522.251124
1 Jan 2020 10:05:20.100,133.802,-75.069,28608.259753
1 Jan 2020 12:26:20.844,35.957,-75.075,28610.772112
1 Jan 2020 12:26:50.000,34.508,-75.077,28498.090089
1 Jan 2020 12:27:20.000,33.007,-75.082,28382.740982
1 Jan 2020 12:27:50.000,31.495,-75.091,28268.136210
1 Jan 2020 12:28:20.000,29.973,-75.103,28154.420947
1 Jan 2020 12:28:50.000,28.438,-75.119,28041.741937
1 Jan 2020 12:29:20.000,26.889,-75.138,27930.247329
1 Jan 2020 12:29:50.000,25.327,-75.160,27820.086490
1 Jan 2020 12:30:20.000,23.750,-75.186,27711.409809
1 Jan 2020 12:30:50.000,22.156,-75.214,27604.368495
1 Jan 2020 12:31:20.000,20.547,-75.246,27499.114349
1 Jan 2020 12:31:50.000,18.919,-75.280,27395.799533
1 Jan 2020 12:32:20.000,17.274,-75.317,27294.576324
1 Jan 2020 12:32:50.000,15.609,-75.356,27195.596851
1 Jan 2020 12:33:20.000,13.925,-75.397,27099.012826
1 Jan 2020 12:33:50.000,12.220,-75.440,27004.975256
1 Jan 2020 12:34:20.000,10.494,-75.484,26913.634150
1 Jan 2020 12:34:50.000,8.747,-75.530,26825.138107
1 Jan 2020 12:35:20.000,6.978,-75.577,26739.634406
1 Jan 2020 12:35:50.000,5.187,-75.625,26657.268062
1 Jan 2020 12:36:20.000,3.374,-75.673,26578.181903
1 Jan 2020 12:36:50.000,1.538,-75.721,26502.516125
1 Jan 2020 12:37:20.000,359.680,-75.769,26430.407940
1 Jan 2020 12:37:50.000,357.800,-75.816,26361.991221
1 Jan 2020 12:38:20.000,355.898,-75.862,26297.396147
1 Jan 2020 12:38:50.000,353.974,-75.907,26236.748843
1 Jan 2020 12:39:20.000,352.030,-75.951,26180.170972
1 Jan 2020 12:39:50.000,350.065,-75.992,26127.779592
1 Jan 2020 12:40:20.000,348.082,-76.031,26079.686476
1 Jan 2020 12:40:50.000,346.081,-76.067,26035.997999
1 Jan 2020 12:41:20.000,344.063,-76.100,25996.814739
1 Jan 2020 12:41:50.000,342.030,-76.130,25962.231159
1 Jan 2020 12:42:20.000,339.983,-76.156,25932.335298
1 Jan 2020 12:42:50.000,337.925,-76.178,25907.208478
1 Jan 2020 12:43:20.000,335.857,-76.196,25886.925024
1 Jan 2020 12:43:50.000,333.781,-76.210,25871.552006
1 Jan 2020 12:44:20.000,331.700,-76.220,25861.149013
1 Jan 2020 12:44:50.000,329.615,-76.225,25855.767940
1 Jan 2020 12:45:20.000,327.530,-76.225,25855.452804
1 Jan 2020 12:45:50.000,325.446,-76.221,25860.239584
1 Jan 2020 12:46:20.000,323.365,-76.212,25870.156157
1 Jan 2020 12:46:50.000,321.291,-76.198,25885.221946
1 Jan 2020 12:47:20.000,319.225,-76.180,25905.448212
1 Jan 2020 12:47:50.000,317.170,-76.158,25930.837781
1 Jan 2020 12:48:20.000,315.128,-76.131,25961.385087
1 Jan 2020 12:48:50.000,313.102,-76.100,25997.076196
1 Jan 2020 12:49:20.000,311.092,-76.066,26037.888954
1 Jan 2020 12:49:50.000,309.102,-76.028,26083.792672
1 Jan 2020 12:50:20.000,307.133,-75.987,26134.748817
1 Jan 2020 12:50:50.000,305.186,-75.944,26190.710772
1 Jan 2020 12:51:20.000,303.263,-75.897,26251.624083
1 Jan 2020 12:51:50.000,301.366,-75.849,26317.426658
1 Jan 2020 12:52:20.000,299.494,-75.799,26388.048968
1 Jan 2020 12:52:50.000,297.650,-75.748,26463.414453
1 Jan 2020 12:53:20.000,295.835,-75.696,26543.439112
1 Jan 2020 12:53:50.000,294.047,-75.644,26628.032752
1 Jan 2020 12:54:20.000,292.289,-75.592,26717.098628
1 Jan 2020 12:54:50.000,290.561,-75.540,26810.533900
1 Jan 2020 12:55:20.000,288.861,-75.489,26908.229944
1 Jan 2020 12:55:50.000,287.192,-75.439,27010.072671
1 Jan 2020 12:56:20.000,285.552,-75.392,27115.942849
1 Jan 2020 12:56:50.000,283.941,-75.346,27225.716649
1 Jan 2020 12:57:20.000,282.359,-75.302,27339.265133
1 Jan 2020 12:57:50.000,280.806,-75.262,27456.455847
1 Jan 2020 12:58:20.000,279.280,-75.225,27577.152320
1 Jan 2020 12:58:50.000,277.782,-75.191,27701.214601
1 Jan 2020 12:59:20.000,276.311,-75.161,27828.499591
1 Jan 2020 12:59:50.000,274.866,-75.136,27958.861358
1 Jan 2020 13:00:20.000,273.447,-75.114,28092.151459
1 Jan 2020 13:00:50.000,272.052,-75.098,28228.219240
1 Jan 2020 13:01:20.000,270.681,-75.086,28366.912144
1 Jan 2020 13:01:50.000,269.332,-75.080,28508.075993
1 Jan 2020 13:02:11.412,268.383,-75.078,28610.255418
1 Jan 2020 14:06:28.520,71.384,-75.070,28606.196635
1 Jan 2020 14:06:58.000,70.851,-75.076,28398.136931
1 Jan 2020 14:07:28.000,70.311,-75.094,28186.270195
1 Jan 2020 14:07:58.000,69.772,-75.124,27974.454314
1 Jan 2020 14:08:28.000,69.233,-75.167,27762.887619
1 Jan 2020 14:08:58.000,68.693,-75.223,27551.773187
1 Jan 2020 14:09:28.000,68.151,-75.292,27341.318808
1 Jan 2020 14:09:58.000,67.606,-75.375,27131.736935
1 Jan 2020 14:10:28.000,67.057,-75.471,26923.244616
1 Jan 2020 14:10:58.000,66.503,-75.582,26716.063401
1 Jan 2020 14:11:28.000,65.941,-75.707,26510.419230
1 Jan 2020 14:11:58.000,65.371,-75.846,26306.542291
1 Jan 2020 14:12:28.000,64.791,-76.000,26104.666856
1 Jan 2020 14:12:58.000,64.200,-76.169,25905.031077
1 Jan 2020 14:13:28.000,63.594,-76.353,25707.876761
1 Jan 2020 14:13:58.000,62.973,-76.552,25513.449099
1 Jan 2020 14:14:28.000,62.334,-76.766,25321.996363
1 Jan 2020 14:14:58.000,61.674,-76.995,25133.769559
1 Jan 2020 14:15:28.000,60.989,-77.240,24949.021726
1 Jan 2020 14:15:58.000,60.278,-77.500,24768.008779
1 Jan 2020 14:16:28.000,59.535,-77.775,24590.987103
1 Jan 2020 14:16:58.000,58.757,-78.065,24418.214325
1 Jan 2020 14:17:28.000,57.938,-78.369,24249.948409
1 Jan 2020 14:17:58.000,57.073,-78.688,24086.447037
1 Jan 2020 14:18:28.000,56.155,-79.021,23927.966937
1 Jan 2020 14:18:58.000,55.176,-79.368,23774.762894
1 Jan 2020 14:19:28.000,54.126,-79.728,23627.088068
1 Jan 2020 14:19:58.000,52.996,-80.101,23485.191543
1 Jan 2020 14:20:28.000,51.771,-80.485,23349.318576
1 Jan 2020 14:20:58.000,50.436,-80.879,23219.709432
1 Jan 2020 14:21:28.000,48.973,-81.283,23096.598269
1 Jan 2020 14:21:58.000,47.360,-81.696,22980.212974
1 Jan 2020 14:22:28.000,45.568,-82.115,22870.773001
1 Jan 2020 14:22:58.000,43.564,-82.539,22768.489201
1 Jan 2020 14:23:28.000,41.308,-82.965,22673.562637
1 Jan 2020 14:23:58.000,38.749,-83.391,22586.183453
1 Jan 2020 14:24:28.000,35.826,-83.812,22506.530546
1 Jan 2020 14:24:58.000,32.464,-84.226,22434.769673
1 Jan 2020 14:25:28.000,28.576,-84.627,22371.053217
1 Jan 2020 14:25:58.000,24.061,-85.007,22315.519094
1 Jan 2020 14:26:28.000,18.813,-85.359,22268.290301
1 Jan 2020 14:26:58.000,12.734,-85.673,22229.473696
1 Jan 2020 14:27:28.000,5.768,-85.937,22199.159715
1 Jan 2020 14:27:58.000,357.940,-86.139,22177.421725
1 Jan 2020 14:28:28.000,349.404,-86.267,22164.315673
1 Jan 2020 14:28:58.000,340.460,-86.311,22159.879577
1 Jan 2020 14:29:28.000,331.511,-86.269,22164.133428
1 Jan 2020 14:29:58.000,322.962,-86.143,22177.079075
1 Jan 2020 14:30:28.000,315.118,-85.943,22198.700062
1 Jan 2020 14:30:58.000,308.141,-85.679,22228.961956
1 Jan 2020 14:31:28.000,302.060,-85.364,22267.812439
1 Jan 2020 14:31:58.000,296.821,-85.011,22315.181775
1 Jan 2020 14:32:28.000,292.327,-84.629,22370.982837
1 Jan 2020 14:32:58.000,288.472,-84.226,22435.112226
1 Jan 2020 14:33:28.000,285.156,-83.809,22507.450519
1 Jan 2020 14:33:58.000,282.290,-83.384,22587.863214
1 Jan 2020 14:34:28.000,279.799,-82.955,22676.200889
1 Jan 2020 14:34:58.000,277.621,-82.525,22772.300936
1 Jan 2020 14:35:28.000,275.706,-82.097,22875.987852
1 Jan 2020 14:35:58.000,274.012,-81.673,22987.074303
1 Jan 2020 14:36:28.000,272.506,-81.256,23105.362320
1 Jan 2020 14:36:58.000,271.160,-80.847,23230.643279
1 Jan 2020 14:37:28.000,269.952,-80.448,23362.700321
1 Jan 2020 14:37:58.000,268.863,-80.060,23501.308368
1 Jan 2020 14:38:28.000,267.878,-79.683,23646.235312
1 Jan 2020 14:38:58.000,266.982,-79.319,23797.243216
1 Jan 2020 14:39:28.000,266.167,-78.968,23954.088183
1 Jan 2020 14:39:58.000,265.421,-78.631,24116.522782
1 Jan 2020 14:40:28.000,264.739,-78.308,24284.295870
1 Jan 2020 14:40:58.000,264.112,-78.000,24457.153647
1 Jan 2020 14:41:28.000,263.536,-77.708,24634.840413
1 Jan 2020 14:41:58.000,263.005,-77.430,24817.099283
1 Jan 2020 14:42:28.000,262.515,-77.169,25003.673183
1 Jan 2020 14:42:58.000,262.063,-76.923,25194.304140
1 Jan 2020 14:43:28.000,261.645,-76.692,25388.735835
1 Jan 2020 14:43:58.000,261.258,-76.478,25586.712806
1 Jan 2020 14:44:28.000,260.901,-76.280,25787.981252
1 Jan 2020 14:44:58.000,260.570,-76.097,25992.289463
1 Jan 2020 14:45:28.000,260.264,-75.929,26199.388203
1 Jan 2020 14:45:58.000,259.982,-75.778,26409.031055
1 Jan 2020 14:46:28.000,259.721,-75.642,26620.974727
1 Jan 2020 14:46:58.000,259.480,-75.521,26834.979317
1 Jan 2020 14:47:28.000,259.259,-75.415,27050.808546
1 Jan 2020 14:47:58.000,259.056,-75.324,27268.229961
1 Jan 2020 14:48:28.000,258.871,-75.247,27487.015099
1 Jan 2020 14:48:58.000,258.702,-75.185,27706.939634
1 Jan 2020 14:49:28.000,258.548,-75.137,27927.783492
1 Jan 2020 14:49:58.000,258.410,-75.103,28149.330947
1 Jan 2020 14:50:28.000,258.286,-75.083,28371.370691
1 Jan 2020 14:50:58.000,258.177,-75.075,28593.695890
1 Jan 2020 14:50:59.422,258.172,-75.075,28604.239144
1 Jan 2020 15:54:05.207,83.564,-75.066,28598.992306
1 Jan 2020 15:54:35.000,84.355,-75.071,28402.437301
1 Jan 2020 15:55:05.000,85.174,-75.087,28205.757272
1 Jan 2020 15:55:35.000,86.018,-75.113,28010.523498
1 Jan 2020 15:56:05.000,86.888,-75.149,27816.937196
1 Jan 2020 15:56:35.000,87.786,-75.196,27625.201676
1 Jan 2020 15:57:05.000,88.714,-75.253,27435.522130
1 Jan 2020 15:57:35.000,89.673,-75.320,27248.105396
1 Jan 2020 15:58:05.000,90.665,-75.397,27063.159706
1 Jan 2020 15:58:35.000,91.693,-75.485,26880.894402
1 Jan 2020 15:59:05.000,92.758,-75.582,26701.519630
1 Jan 2020 15:59:35.000,93.863,-75.688,26525.246004
1 Jan 2020 16:00:05.000,95.010,-75.804,26352.284248
1 Jan 2020 16:00:35.000,96.202,-75.929,26182.844500
1 Jan 2020 16:01:05.000,97.441,-76.062,26017.137146
1 Jan 2020 16:01:35.000,98.730,-76.203,25855.370492
1 Jan 2020 16:02:05.000,100.072,-76.352,25697.751560
1 Jan 2020 16:02:35.000,101.471,-76.507,25544.485277
1 Jan 2020 16:03:05.000,102.928,-76.669,25395.773954
1 Jan 2020 16:03:35.000,104.448,-76.837,25251.816746
1 Jan 2020 16:04:05.000,106.033,-77.009,25112.808818
1 Jan 2020 16:04:35.000,107.688,-77.185,24978.941842
1 Jan 2020 16:05:05.000,109.414,-77.365,24850.401768
1 Jan 2020 16:05:35.000,111.217,-77.547,24727.369308
1 Jan 2020 16:06:05.000,113.098,-77.729,24610.019036
1 Jan 2020 16:06:35.000,115.060,-77.912,24498.518764
1 Jan 2020 16:07:05.000,117.107,-78.093,24393.028691
1 Jan 2020 16:07:35.000,119.240,-78.271,24293.701684
1 Jan 2020 16:08:05.000,121.462,-78.446,24200.681294
1 Jan 2020 16:08:35.000,123.773,-78.615,24114.102081
1 Jan 2020 16:09:05.000,126.173,-78.778,24034.088803
1 Jan 2020 16:09:35.000,128.662,-78.932,23960.755708
1 Jan 2020 16:10:05.000,131.238,-79.077,23894.206649
1 Jan 2020 16:10:35.000,133.898,-79.211,23834.533632
1 Jan 2020 16:11:05.000,136.637,-79.333,23781.817032
1 Jan 2020 16:11:35.000,139.450,-79.441,23736.125036
1 Jan 2020 16:12:05.000,142.329,-79.534,23697.513203
1 Jan 2020 16:12:35.000,145.265,-79.611,23666.024592
1 Jan 2020 16:13:05.000,148.249,-79.672,23641.688902
1 Jan 2020 16:13:35.000,151.270,-79.715,23624.522748
1 Jan 2020 16:14:05.000,154.315,-79.740,23614.529459
1 Jan 2020 16:14:35.000,157.371,-79.748,23611.699011
1 Jan 2020 16:15:05.000,160.427,-79.737,23616.008220
1 Jan 2020 16:15:35.000,163.469,-79.708,23627.420599
1 Jan 2020 16:16:05.000,166.485,-79.662,23645.886708
1 Jan 2020 16:16:35.000,169.464,-79.599,23671.344345
1 Jan 2020 16:17:05.000,172.396,-79.520,23703.718869
1 Jan 2020 16:17:35.000,175.271,-79.426,23742.923448
1 Jan 2020 16:18:05.000,178.082,-79.318,23788.859611
1 Jan 2020 16:18:35.000,180.823,-79.197,23841.417620
1 Jan 2020 16:19:05.000,183.489,-79.066,23900.476991
1 Jan 2020 16:19:35.000,186.076,-78.924,23965.907121
1 Jan 2020 16:20:05.000,188.583,-78.773,24037.567524
1 Jan 2020 16:20:35.000,191.009,-78.616,24115.308917
1 Jan 2020 16:21:05.000,193.353,-78.452,24198.973533
1 Jan 2020 16:21:35.000,195.616,-78.284,24288.395830
1 Jan 2020 16:22:05.000,197.801,-78.113,24383.403140
1 Jan 2020 16:22:35.000,199.909,-77.940,24483.816475
1 Jan 2020 16:23:05.000,201.943,-77.766,24589.450579
1 Jan 2020 16:23:35.000,203.906,-77.592,24700.115460
1 Jan 2020 16:24:05.000,205.801,-77.419,24815.616449
1 Jan 2020 16:24:35.000,207.631,-77.248,24935.754969
1 Jan 2020 16:25:05.000,209.400,-77.081,25060.329138
1 Jan 2020 16:25:35.000,211.112,-76.917,25189.134362
1 Jan 2020 16:26:05.000,212.768,-76.758,25321.964092
1 Jan 2020 16:26:35.000,214.374,-76.604,25458.609603
1 Jan 2020 16:27:05.000,215.932,-76.455,25598.861643
1 Jan 2020 16:27:35.000,217.445,-76.313,25742.510174
1 Jan 2020 16:28:05.000,218.917,-76.177,25889.345015
1 Jan 2020 16:28:35.000,220.350,-76.048,26039.156276
1 Jan 2020 16:29:05.000,221.747,-75.927,26191.734760
1 Jan 2020 16:29:35.000,223.111,-75.813,26346.872334
1 Jan 2020 16:30:05.000,224.445,-75.707,26504.362280
1 Jan 2020 16:30:35.000,225.750,-75.609,26663.999606
1 Jan 2020 16:31:05.000,227.029,-75.519,26825.581343
1 Jan 2020 16:31:35.000,228.285,-75.437,26988.906803
1 Jan 2020 16:32:05.000,229.519,-75.364,27153.777822
1 Jan 2020 16:32:35.000,230.734,-75.299,27319.998975
1 Jan 2020 16:33:05.000,231.931,-75.242,27487.377765
1 Jan 2020 16:33:35.000,233.113,-75.193,27655.725052
1 Jan 2020 16:34:05.000,234.281,-75.153,27824.854188
1 Jan 2020 16:34:35.000,235.436,-75.121,27994.582666
1 Jan 2020 16:35:05.000,236.580,-75.097,28164.731225
1 Jan 2020 16:35:35.000,237.716,-75.081,28335.124196
1 Jan 2020 16:36:05.000,238.843,-75.073,28505.589592
1 Jan 2020 16:36:21.165,239.448,-75.072,28597.413204
1 Jan 2020 17:44:54.350,97.609,-75.063,28593.384151
1 Jan 2020 17:45:24.000,99.275,-75.064,28542.532013
1 Jan 2020 17:45:54.000,100.970,-75.065,28494.265770
1 Jan 2020 17:46:24.000,102.673,-75.066,28449.253734
1 Jan 2020 17:46:54.000,104.385,-75.068,28407.540418
1 Jan 2020 17:47:24.000,106.104,-75.070,28369.165302
1 Jan 2020 17:47:54.000,107.830,-75.073,28334.162732
1 Jan 2020 17:48:24.000,109.563,-75.075,28302.561840
1 Jan 2020 17:48:54.000,111.302,-75.077,28274.386468
1 Jan 2020 17:49:24.000,113.047,-75.080,28249.655106
1 Jan 2020 17:49:54.000,114.796,-75.082,28228.380800
1 Jan 2020 17:50:24.000,116.549,-75.084,28210.571338
1 Jan 2020 17:50:54.000,118.306,-75.085,28196.228894
1 Jan 2020 17:51:24.000,120.066,-75.087,28185.350256
1 Jan 2020 17:51:54.000,121.828,-75.088,28177.926782
1 Jan 2020 17:52:24.000,123.591,-75.088,28173.944429
1 Jan 2020 17:52:54.000,125.356,-75.088,28173.383791
1 Jan 2020 17:53:24.000,127.120,-75.088,28176.220158
1 Jan 2020 17:53:54.000,128.884,-75.088,28182.423585
1 Jan 2020 17:54:24.000,130.647,-75.087,28191.958964
1 Jan 2020 17:54:54.000,132.408,-75.085,28204.786177
1 Jan 2020 17:55:24.000,134.167,-75.084,28220.860113
1 Jan 2020 17:55:54.000,135.923,-75.082,28240.130857
1 Jan 2020 17:56:24.000,137.676,-75.080,28262.543805
1 Jan 2020 17:56:54.000,139.424,-75.078,28288.039807
1 Jan 2020 17:57:24.000,141.169,-75.076,28316.555321
1 Jan 2020 17:57:54.000,142.908,-75.074,28348.022573
1 Jan 2020 17:58:24.000,144.642,-75.072,28382.369733
1 Jan 2020 17:58:54.000,146.371,-75.070,28419.521087
1 Jan 2020 17:59:24.000,148.093,-75.069,28459.397253
1 Jan 2020 17:59:54.000,149.810,-75.068,28501.915259
1 Jan 2020 18:00:24.000,151.520,-75.067,28546.988897
1 Jan 2020 18:00:53.351,153.187,-75.067,28593.475348
1 Jan 2020 19:03:00.141,355.720,-75.063,28592.584999
1 Jan 2020 19:03:30.000,357.351,-75.064,28515.300282
1 Jan 2020 19:04:00.000,358.998,-75.066,28439.201219
1 Jan 2020 19:04:30.000,0.655,-75.070,28364.778756
1 Jan 2020 19:05:00.000,2.322,-75.075,28292.154597
1 Jan 2020 19:05:30.000,3.998,-75.081,28221.449528
1 Jan 2020 19:06:00.000,5.684,-75.088,28152.783196
1 Jan 2020 19:06:30.000,7.380,-75.097,28086.273879
1 Jan 2020 19:07:00.000,9.087,-75.106,28022.038260
1 Jan 2020 19:07:30.000,10.804,-75.116,27960.191189
1 Jan 2020 19:08:00.000,12.531,-75.127,27900.845439
1 Jan 2020 19:08:30.000,14.269,-75.138,27844.111472
1 Jan 2020 19:09:00.000,16.016,-75.149,27790.097190
1 Jan 2020 19:09:30.000,17.774,-75.161,27738.907692
1 Jan 2020 19:10:00.000,19.541,-75.173,27690.644993
1 Jan 2020 19:10:30.000,21.318,-75.184,27645.407924
1 Jan 2020 19:11:00.000,23.103,-75.196,27603.291672
1 Jan 2020 19:11:30.000,24.897,-75.206,27564.387688
1 Jan 2020 19:12:00.000,26.699,-75.217,27528.783419
1 Jan 2020 19:12:30.000,28.508,-75.227,27496.562077
1 Jan 2020 19:13:00.000,30.324,-75.236,27467.802418
1 Jan 2020 19:13:30.000,32.146,-75.244,27442.578530
1 Jan 2020 19:14:00.000,33.974,-75.251,27420.959624
1 Jan 2020 19:14:30.000,35.805,-75.257,27403.009858
1 Jan 2020 19:15:00.000,37.641,-75.261,27388.788109
1 Jan 2020 19:15:30.000,39.479,-75.265,27378.347855
1 Jan 2020 19:16:00.000,41.319,-75.267,27371.736993
1 Jan 2020 19:16:30.000,43.160,-75.268,27368.997701
1 Jan 2020 19:17:00.000,45.001,-75.268,27370.166310
1 Jan 2020 19:17:30.000,46.840,-75.266,27375.273194
1 Jan 2020 19:18:00.000,48.677,-75.263,27384.342681
1 Jan 2020 19:18:30.000,50.511,-75.258,27397.393025
1 Jan 2020 19:19:00.000,52.340,-75.253,27414.436137
1 Jan 2020 19:19:30.000,54.165,-75.246,27435.477859
1 Jan 2020 19:20:00.000,55.983,-75.238,27460.517738
1 Jan 2020 19:20:30.000,57.793,-75.228,27489.549074
1 Jan 2020 19:21:00.000,59.596,-75.218,27522.558933
1 Jan 2020 19:21:30.000,61.389,-75.207,27559.528183
1 Jan 2020 19:22:00.000,63.172,-75.196,27600.431544
1 Jan 2020 19:22:30.000,64.945,-75.184,27645.237759
1 Jan 2020 19:23:00.000,66.706,-75.171,27693.909284
1 Jan 2020 19:23:30.000,68.455,-75.159,27746.402977
1 Jan 2020 19:24:00.000,70.191,-75.146,27802.669830
1 Jan 2020 19:24:30.000,71.913,-75.133,27862.655197
1 Jan 2020 19:25:00.000,73.622,-75.121,27926.298941
1 Jan 2020 19:25:30.000,75.316,-75.110,27993.535594
1 Jan 2020 19:26:00.000,76.996,-75.099,28064.294530
1 Jan 2020 19:26:30.000,78.660,-75.089,28138.500141
1 Jan 2020 19:27:00.000,80.309,-75.081,28216.072182
1 Jan 2020 19:27:30.000,81.943,-75.073,28296.925387
1 Jan 2020 19:28:00.000,83.561,-75.068,28380.970540
1 Jan 2020 19:28:30.000,85.164,-75.064,28468.114119
1 Jan 2020 19:29:00.000,86.751,-75.062,28558.258651
1 Jan 2020 19:29:11.231,87.341,-75.062,28592.756526
1 Jan 2020 20:35:21.910,295.079,-75.069,28595.978473
1 Jan 2020 20:35:51.000,295.972,-75.074,28412.545586
1 Jan 2020 20:36:21.000,296.898,-75.087,28223.245813
1 Jan 2020 20:36:51.000,297.829,-75.111,28033.993814
1 Jan 2020 20:37:21.000,298.767,-75.145,27844.973640
1 Jan 2020 20:37:51.000,299.714,-75.189,27656.373538
1 Jan 2020 20:38:21.000,300.671,-75.243,27468.385889
1 Jan 2020 20:38:51.000,301.640,-75.308,27281.207133
1 Jan 2020 20:39:21.000,302.623,-75.384,27095.037674
1 Jan 2020 20:39:51.000,303.621,-75.470,26910.081763
1 Jan 2020 20:40:21.000,304.638,-75.567,26726.547371
1 Jan 2020 20:40:51.000,305.674,-75.676,26544.646023
1 Jan 2020 20:41:21.000,306.733,-75.795,26364.592623
1 Jan 2020 20:41:51.000,307.817,-75.925,26186.605238
1 Jan 2020 20:42:21.000,308.928,-76.065,26010.904871
1 Jan 2020 20:42:51.000,310.070,-76.217,25837.715183
1 Jan 2020 20:43:21.000,311.246,-76.379,25667.262207
1 Jan 2020 20:43:51.000,312.458,-76.552,25499.774009
1 Jan 2020 20:44:21.000,313.712,-76.735,25335.480078
1 Jan 2020 20:44:51.000,315.010,-76.927,25174.611920
1 Jan 2020 20:45:21.000,316.358,-77.130,25017.401123
1 Jan 2020 20:45:51.000,317.760,-77.341,24864.079884
1 Jan 2020 20:46:21.000,319.221,-77.560,24714.880251
1 Jan 2020 20:46:51.000,320.746,-77.788,24570.033569
1 Jan 2020 20:47:21.000,322.342,-78.023,24429.769899
1 Jan 2020 20:47:51.000,324.015,-78.264,24294.317195
1 Jan 2020 20:48:21.000,325.771,-78.510,24163.901462
1 Jan 2020 20:48:51.000,327.619,-78.761,24038.744837
1 Jan 2020 20:49:21.000,329.566,-79.014,23919.065709
1 Jan 2020 20:49:51.000,331.620,-79.270,23805.077762
1 Jan 2020 20:50:21.000,333.789,-79.525,23696.989219
1 Jan 2020 20:50:51.000,336.082,-79.779,23595.001901
1 Jan 2020 20:51:21.000,338.507,-80.030,23499.311091
1 Jan 2020 20:51:51.000,341.072,-80.275,23410.103743
1 Jan 2020 20:52:21.000,343.784,-80.513,23327.558369
1 Jan 2020 20:52:51.000,346.649,-80.742,23251.844078
1 Jan 2020 20:53:21.000,349.672,-80.958,23183.119719
1 Jan 2020 20:53:51.000,352.853,-81.159,23121.533516
1 Jan 2020 20:54:21.000,356.190,-81.344,23067.221769
1 Jan 2020 20:54:51.000,359.679,-81.508,23020.308580
1 Jan 2020 20:55:21.000,3.309,-81.650,22980.905130
1 Jan 2020 20:55:51.000,7.064,-81.767,22949.109078
1 Jan 2020 20:56:21.000,10.925,-81.858,22925.004171
1 Jan 2020 20:56:51.000,14.865,-81.920,22908.659602
1 Jan 2020 20:57:21.000,18.856,-81.953,22900.129791
1 Jan 2020 20:57:51.000,22.866,-81.956,22899.454086
1 Jan 2020 20:58:21.000,26.862,-81.928,22906.656446
1 Jan 2020 20:58:51.000,30.812,-81.870,22921.745465
1 Jan 2020 20:59:21.000,34.684,-81.783,22944.714251
1 Jan 2020 20:59:51.000,38.453,-81.669,22975.540577
1 Jan 2020 21:00:21.000,42.096,-81.529,23014.186704
1 Jan 2020 21:00:51.000,45.595,-81.365,23060.600054
1 Jan 2020 21:01:21.000,48.939,-81.181,23114.713221
1 Jan 2020 21:01:51.000,52.119,-80.978,23176.444549
1 Jan 2020 21:02:21.000,55.134,-80.759,23245.698074
1 Jan 2020 21:02:51.000,57.982,-80.527,23322.364777
1 Jan 2020 21:03:21.000,60.668,-80.284,23406.322675
1 Jan 2020 21:03:51.000,63.196,-80.033,23497.437563
1 Jan 2020 21:04:21.000,65.573,-79.776,23595.563896
1 Jan 2020 21:04:51.000,67.806,-79.514,23700.544645
1 Jan 2020 21:05:21.000,69.905,-79.251,23812.213281
1 Jan 2020 21:05:51.000,71.876,-78.987,23930.393704
1 Jan 2020 21:06:21.000,73.729,-78.725,24054.901213
1 Jan 2020 21:06:51.000,75.472,-78.466,24185.543516
1 Jan 2020 21:07:21.000,77.112,-78.210,24322.120553
1 Jan 2020 21:07:51.000,78.656,-77.961,24464.426667
1 Jan 2020 21:08:21.000,80.112,-77.717,24612.250427
1 Jan 2020 21:08:51.000,81.487,-77.482,24765.375590
1 Jan 2020 21:09:21.000,82.785,-77.254,24923.581815
1 Jan 2020 21:09:51.000,84.014,-77.036,25086.645347
1 Jan 2020 21:10:21.000,85.177,-76.827,25254.340003
1 Jan 2020 21:10:51.000,86.280,-76.629,25426.436495
1 Jan 2020 21:11:21.000,87.326,-76.441,25602.704963
1 Jan 2020 21:11:51.000,88.321,-76.264,25782.914248
1 Jan 2020 21:12:21.000,89.267,-76.099,25966.832731
1 Jan 2020 21:12:51.000,90.168,-75.946,26154.228826
1 Jan 2020 21:13:21.000,91.027,-75.805,26344.871423
1 Jan 2020 21:13:51.000,91.847,-75.676,26538.530308
1 Jan 2020 21:14:21.000,92.630,-75.559,26734.976544
1 Jan 2020 21:14:51.000,93.379,-75.454,26933.982818
1 Jan 2020 21:15:21.000,94.096,-75.363,27135.323751
1 Jan 2020 21:15:51.000,94.783,-75.283,27338.776531
1 Jan 2020 21:16:21.000,95.442,-75.216,27544.119797
1 Jan 2020 21:16:51.000,96.074,-75.161,27751.135910
1 Jan 2020 21:17:21.000,96.682,-75.119,27959.609791
1 Jan 2020 21:17:51.000,97.266,-75.089,28169.329437
1 Jan 2020 21:18:21.000,97.829,-75.070,28380.086072
1 Jan 2020 21:18:51.000,98.371,-75.064,28591.674278
1 Jan 2020 21:18:51.839,98.386,-75.064,28597.603359
1 Jan 2020 22:21:48.189,279.638,-75.073,28602.721507
1 Jan 2020 22:22:18.000,279.261,-75.079,28386.728879
1 Jan 2020 22:22:48.000,278.864,-75.098,28169.958993
1 Jan 2020 22:23:18.000,278.447,-75.130,27953.989513
1 Jan 2020 22:23:48.000,278.009,-75.174,27739.031401
1 Jan 2020 22:24:18.000,277.550,-75.232,27525.299391
1 Jan 2020 22:24:48.000,277.067,-75.303,27313.011879
1 Jan 2020 22:25:18.000,276.560,-75.388,27102.390781
1 Jan 2020 22:25:48.000,276.027,-75.486,26893.661366
1 Jan 2020 22:26:18.000,275.465,-75.598,26687.052071
1 Jan 2020 22:26:48.000,274.874,-75.724,26482.794274
1 Jan 2020 22:27:18.000,274.250,-75.863,26281.122053
1 Jan 2020 22:27:48.000,273.593,-76.017,26082.271898
1 Jan 2020 22:28:18.000,272.898,-76.184,25886.482400
1 Jan 2020 22:28:48.000,272.162,-76.364,25693.993898
1 Jan 2020 22:29:18.000,271.384,-76.558,25505.047737
1 Jan 2020 22:29:48.000,270.559,-76.765,25319.887258
1 Jan 2020 22:30:18.000,269.683,-76.985,25138.755197
1 Jan 2020 22:30:48.000,268.752,-77.218,24961.894602
1 Jan 2020 22:31:18.000,267.761,-77.463,24789.547933
1 Jan 2020 22:31:48.000,266.704,-77.720,24621.956464
1 Jan 2020 22:32:18.000,265.575,-77.988,24459.359658
1 Jan 2020 22:32:48.000,264.367,-78.267,24301.994190
1 Jan 2020 22:33:18.000,263.073,-78.555,24150.094473
1 Jan 2020 22:33:48.000,261.683,-78.852,24003.890053
1 Jan 2020 22:34:18.000,260.189,-79.156,23863.606090
1 Jan 2020 22:34:48.000,258.580,-79.468,23729.462238
1 Jan 2020 22:35:18.000,256.843,-79.784,23601.671597
1 Jan 2020 22:35:48.000,254.966,-80.104,23480.440788
1 Jan 2020 22:36:18.000,252.933,-80.426,23365.967711
1 Jan 2020 22:36:48.000,250.731,-80.747,23258.441624
1 Jan 2020 22:37:18.000,248.341,-81.066,23158.042051
1 Jan 2020 22:37:48.000,245.746,-81.380,23064.937754
1 Jan 2020 22:38:18.000,242.930,-81.686,22979.286693
1 Jan 2020 22:38:48.000,239.874,-81.980,22901.234031
1 Jan 2020 22:39:18.000,236.564,-82.261,22830.912199
1 Jan 2020 22:39:48.000,232.988,-82.522,22768.439862
1 Jan 2020 22:40:18.000,229.140,-82.762,22713.921751
1 Jan 2020 22:40:48.000,225.021,-82.975,22667.447333
1 Jan 2020 22:41:18.000,220.645,-83.158,22629.090807
1 Jan 2020 22:41:48.000,216.035,-83.307,22598.910472
1 Jan 2020 22:42:18.000,211.231,-83.417,22576.948659
1 Jan 2020 22:42:48.000,206.284,-83.488,22563.231034
1 Jan 2020 22:43:18.000,201.256,-83.516,22557.766740
1 Jan 2020 22:43:48.000,196.217,-83.501,22560.548245
1 Jan 2020 22:44:18.000,191.237,-83.444,22571.551428
1 Jan 2020 22:44:48.000,186.378,-83.347,22590.735608
1 Jan 2020 22:45:18.000,181.696,-83.211,22618.043855
1 Jan 2020 22:45:48.000,177.233,-83.040,22653.403331
1 Jan 2020 22:46:18.000,173.015,-82.838,22696.725531
1 Jan 2020 22:46:48.000,169.058,-82.610,22747.907012
1 Jan 2020 22:47:18.000,165.366,-82.358,22806.829816
1 Jan 2020 22:47:48.000,161.934,-82.087,22873.362243
1 Jan 2020 22:48:18.000,158.751,-81.802,22947.359173
1 Jan 2020 22:48:48.000,155.803,-81.505,23028.663360
1 Jan 2020 22:49:18.000,153.073,-81.199,23117.105875
1 Jan 2020 22:49:48.000,150.543,-80.888,23212.507023
1 Jan 2020 22:50:18.000,148.196,-80.574,23314.677364
1 Jan 2020 22:50:48.000,146.014,-80.259,23423.417905
1 Jan 2020 22:51:18.000,143.982,-79.945,23538.521972
1 Jan 2020 22:51:48.000,142.086,-79.634,23659.775435
1 Jan 2020 22:52:18.000,140.311,-79.328,23786.957730
1 Jan 2020 22:52:48.000,138.645,-79.028,23919.842711
1 Jan 2020 22:53:18.000,137.078,-78.736,24058.199720
1 Jan 2020 22:53:48.000,135.599,-78.451,24201.793445
1 Jan 2020 22:54:18.000,134.199,-78.175,24350.386093
1 Jan 2020 22:54:48.000,132.871,-77.909,24503.737206
1 Jan 2020 22:55:18.000,131.606,-77.654,24661.604590
1 Jan 2020 22:55:48.000,130.400,-77.409,24823.744974
1 Jan 2020 22:56:18.000,129.245,-77.176,24989.914632
1 Jan 2020 22:56:48.000,128.137,-76.955,25159.869962
1 Jan 2020 22:57:18.000,127.070,-76.745,25333.368302
1 Jan 2020 22:57:48.000,126.042,-76.548,25510.167298
1 Jan 2020 22:58:18.000,125.047,-76.364,25690.027039
1 Jan 2020 22:58:48.000,124.082,-76.192,25872.709352
1 Jan 2020 22:59:18.000,123.145,-76.032,26057.978452
1 Jan 2020 22:59:48.000,122.232,-75.885,26245.601276
1 Jan 2020 23:00:18.000,121.340,-75.751,26435.347781
1 Jan 2020 23:00:48.000,120.467,-75.629,26626.991208
1 Jan 2020 23:01:18.000,119.611,-75.520,26820.308317
1 Jan 2020 23:01:48.000,118.770,-75.422,27015.079583
1 Jan 2020 23:02:18.000,117.942,-75.338,27211.089375
1 Jan 2020 23:02:48.000,117.125,-75.265,27408.126102
1 Jan 2020 23:03:18.000,116.317,-75.203,27605.982335
1 Jan 2020 23:03:48.000,115.517,-75.154,27804.454910
1 Jan 2020 23:04:18.000,114.723,-75.116,28003.345011
1 Jan 2020 23:04:48.000,113.934,-75.089,28202.458231
1 Jan 2020 23:05:18.000,113.148,-75.073,28401.604619
1 Jan 2020 23:05:48.000,112.364,-75.067,28600.598715
1 Jan 2020 23:05:48.615,112.348,-75.067,28604.676316
2 Jan 2020 00:11:05.311,269.234,-75.077,28609.331876
2 Jan 2020 00:11:35.000,267.751,-75.078,28498.098497
2 Jan 2020 00:12:05.000,266.235,-75.083,28388.443461
2 Jan 2020 00:12:35.000,264.699,-75.091,28281.667207
2 Jan 2020 00:13:05.000,263.144,-75.101,28177.890013
2 Jan 2020 00:13:35.000,261.569,-75.114,28077.228901
2 Jan 2020 00:14:05.000,259.975,-75.130,27979.797375
2 Jan 2020 00:14:35.000,258.361,-75.147,27885.705159
2 Jan 2020 00:15:05.000,256.727,-75.166,27795.057940
2 Jan 2020 00:15:35.000,255.073,-75.187,27707.957111
2 Jan 2020 00:16:05.000,253.399,-75.208,27624.499362
2 Jan 2020 00:16:35.000,251.706,-75.231,27544.777069
2 Jan 2020 00:17:05.000,249.993,-75.255,27468.877091
2 Jan 2020 00:17:35.000,248.262,-75.279,27396.881184
2 Jan 2020 00:18:05.000,246.512,-75.303,27328.865616
2 Jan 2020 00:18:35.000,244.745,-75.327,27264.900956
2 Jan 2020 00:19:05.000,242.960,-75.350,27205.051875
2 Jan 2020 00:19:35.000,241.159,-75.373,27149.376960
2 Jan 2020 00:20:05.000,239.342,-75.395,27097.928423
2 Jan 2020 00:20:35.000,237.511,-75.416,27050.752434
2 Jan 2020 00:21:05.000,235.665,-75.436,27007.888247
2 Jan 2020 00:21:35.000,233.808,-75.454,26969.368582
2 Jan 2020 00:22:05.000,231.938,-75.471,26935.219395
2 Jan 2020 00:22:35.000,230.059,-75.485,26905.459808
2 Jan 2020 00:23:05.000,228.171,-75.498,26880.102047
2 Jan 2020 00:23:35.000,226.275,-75.509,26859.151340
2 Jan 2020 00:24:05.000,224.372,-75.517,26842.606180
2 Jan 2020 00:24:35.000,222.465,-75.524,26830.457911
2 Jan 2020 00:25:05.000,220.554,-75.528,26822.691048
2 Jan 2020 00:25:35.000,218.641,-75.529,26819.283255
2 Jan 2020 00:26:05.000,216.728,-75.529,26820.205419
2 Jan 2020 00:26:35.000,214.815,-75.526,26825.421746
2 Jan 2020 00:27:05.000,212.904,-75.521,26834.889862
2 Jan 2020 00:27:35.000,210.996,-75.513,26848.561025
2 Jan 2020 00:28:05.000,209.093,-75.504,26866.380152
2 Jan 2020 00:28:35.000,207.195,-75.493,26888.286085
2 Jan 2020 00:29:05.000,205.304,-75.479,26914.211755
2 Jan 2020 00:29:35.000,203.421,-75.464,26944.084388
2 Jan 2020 00:30:05.000,201.547,-75.448,26977.825724
2 Jan 2020 00:30:35.000,199.683,-75.430,27015.352246
2 Jan 2020 00:31:05.000,197.829,-75.411,27056.575456
2 Jan 2020 00:31:35.000,195.986,-75.391,27101.402015
2 Jan 2020 00:32:05.000,194.156,-75.370,27149.734163
2 Jan 2020 00:32:35.000,192.338,-75.348,27201.469884
2 Jan 2020 00:33:05.000,190.532,-75.326,27256.503206
2 Jan 2020 00:33:35.000,188.740,-75.304,27314.724479
2 Jan 2020 00:34:05.000,186.961,-75.282,27376.020649
2 Jan 2020 00:34:35.000,185.196,-75.260,27440.275544
2 Jan 2020 00:35:05.000,183.445,-75.238,27507.370152
2 Jan 2020 00:35:35.000,181.708,-75.217,27577.182900
2 Jan 2020 00:36:05.000,179.984,-75.197,27649.590007
2 Jan 2020 00:36:35.000,178.274,-75.178,27724.465456
2 Jan 2020 00:37:05.000,176.577,-75.160,27801.681706
2 Jan 2020 00:37:35.000,174.894,-75.143,27881.109666
2 Jan 2020 00:38:05.000,173.224,-75.127,27962.619019
2 Jan 2020 00:38:35.000,171.566,-75.114,28046.078476
2 Jan 2020 00:39:05.000,169.920,-75.101,28131.356016
2 Jan 2020 00:39:35.000,168.286,-75.091,28218.319120
2 Jan 2020 00:40:05.000,166.663,-75.083,28306.835000
2 Jan 2020 00:40:35.000,165.051,-75.077,28396.770813
2 Jan 2020 00:41:05.000,163.450,-75.073,28487.993872
2 Jan 2020 00:41:35.000,161.857,-75.071,28580.371844
2 Jan 2020 00:41:44.421,161.359,-75.071,28609.598032
2 Jan 2020 01:48:20.370,303.850,-75.079,28611.836190
2 Jan 2020 01:48:50.000,302.138,-75.079,28598.499329
2 Jan 2020 01:49:20.000,300.403,-75.079,28588.061729
2 Jan 2020 01:49:50.000,298.666,-75.080,28580.744205
2 Jan 2020 01:50:20.000,296.929,-75.080,28576.577547
2 Jan 2020 01:50:50.000,295.192,-75.080,28575.587647
2 Jan 2020 01:51:20.000,293.455,-75.079,28577.795430
2 Jan 2020 01:51:50.000,291.720,-75.079,28583.216798
2 Jan 2020 01:52:20.000,289.986,-75.079,28591.862585
2 Jan 2020 01:52:50.000,288.253,-75.079,28603.738525
2 Jan 2020 01:53:06.800,287.284,-75.079,28611.800313
2 Jan 2020 03:05:19.430,55.156,-75.073,28609.605112
2 Jan 2020 03:05:49.000,53.939,-75.076,28454.508437
2 Jan 2020 03:06:19.000,52.696,-75.086,28297.236860
2 Jan 2020 03:06:49.000,51.444,-75.103,28140.211223
2 Jan 2020 03:07:19.000,50.181,-75.126,27983.597828
2 Jan 2020 03:07:49.000,48.906,-75.156,27827.566193
2 Jan 2020 03:08:19.000,47.617,-75.193,27672.288943
2 Jan 2020 03:08:49.000,46.313,-75.237,27517.941695
2 Jan 2020 03:09:19.000,44.992,-75.288,27364.702907
2 Jan 2020 03:09:49.000,43.651,-75.346,27212.753731
2 Jan 2020 03:10:19.000,42.291,-75.410,27062.277836
2 Jan 2020 03:10:49.000,40.908,-75.481,26913.461213
2 Jan 2020 03:11:19.000,39.501,-75.559,26766.491959
2 Jan 2020 03:11:49.000,38.068,-75.643,26621.560047
2 Jan 2020 03:12:19.000,36.607,-75.733,26478.857065
2 Jan 2020 03:12:49.000,35.115,-75.829,26338.575941
2 Jan 2020 03:13:19.000,33.592,-75.931,26200.910634
2 Jan 2020 03:13:49.000,32.034,-76.038,26066.055812
2 Jan 2020 03:14:19.000,30.440,-76.150,25934.206502
2 Jan 2020 03:14:49.000,28.807,-76.266,25805.557522
2 Jan 2020 03:15:19.000,27.133,-76.387,25680.303859
2 Jan 2020 03:15:49.000,25.416,-76.511,25558.639074
2 Jan 2020 03:16:19.000,23.653,-76.638,25440.755648
2 Jan 2020 03:16:49.000,21.844,-76.768,25326.844313
2 Jan 2020 03:17:19.000,19.984,-76.899,25217.093570
2 Jan 2020 03:17:49.000,18.074,-77.032,25111.689181
2 Jan 2020 03:18:19.000,16.110,-77.165,25010.813647
2 Jan 2020 03:18:49.000,14.092,-77.297,24914.645533
2 Jan 2020 03:19:19.000,12.018,-77.427,24823.359472
2 Jan 2020 03:19:49.000,9.888,-77.556,24737.124764
2 Jan 2020 03:20:19.000,7.701,-77.681,24656.105382
2 Jan 2020 03:20:49.000,5.456,-77.802,24580.459260
2 Jan 2020 03:21:19.000,3.155,-77.918,24510.337729
2 Jan 2020 03:21:49.000,0.798,-78.027,24445.884884
2 Jan 2020 03:22:19.000,358.388,-78.130,24387.237335
2 Jan 2020 03:22:49.000,355.927,-78.224,24334.523210
2 Jan 2020 03:23:19.000,353.418,-78.310,24287.861960
2 Jan 2020 03:23:49.000,350.865,-78.386,24247.363788
2 Jan 2020 03:24:19.000,348.274,-78.451,24213.129165
2 Jan 2020 03:24:49.000,345.648,-78.504,24185.248485
2 Jan 2020 03:25:19.000,342.996,-78.546,24163.801539
2 Jan 2020 03:25:49.000,340.323,-78.576,24148.857263
2 Jan 2020 03:26:19.000,337.636,-78.592,24140.473410
2 Jan 2020 03:26:49.000,334.944,-78.596,24138.696327
2 Jan 2020 03:27:19.000,332.254,-78.586,24143.560607
2 Jan 2020 03:27:49.000,329.574,-78.564,24155.089136
2 Jan 2020 03:28:19.000,326.911,-78.528,24173.292872
2 Jan 2020 03:28:49.000,324.274,-78.480,24198.170831
2 Jan 2020 03:29:19.000,321.669,-78.420,24229.710192
2 Jan 2020 03:29:49.000,319.102,-78.348,24267.885998
2 Jan 2020 03:30:19.000,316.579,-78.265,24312.661816
2 Jan 2020 03:30:49.000,314.106,-78.172,24363.989563
2 Jan 2020 03:31:19.000,311.687,-78.070,24421.809822
2 Jan 2020 03:31:49.000,309.325,-77.960,24486.052254
2 Jan 2020 03:32:19.000,307.023,-77.842,24556.635352
2 Jan 2020 03:32:49.000,304.784,-77.718,24633.467638
2 Jan 2020 03:33:19.000,302.609,-77.589,24716.447516
2 Jan 2020 03:33:49.000,300.499,-77.455,24805.463834
2 Jan 2020 03:34:19.000,298.454,-77.319,24900.396345
2 Jan 2020 03:34:49.000,296.474,-77.180,25001.116414
2 Jan 2020 03:35:19.000,294.558,-77.039,25107.486642
2 Jan 2020 03:35:49.000,292.705,-76.899,25219.362692
2 Jan 2020 03:36:19.000,290.914,-76.759,25336.592957
2 Jan 2020 03:36:49.000,289.183,-76.621,25459.019313
2 Jan 2020 03:37:19.000,287.511,-76.485,25586.477655
2 Jan 2020 03:37:49.000,285.895,-76.352,25718.798438
2 Jan 2020 03:38:19.000,284.334,-76.223,25855.807488
2 Jan 2020 03:38:49.000,282.826,-76.098,25997.325430
2 Jan 2020 03:39:19.000,281.368,-75.978,26143.169835
2 Jan 2020 03:39:49.000,279.959,-75.865,26293.154646
2 Jan 2020 03:40:19.000,278.596,-75.757,26447.090927
2 Jan 2020 03:40:49.000,277.277,-75.656,26604.787335
2 Jan 2020 03:41:19.000,276.000,-75.562,26766.050570
2 Jan 2020 03:41:49.000,274.764,-75.476,26930.685803
2 Jan 2020 03:42:19.000,273.565,-75.397,27098.497088
2 Jan 2020 03:42:49.000,272.403,-75.327,27269.288033
2 Jan 2020 03:43:19.000,271.275,-75.265,27442.861017
2 Jan 2020 03:43:49.000,270.179,-75.211,27619.019251
2 Jan 2020 03:44:19.000,269.115,-75.167,27797.565956
2 Jan 2020 03:44:49.000,268.080,-75.131,27978.304944
2 Jan 2020 03:45:19.000,267.072,-75.104,28161.040898
2 Jan 2020 03:45:49.000,266.091,-75.087,28345.579619
2 Jan 2020 03:46:19.000,265.134,-75.078,28531.728270
2 Jan 2020 03:46:31.298,264.748,-75.077,28608.457496
2 Jan 2020 04:49:47.549,76.671,-75.069,28603.714102
2 Jan 2020 04:50:17.000,76.611,-75.075,28385.177549
2 Jan 2020 04:50:47.000,76.561,-75.095,28162.680887
2 Jan 2020 04:51:17.000,76.522,-75.128,27940.502901
2 Jan 2020 04:51:47.000,76.495,-75.175,27718.852485
2 Jan 2020 04:52:17.000,76.479,-75.237,27497.943190
2 Jan 2020 04:52:47.000,76.474,-75.313,27277.993181
2 Jan 2020 04:53:17.000,76.481,-75.404,27059.225160
2 Jan 2020 04:53:47.000,76.501,-75.510,26841.866279
2 Jan 2020 04:54:17.000,76.534,-75.631,26626.148022
2 Jan 2020 04:54:47.000,76.579,-75.768,26412.306064
2 Jan 2020 04:55:17.000,76.639,-75.921,26200.580100
2 Jan 2020 04:55:47.000,76.713,-76.090,25991.213643
2 Jan 2020 04:56:17.000,76.802,-76.275,25784.453786
2 Jan 2020 04:56:47.000,76.908,-76.477,25580.550932
2 Jan 2020 04:57:17.000,77.031,-76.695,25379.758479
2 Jan 2020 04:57:47.000,77.172,-76.929,25182.332138
2 Jan 2020 04:58:17.000,77.333,-77.181,24988.530860
2 Jan 2020 04:58:47.000,77.516,-77.449,24798.614395
2 Jan 2020 04:59:17.000,77.722,-77.734,24612.844140
2 Jan 2020 04:59:47.000,77.953,-78.036,24431.482259
2 Jan 2020 05:00:17.000,78.213,-78.354,24254.791093
2 Jan 2020 05:00:47.000,78.504,-78.689,24083.032519
2 Jan 2020 05:01:17.000,78.830,-79.040,23916.466950
2 Jan 2020 05:01:47.000,79.194,-79.407,23755.353823
2 Jan 2020 05:02:17.000,79.603,-79.790,23599.948947
2 Jan 2020 05:02:47.000,80.063,-80.188,23450.504915
2 Jan 2020 05:03:17.000,80.581,-80.601,23307.269907
2 Jan 2020 05:03:47.000,81.166,-81.028,23170.486541
2 Jan 2020 05:04:17.000,81.830,-81.468,23040.391859
2 Jan 2020 05:04:47.000,82.589,-81.922,22917.214918
2 Jan 2020 05:05:17.000,83.460,-82.388,22801.176761
2 Jan 2020 05:05:47.000,84.468,-82.864,22692.489153
2 Jan 2020 05:06:17.000,85.645,-83.350,22591.353378
2 Jan 2020 05:06:47.000,87.034,-83.845,22497.960045
2 Jan 2020 05:07:17.000,88.691,-84.345,22412.486859
2 Jan 2020 05:07:47.000,90.699,-84.850,22335.098511
2 Jan 2020 05:08:17.000,93.173,-85.356,22265.945431
2 Jan 2020 05:08:47.000,96.279,-85.859,22205.163420
