STKdata/stk_90fov_4leo/Satellite-MEO_Satellite10003-To-Satellite-LEO_Satellite10000 AER.csv

"Time (UTCG)","Azimuth (deg)","Elevation (deg)","Range (km)"
1 Jan 2020 00:36:10.330,217.731,-75.073,28610.612049
1 Jan 2020 00:36:40.000,217.879,-75.077,28419.857671
1 Jan 2020 00:37:10.000,218.023,-75.092,28227.024597
1 Jan 2020 00:37:40.000,218.163,-75.117,28034.366124
1 Jan 2020 00:38:10.000,218.299,-75.152,27842.015214
1 Jan 2020 00:38:40.000,218.429,-75.198,27650.107495
1 Jan 2020 00:39:10.000,218.556,-75.254,27458.781250
1 Jan 2020 00:39:40.000,218.678,-75.322,27268.177392
1 Jan 2020 00:40:10.000,218.796,-75.401,27078.439436
1 Jan 2020 00:40:40.000,218.909,-75.491,26889.713453
1 Jan 2020 00:41:10.000,219.018,-75.593,26702.148025
1 Jan 2020 00:41:40.000,219.124,-75.706,26515.894185
1 Jan 2020 00:42:10.000,219.225,-75.831,26331.105339
1 Jan 2020 00:42:40.000,219.322,-75.968,26147.937188
1 Jan 2020 00:43:10.000,219.415,-76.118,25966.547625
1 Jan 2020 00:43:40.000,219.504,-76.280,25787.096624
1 Jan 2020 00:44:10.000,219.589,-76.454,25609.746109
1 Jan 2020 00:44:40.000,219.670,-76.641,25434.659812
1 Jan 2020 00:45:10.000,219.747,-76.840,25262.003111
1 Jan 2020 00:45:40.000,219.820,-77.052,25091.942533
1 Jan 2020 00:46:10.000,219.890,-77.277,24924.646817
1 Jan 2020 00:46:40.000,219.955,-77.515,24760.284796
1 Jan 2020 00:47:10.000,220.016,-77.765,24599.026424
1 Jan 2020 00:47:40.000,220.073,-78.029,24441.042203
1 Jan 2020 00:48:10.000,220.125,-78.305,24286.502896
1 Jan 2020 00:48:40.000,220.174,-78.594,24135.579220
1 Jan 2020 00:49:10.000,220.217,-78.896,23988.441526
1 Jan 2020 00:49:40.000,220.257,-79.210,23845.259180
1 Jan 2020 00:50:10.000,220.291,-79.537,23706.201271
1 Jan 2020 00:50:40.000,220.320,-79.876,23571.434594
1 Jan 2020 00:51:10.000,220.345,-80.227,23441.124333
1 Jan 2020 00:51:40.000,220.363,-80.590,23315.433356
1 Jan 2020 00:52:10.000,220.375,-80.965,23194.521773
1 Jan 2020 00:52:40.000,220.381,-81.351,23078.546469
1 Jan 2020 00:53:10.000,220.380,-81.748,22967.660401
1 Jan 2020 00:53:40.000,220.370,-82.156,22862.013059
1 Jan 2020 00:54:10.000,220.352,-82.575,22761.748533
1 Jan 2020 00:54:40.000,220.323,-83.003,22667.005991
1 Jan 2020 00:55:10.000,220.283,-83.440,22577.918930
1 Jan 2020 00:55:40.000,220.228,-83.887,22494.614682
1 Jan 2020 00:56:10.000,220.156,-84.342,22417.213762
1 Jan 2020 00:56:40.000,220.062,-84.805,22345.830053
1 Jan 2020 00:57:10.000,219.942,-85.275,22280.569324
1 Jan 2020 00:57:40.000,219.786,-85.752,22221.529481
1 Jan 2020 00:58:10.000,219.580,-86.235,22168.799960
1 Jan 2020 00:58:40.000,219.304,-86.724,22122.461257
1 Jan 2020 00:59:10.000,218.921,-87.217,22082.584913
1 Jan 2020 00:59:40.000,218.362,-87.714,22049.232639
1 Jan 2020 01:00:10.000,217.479,-88.214,22022.456413
1 Jan 2020 01:00:40.000,215.895,-88.716,22002.298127
1 Jan 2020 01:01:10.000,212.262,-89.217,21988.789376
1 Jan 2020 01:01:40.000,196.183,-89.706,21981.951399
1 Jan 2020 01:02:10.000,69.110,-89.728,21981.794809
1 Jan 2020 01:02:40.000,51.062,-89.242,21988.319671
1 Jan 2020 01:03:10.000,47.225,-88.741,22001.515459
1 Jan 2020 01:03:40.000,45.571,-88.239,22021.361162
1 Jan 2020 01:04:10.000,44.645,-87.739,22047.825204
1 Jan 2020 01:04:40.000,44.049,-87.242,22080.865841
1 Jan 2020 01:05:10.000,43.628,-86.748,22120.431211
1 Jan 2020 01:05:40.000,43.313,-86.260,22166.459611
1 Jan 2020 01:06:10.000,43.064,-85.777,22218.879893
1 Jan 2020 01:06:40.000,42.860,-85.299,22277.611364
1 Jan 2020 01:07:10.000,42.687,-84.829,22342.564770
1 Jan 2020 01:07:40.000,42.536,-84.366,22413.642284
1 Jan 2020 01:08:10.000,42.402,-83.910,22490.738031
1 Jan 2020 01:08:40.000,42.280,-83.463,22573.738527
1 Jan 2020 01:09:10.000,42.167,-83.025,22662.523344
1 Jan 2020 01:09:40.000,42.061,-82.597,22756.964807
1 Jan 2020 01:10:10.000,41.959,-82.178,22856.929640
1 Jan 2020 01:10:40.000,41.862,-81.770,22962.278698
1 Jan 2020 01:11:10.000,41.767,-81.372,23072.867663
1 Jan 2020 01:11:40.000,41.674,-80.986,23188.547529
1 Jan 2020 01:12:10.000,41.582,-80.611,23309.165106
1 Jan 2020 01:12:40.000,41.490,-80.247,23434.563768
1 Jan 2020 01:13:10.000,41.399,-79.895,23564.582860
1 Jan 2020 01:13:40.000,41.307,-79.556,23699.059749
1 Jan 2020 01:14:10.000,41.214,-79.229,23837.829224
1 Jan 2020 01:14:40.000,41.121,-78.914,23980.724179
1 Jan 2020 01:15:10.000,41.026,-78.612,24127.576028
1 Jan 2020 01:15:40.000,40.930,-78.322,24278.215095
1 Jan 2020 01:16:10.000,40.832,-78.045,24432.470983
1 Jan 2020 01:16:40.000,40.733,-77.781,24590.172922
1 Jan 2020 01:17:10.000,40.631,-77.530,24751.150420
1 Jan 2020 01:17:40.000,40.528,-77.292,24915.232289
1 Jan 2020 01:18:10.000,40.422,-77.067,25082.248833
1 Jan 2020 01:18:40.000,40.313,-76.854,25252.030846
1 Jan 2020 01:19:10.000,40.202,-76.654,25424.410170
1 Jan 2020 01:19:40.000,40.089,-76.467,25599.219912
1 Jan 2020 01:20:10.000,39.973,-76.292,25776.294646
1 Jan 2020 01:20:40.000,39.853,-76.129,25955.470591
1 Jan 2020 01:21:10.000,39.731,-75.979,26136.585778
1 Jan 2020 01:21:40.000,39.606,-75.842,26319.480193
1 Jan 2020 01:22:10.000,39.478,-75.716,26503.995906
1 Jan 2020 01:22:40.000,39.346,-75.602,26689.977186
1 Jan 2020 01:23:10.000,39.211,-75.499,26877.270595
1 Jan 2020 01:23:40.000,39.072,-75.409,27065.725082
1 Jan 2020 01:24:10.000,38.930,-75.329,27255.192048
1 Jan 2020 01:24:40.000,38.784,-75.261,27445.525408
1 Jan 2020 01:25:10.000,38.634,-75.204,27636.581647
1 Jan 2020 01:25:40.000,38.480,-75.157,27828.219853
1 Jan 2020 01:26:10.000,38.322,-75.121,28020.301752
1 Jan 2020 01:26:40.000,38.160,-75.096,28212.691732
1 Jan 2020 01:27:10.000,37.993,-75.081,28405.256856
1 Jan 2020 01:27:40.000,37.822,-75.075,28597.866873
1 Jan 2020 01:27:41.812,37.812,-75.075,28609.501468
1 Jan 2020 02:41:01.108,201.745,-75.068,28604.787926
1 Jan 2020 02:41:31.000,201.015,-75.071,28435.340188
1 Jan 2020 02:42:01.000,200.270,-75.083,28265.942557
1 Jan 2020 02:42:31.000,199.510,-75.102,28097.322313
1 Jan 2020 02:43:01.000,198.736,-75.129,27929.595132
1 Jan 2020 02:43:31.000,197.945,-75.163,27762.877897
1 Jan 2020 02:44:01.000,197.138,-75.206,27597.288630
1 Jan 2020 02:44:31.000,196.314,-75.256,27432.946429
1 Jan 2020 02:45:01.000,195.470,-75.315,27269.971386
1 Jan 2020 02:45:31.000,194.607,-75.380,27108.484506
1 Jan 2020 02:46:01.000,193.722,-75.454,26948.607615
1 Jan 2020 02:46:31.000,192.815,-75.536,26790.463261
1 Jan 2020 02:47:01.000,191.885,-75.625,26634.174606
1 Jan 2020 02:47:31.000,190.930,-75.721,26479.865311
1 Jan 2020 02:48:01.000,189.948,-75.825,26327.659407
1 Jan 2020 02:48:31.000,188.939,-75.937,26177.681164
1 Jan 2020 02:49:01.000,187.900,-76.055,26030.054946
1 Jan 2020 02:49:31.000,186.830,-76.181,25884.904768
1 Jan 2020 02:50:01.000,185.726,-76.313,25742.355300
1 Jan 2020 02:50:31.000,184.588,-76.452,25602.529935
1 Jan 2020 02:51:01.000,183.412,-76.597,25465.551787
1 Jan 2020 02:51:31.000,182.198,-76.748,25331.543204
1 Jan 2020 02:52:01.000,180.942,-76.904,25200.625563
1 Jan 2020 02:52:31.000,179.642,-77.066,25072.919069
1 Jan 2020 02:53:01.000,178.296,-77.233,24948.542530
1 Jan 2020 02:53:31.000,176.901,-77.404,24827.613136
1 Jan 2020 02:54:01.000,175.454,-77.579,24710.245981
1 Jan 2020 02:54:31.000,173.953,-77.757,24596.554801
1 Jan 2020 02:55:01.000,172.395,-77.938,24486.650256
1 Jan 2020 02:55:31.000,170.776,-78.122,24380.640663
1 Jan 2020 02:56:01.000,169.094,-78.306,24278.631500
1 Jan 2020 02:56:31.000,167.347,-78.492,24180.725144
1 Jan 2020 02:57:01.000,165.530,-78.677,24087.020618
1 Jan 2020 02:57:31.000,163.641,-78.862,23997.613145
1 Jan 2020 02:58:01.000,161.677,-79.045,23912.594627
1 Jan 2020 02:58:31.000,159.636,-79.225,23832.052283
1 Jan 2020 02:59:01.000,157.515,-79.402,23756.069141
1 Jan 2020 02:59:31.000,155.314,-79.574,23684.723611
1 Jan 2020 03:00:01.000,153.030,-79.740,23618.089247
1 Jan 2020 03:00:31.000,150.663,-79.899,23556.234522
1 Jan 2020 03:01:01.000,148.213,-80.051,23499.222477
1 Jan 2020 03:01:31.000,145.681,-80.193,23447.111065
1 Jan 2020 03:02:01.000,143.070,-80.326,23399.952132
1 Jan 2020 03:02:31.000,140.382,-80.447,23357.791805
1 Jan 2020 03:03:01.000,137.623,-80.557,23320.670202
1 Jan 2020 03:03:31.000,134.797,-80.653,23288.621286
1 Jan 2020 03:04:01.000,131.912,-80.736,23261.672698
1 Jan 2020 03:04:31.000,128.977,-80.803,23239.845910
1 Jan 2020 03:05:01.000,126.000,-80.856,23223.155758
1 Jan 2020 03:05:31.000,122.992,-80.892,23211.610664
1 Jan 2020 03:06:01.000,119.963,-80.913,23205.212538
1 Jan 2020 03:06:31.000,116.927,-80.917,23203.956778
1 Jan 2020 03:07:01.000,113.893,-80.905,23207.832282
1 Jan 2020 03:07:31.000,110.875,-80.876,23216.821510
1 Jan 2020 03:08:01.000,107.882,-80.832,23230.900512
1 Jan 2020 03:08:31.000,104.926,-80.773,23250.039048
1 Jan 2020 03:09:01.000,102.015,-80.698,23274.200693
1 Jan 2020 03:09:31.000,99.159,-80.610,23303.342963
1 Jan 2020 03:10:01.000,96.365,-80.509,23337.417468
1 Jan 2020 03:10:31.000,93.638,-80.396,23376.370158
1 Jan 2020 03:11:01.000,90.983,-80.271,23420.141213
1 Jan 2020 03:11:31.000,88.403,-80.136,23468.665675
1 Jan 2020 03:12:01.000,85.901,-79.993,23521.873389
1 Jan 2020 03:12:31.000,83.479,-79.841,23579.689297
1 Jan 2020 03:13:01.000,81.135,-79.682,23642.033682
1 Jan 2020 03:13:31.000,78.870,-79.518,23708.822412
1 Jan 2020 03:14:01.000,76.683,-79.349,23779.967334
1 Jan 2020 03:14:31.000,74.571,-79.175,23855.376008
1 Jan 2020 03:15:01.000,72.533,-79.000,23934.952749
1 Jan 2020 03:15:31.000,70.567,-78.822,24018.598390
1 Jan 2020 03:16:01.000,68.668,-78.642,24106.210674
1 Jan 2020 03:16:31.000,66.836,-78.463,24197.684522
1 Jan 2020 03:17:01.000,65.066,-78.284,24292.912302
1 Jan 2020 03:17:31.000,63.356,-78.106,24391.784090
1 Jan 2020 03:18:01.000,61.702,-77.930,24494.187930
1 Jan 2020 03:18:31.000,60.102,-77.756,24600.010303
1 Jan 2020 03:19:01.000,58.553,-77.585,24709.135519
1 Jan 2020 03:19:31.000,57.052,-77.417,24821.447226
1 Jan 2020 03:20:01.000,55.596,-77.254,24936.827804
1 Jan 2020 03:20:31.000,54.182,-77.094,25055.158791
1 Jan 2020 03:21:01.000,52.809,-76.939,25176.321102
1 Jan 2020 03:21:31.000,51.473,-76.789,25300.195228
1 Jan 2020 03:22:01.000,50.173,-76.645,25426.661432
1 Jan 2020 03:22:31.000,48.906,-76.505,25555.599932
1 Jan 2020 03:23:01.000,47.670,-76.372,25686.891073
1 Jan 2020 03:23:31.000,46.463,-76.245,25820.415495
1 Jan 2020 03:24:01.000,45.283,-76.123,25956.054278
1 Jan 2020 03:24:31.000,44.129,-76.008,26093.689092
1 Jan 2020 03:25:01.000,42.999,-75.900,26233.202326
1 Jan 2020 03:25:31.000,41.891,-75.798,26374.477486
1 Jan 2020 03:26:01.000,40.804,-75.703,26517.398213
1 Jan 2020 03:26:31.000,39.736,-75.614,26661.850025
1 Jan 2020 03:27:01.000,38.687,-75.532,26807.719327
1 Jan 2020 03:27:31.000,37.654,-75.457,26954.893763
1 Jan 2020 03:28:01.000,36.636,-75.389,27103.262300
1 Jan 2020 03:28:31.000,35.633,-75.327,27252.715293
1 Jan 2020 03:29:01.000,34.644,-75.272,27403.144554
1 Jan 2020 03:29:31.000,33.667,-75.225,27554.443405
1 Jan 2020 03:30:01.000,32.701,-75.183,27706.506727
1 Jan 2020 03:30:31.000,31.745,-75.149,27859.231004
1 Jan 2020 03:31:01.000,30.799,-75.121,28012.514360
1 Jan 2020 03:31:31.000,29.862,-75.100,28166.256592
1 Jan 2020 03:32:01.000,28.932,-75.085,28320.359192
1 Jan 2020 03:32:31.000,28.009,-75.076,28474.725374
1 Jan 2020 03:32:55.800,27.251,-75.074,28602.466238
1 Jan 2020 04:51:58.486,162.456,-75.065,28596.458059
1 Jan 2020 04:52:28.000,161.460,-75.068,28454.222314
1 Jan 2020 04:52:58.000,160.440,-75.076,28310.029805
1 Jan 2020 04:53:28.000,159.410,-75.090,28166.312273
1 Jan 2020 04:53:58.000,158.371,-75.109,28023.157315
1 Jan 2020 04:54:28.000,157.321,-75.134,27880.653747
1 Jan 2020 04:54:58.000,156.260,-75.165,27738.891571
1 Jan 2020 04:55:28.000,155.187,-75.202,27597.961941
1 Jan 2020 04:55:58.000,154.101,-75.244,27457.957131
1 Jan 2020 04:56:28.000,153.001,-75.292,27318.970485
1 Jan 2020 04:56:58.000,151.886,-75.345,27181.096378
1 Jan 2020 04:57:28.000,150.755,-75.404,27044.430156
1 Jan 2020 04:57:58.000,149.608,-75.469,26909.068087
1 Jan 2020 04:58:28.000,148.443,-75.539,26775.107288
1 Jan 2020 04:58:58.000,147.259,-75.614,26642.645665
1 Jan 2020 04:59:28.000,146.055,-75.695,26511.781832
1 Jan 2020 04:59:58.000,144.830,-75.781,26382.615031
1 Jan 2020 05:00:28.000,143.582,-75.872,26255.245047
1 Jan 2020 05:00:58.000,142.311,-75.968,26129.772109
1 Jan 2020 05:01:28.000,141.015,-76.069,26006.296793
1 Jan 2020 05:01:58.000,139.692,-76.174,25884.919910
1 Jan 2020 05:02:28.000,138.342,-76.284,25765.742150
1 Jan 2020 05:02:58.000,136.963,-76.397,25648.864939
1 Jan 2020 05:03:28.000,135.553,-76.515,25534.388832
1 Jan 2020 05:03:58.000,134.111,-76.637,25422.414367
1 Jan 2020 05:04:28.000,132.635,-76.761,25313.041675
1 Jan 2020 05:04:58.000,131.123,-76.889,25206.370326
1 Jan 2020 05:05:28.000,129.575,-77.019,25102.499179
1 Jan 2020 05:05:58.000,127.988,-77.152,25001.526214
1 Jan 2020 05:06:28.000,126.361,-77.286,24903.548364
1 Jan 2020 05:06:58.000,124.692,-77.422,24808.661345
1 Jan 2020 05:07:28.000,122.980,-77.559,24716.959299
1 Jan 2020 05:07:58.000,121.223,-77.696,24628.535316
1 Jan 2020 05:08:28.000,119.420,-77.834,24543.480178
1 Jan 2020 05:08:58.000,117.569,-77.970,24461.882887
1 Jan 2020 05:09:28.000,115.670,-78.105,24383.830290
1 Jan 2020 05:09:58.000,113.720,-78.239,24309.406882
1 Jan 2020 05:10:28.000,111.720,-78.370,24238.694613
1 Jan 2020 05:10:58.000,109.669,-78.498,24171.772687
1 Jan 2020 05:11:28.000,107.566,-78.622,24108.717257
1 Jan 2020 05:11:58.000,105.412,-78.742,24049.601691
1 Jan 2020 05:12:28.000,103.207,-78.857,23994.495677
1 Jan 2020 05:12:58.000,100.952,-78.966,23943.465513
1 Jan 2020 05:13:28.000,98.648,-79.068,23896.573806
1 Jan 2020 05:13:58.000,96.298,-79.163,23853.879295
1 Jan 2020 05:14:28.000,93.903,-79.251,23815.436685
1 Jan 2020 05:14:58.000,91.467,-79.330,23781.296486
1 Jan 2020 05:15:28.000,88.992,-79.400,23751.504812
1 Jan 2020 05:15:58.000,86.484,-79.460,23726.103460
1 Jan 2020 05:16:28.000,83.946,-79.511,23705.129437
1 Jan 2020 05:16:58.000,81.384,-79.551,23688.615086
1 Jan 2020 05:17:28.000,78.802,-79.581,23676.587920
1 Jan 2020 05:17:58.000,76.207,-79.599,23669.070534
1 Jan 2020 05:18:28.000,73.605,-79.607,23666.080530
1 Jan 2020 05:18:58.000,71.002,-79.603,23667.630477
1 Jan 2020 05:19:28.000,68.403,-79.588,23673.727807
1 Jan 2020 05:19:58.000,65.816,-79.562,23684.374861
1 Jan 2020 05:20:28.000,63.245,-79.525,23699.568843
1 Jan 2020 05:20:58.000,60.697,-79.477,23719.301824
1 Jan 2020 05:21:28.000,58.177,-79.420,23743.560770
1 Jan 2020 05:21:58.000,55.690,-79.352,23772.327572
1 Jan 2020 05:22:28.000,53.241,-79.275,23805.579187
1 Jan 2020 05:22:58.000,50.832,-79.189,23843.287375
1 Jan 2020 05:23:28.000,48.468,-79.094,23885.419260
1 Jan 2020 05:23:58.000,46.151,-78.992,23931.937109
1 Jan 2020 05:24:28.000,43.885,-78.883,23982.798525
1 Jan 2020 05:24:58.000,41.669,-78.768,24037.956562
1 Jan 2020 05:25:28.000,39.506,-78.647,24097.359857
1 Jan 2020 05:25:58.000,37.397,-78.521,24160.952774
1 Jan 2020 05:26:28.000,35.341,-78.391,24228.675717
1 Jan 2020 05:26:58.000,33.340,-78.258,24300.464651
1 Jan 2020 05:27:28.000,31.391,-78.121,24376.252215
1 Jan 2020 05:27:58.000,29.496,-77.983,24455.967277
1 Jan 2020 05:28:28.000,27.653,-77.843,24539.535260
1 Jan 2020 05:28:58.000,25.861,-77.702,24626.878333
1 Jan 2020 05:29:28.000,24.118,-77.561,24717.915589
1 Jan 2020 05:29:58.000,22.424,-77.420,24812.563240
1 Jan 2020 05:30:28.000,20.778,-77.280,24910.734804
1 Jan 2020 05:30:58.000,19.176,-77.141,25012.341514
1 Jan 2020 05:31:28.000,17.619,-77.004,25117.291631
1 Jan 2020 05:31:58.000,16.103,-76.869,25225.491935
1 Jan 2020 05:32:28.000,14.629,-76.737,25336.847051
1 Jan 2020 05:32:58.000,13.194,-76.608,25451.259840
1 Jan 2020 05:33:28.000,11.796,-76.483,25568.631580
1 Jan 2020 05:33:58.000,10.434,-76.361,25688.862139
1 Jan 2020 05:34:28.000,9.106,-76.244,25811.850144
1 Jan 2020 05:34:58.000,7.811,-76.131,25937.493148
1 Jan 2020 05:35:28.000,6.548,-76.023,26065.687785
1 Jan 2020 05:35:58.000,5.314,-75.920,26196.329924
1 Jan 2020 05:36:28.000,4.109,-75.822,26329.314819
1 Jan 2020 05:36:58.000,2.931,-75.730,26464.537243
1 Jan 2020 05:37:28.000,1.779,-75.643,26601.891917
1 Jan 2020 05:37:58.000,0.652,-75.562,26741.272489
1 Jan 2020 05:38:28.000,359.548,-75.486,26882.573367
1 Jan 2020 05:38:58.000,358.466,-75.417,27025.688695
1 Jan 2020 05:39:28.000,357.406,-75.354,27170.512750
1 Jan 2020 05:39:58.000,356.366,-75.297,27316.940037
1 Jan 2020 05:40:28.000,355.345,-75.246,27464.865391
1 Jan 2020 05:40:58.000,354.341,-75.202,27614.184062
1 Jan 2020 05:41:28.000,353.355,-75.164,27764.791802
1 Jan 2020 05:41:58.000,352.386,-75.132,27916.584941
1 Jan 2020 05:42:28.000,351.431,-75.107,28069.460458
1 Jan 2020 05:42:58.000,350.491,-75.089,28223.316049
1 Jan 2020 05:43:28.000,349.565,-75.076,28378.050191
1 Jan 2020 05:43:58.000,348.651,-75.070,28533.562194
1 Jan 2020 05:44:09.777,348.296,-75.070,28594.803839
1 Jan 2020 06:59:06.490,142.288,-75.067,28593.007192
1 Jan 2020 06:59:36.000,141.856,-75.071,28410.526394
1 Jan 2020 07:00:06.000,141.418,-75.085,28224.985112
1 Jan 2020 07:00:36.000,140.980,-75.108,28039.538247
1 Jan 2020 07:01:06.000,140.542,-75.141,27854.311309
1 Jan 2020 07:01:36.000,140.102,-75.184,27669.432449
1 Jan 2020 07:02:06.000,139.661,-75.236,27485.032444
1 Jan 2020 07:02:36.000,139.218,-75.299,27301.244680
1 Jan 2020 07:03:06.000,138.772,-75.372,27118.205131
1 Jan 2020 07:03:36.000,138.322,-75.456,26936.052320
1 Jan 2020 07:04:06.000,137.869,-75.550,26754.927284
1 Jan 2020 07:04:36.000,137.410,-75.655,26574.973516
1 Jan 2020 07:05:06.000,136.946,-75.771,26396.336907
1 Jan 2020 07:05:36.000,136.475,-75.899,26219.165670
1 Jan 2020 07:06:06.000,135.996,-76.037,26043.610256
1 Jan 2020 07:06:36.000,135.509,-76.187,25869.823254
1 Jan 2020 07:07:06.000,135.012,-76.348,25697.959274
1 Jan 2020 07:07:36.000,134.505,-76.521,25528.174827
1 Jan 2020 07:08:06.000,133.984,-76.705,25360.628172
1 Jan 2020 07:08:36.000,133.451,-76.901,25195.479161
1 Jan 2020 07:09:06.000,132.901,-77.108,25032.888760
1 Jan 2020 07:09:36.000,132.334,-77.327,24873.020055
1 Jan 2020 07:10:06.000,131.748,-77.558,24716.036223
1 Jan 2020 07:10:36.000,131.140,-77.800,24562.101511
1 Jan 2020 07:11:06.000,130.508,-78.054,24411.380679
1 Jan 2020 07:11:36.000,129.849,-78.319,24264.038722
1 Jan 2020 07:12:06.000,129.159,-78.596,24120.240574
1 Jan 2020 07:12:36.000,128.434,-78.883,23980.150794
1 Jan 2020 07:13:06.000,127.671,-79.181,23843.933226
1 Jan 2020 07:13:36.000,126.864,-79.489,23711.750377
1 Jan 2020 07:14:06.000,126.008,-79.808,23583.764129
1 Jan 2020 07:14:36.000,125.095,-80.137,23460.133694
1 Jan 2020 07:15:06.000,124.117,-80.474,23341.016316
1 Jan 2020 07:15:36.000,123.067,-80.821,23226.566560
1 Jan 2020 07:16:06.000,121.931,-81.176,23116.935875
1 Jan 2020 07:16:36.000,120.698,-81.538,23012.272140
1 Jan 2020 07:17:06.000,119.352,-81.906,22912.718998
1 Jan 2020 07:17:36.000,117.875,-82.281,22818.416215
1 Jan 2020 07:18:06.000,116.243,-82.659,22729.497951
1 Jan 2020 07:18:36.000,114.429,-83.041,22646.093134
1 Jan 2020 07:19:06.000,112.401,-83.424,22568.324778
1 Jan 2020 07:19:36.000,110.117,-83.807,22496.309516
1 Jan 2020 07:20:06.000,107.528,-84.187,22430.157021
1 Jan 2020 07:20:36.000,104.575,-84.561,22369.970093
1 Jan 2020 07:21:06.000,101.183,-84.926,22315.843430
1 Jan 2020 07:21:36.000,97.270,-85.277,22267.863777
1 Jan 2020 07:22:06.000,92.738,-85.609,22226.109418
1 Jan 2020 07:22:36.000,87.489,-85.914,22190.649775
1 Jan 2020 07:23:06.000,81.435,-86.185,22161.545336
1 Jan 2020 07:23:36.000,74.528,-86.412,22138.847006
1 Jan 2020 07:24:06.000,66.801,-86.584,22122.596141
1 Jan 2020 07:24:36.000,58.407,-86.693,22112.824283
1 Jan 2020 07:25:06.000,49.633,-86.730,22109.553023
1 Jan 2020 07:25:36.000,40.859,-86.693,22112.793887
1 Jan 2020 07:26:06.000,32.463,-86.585,22122.548283
1 Jan 2020 07:26:36.000,24.734,-86.412,22138.807508
1 Jan 2020 07:27:06.000,17.830,-86.185,22161.552784
1 Jan 2020 07:27:36.000,11.783,-85.913,22190.755415
1 Jan 2020 07:28:06.000,6.548,-85.606,22226.376653
1 Jan 2020 07:28:36.000,2.037,-85.273,22268.368268
1 Jan 2020 07:29:06.000,358.151,-84.919,22316.672519
1 Jan 2020 07:29:36.000,354.794,-84.552,22371.222477
1 Jan 2020 07:30:06.000,351.881,-84.176,22431.942451
1 Jan 2020 07:30:36.000,349.339,-83.793,22498.747822
1 Jan 2020 07:31:06.000,347.108,-83.407,22571.546134
1 Jan 2020 07:31:36.000,345.139,-83.021,22650.237011
1 Jan 2020 07:32:06.000,343.390,-82.635,22734.712683
1 Jan 2020 07:32:36.000,341.828,-82.253,22824.858414
1 Jan 2020 07:33:06.000,340.426,-81.876,22920.553163
1 Jan 2020 07:33:36.000,339.162,-81.503,23021.669202
1 Jan 2020 07:34:06.000,338.016,-81.138,23128.073816
1 Jan 2020 07:34:36.000,336.974,-80.779,23239.628955
1 Jan 2020 07:35:06.000,336.021,-80.429,23356.191903
1 Jan 2020 07:35:36.000,335.148,-80.088,23477.615738
1 Jan 2020 07:36:06.000,334.344,-79.756,23603.749792
1 Jan 2020 07:36:36.000,333.603,-79.434,23734.440372
1 Jan 2020 07:37:06.000,332.917,-79.123,23869.530108
1 Jan 2020 07:37:36.000,332.280,-78.822,24008.859996
1 Jan 2020 07:38:06.000,331.688,-78.532,24152.268736
1 Jan 2020 07:38:36.000,331.136,-78.253,24299.593389
1 Jan 2020 07:39:06.000,330.621,-77.985,24450.669749
1 Jan 2020 07:39:36.000,330.138,-77.730,24605.332702
1 Jan 2020 07:40:06.000,329.686,-77.486,24763.416560
1 Jan 2020 07:40:36.000,329.262,-77.254,24924.755375
1 Jan 2020 07:41:06.000,328.863,-77.034,25089.183238
1 Jan 2020 07:41:36.000,328.488,-76.826,25256.534893
1 Jan 2020 07:42:06.000,328.135,-76.630,25426.644636
1 Jan 2020 07:42:36.000,327.801,-76.446,25599.348582
1 Jan 2020 07:43:06.000,327.487,-76.274,25774.483531
1 Jan 2020 07:43:36.000,327.190,-76.113,25951.887508
1 Jan 2020 07:44:06.000,326.910,-75.965,26131.399936
1 Jan 2020 07:44:36.000,326.645,-75.829,26312.861806
1 Jan 2020 07:45:06.000,326.394,-75.704,26496.115819
1 Jan 2020 07:45:36.000,326.157,-75.591,26681.006523
1 Jan 2020 07:46:06.000,325.934,-75.489,26867.380424
1 Jan 2020 07:46:36.000,325.722,-75.399,27055.086090
1 Jan 2020 07:47:06.000,325.522,-75.320,27243.974243
1 Jan 2020 07:47:36.000,325.333,-75.252,27433.897836
1 Jan 2020 07:48:06.000,325.155,-75.195,27624.712115
1 Jan 2020 07:48:36.000,324.986,-75.148,27816.274680
1 Jan 2020 07:49:06.000,324.828,-75.112,28008.445530
1 Jan 2020 07:49:36.000,324.678,-75.087,28201.087098
1 Jan 2020 07:50:06.000,324.538,-75.071,28394.064279
1 Jan 2020 07:50:36.000,324.407,-75.066,28587.244459
1 Jan 2020 07:50:36.956,324.403,-75.066,28593.401402
1 Jan 2020 09:03:02.911,150.354,-75.071,28596.829453
1 Jan 2020 09:03:32.000,150.823,-75.076,28418.457551
1 Jan 2020 09:04:02.000,151.319,-75.089,28234.960635
1 Jan 2020 09:04:32.000,151.828,-75.111,28052.055931
1 Jan 2020 09:05:02.000,152.351,-75.143,27869.872055
1 Jan 2020 09:05:32.000,152.888,-75.184,27688.539454
1 Jan 2020 09:06:02.000,153.440,-75.235,27508.190357
1 Jan 2020 09:06:32.000,154.009,-75.295,27328.958714
1 Jan 2020 09:07:02.000,154.595,-75.364,27150.980128
1 Jan 2020 09:07:32.000,155.200,-75.443,26974.391778
1 Jan 2020 09:08:02.000,155.824,-75.532,26799.332326
1 Jan 2020 09:08:32.000,156.469,-75.631,26625.941826
1 Jan 2020 09:09:02.000,157.135,-75.739,26454.361614
1 Jan 2020 09:09:32.000,157.825,-75.857,26284.734182
1 Jan 2020 09:10:02.000,158.540,-75.984,26117.203056
1 Jan 2020 09:10:32.000,159.282,-76.122,25951.912641
1 Jan 2020 09:11:02.000,160.053,-76.268,25789.008073
1 Jan 2020 09:11:32.000,160.853,-76.424,25628.635043
1 Jan 2020 09:12:02.000,161.687,-76.590,25470.939281
1 Jan 2020 09:12:32.000,162.555,-76.764,25316.067689
1 Jan 2020 09:13:02.000,163.460,-76.948,25164.166127
1 Jan 2020 09:13:32.000,164.406,-77.140,25015.380523
1 Jan 2020 09:14:02.000,165.395,-77.341,24869.856297
1 Jan 2020 09:14:32.000,166.431,-77.550,24727.738106
1 Jan 2020 09:15:02.000,167.517,-77.766,24589.169571
1 Jan 2020 09:15:32.000,168.656,-77.990,24454.292997
1 Jan 2020 09:16:02.000,169.854,-78.221,24323.248822
1 Jan 2020 09:16:32.000,171.115,-78.458,24196.176329
1 Jan 2020 09:17:02.000,172.444,-78.701,24073.211786
1 Jan 2020 09:17:32.000,173.847,-78.949,23954.489146
1 Jan 2020 09:18:02.000,175.329,-79.201,23840.139453
1 Jan 2020 09:18:32.000,176.897,-79.457,23730.290490
1 Jan 2020 09:19:02.000,178.558,-79.715,23625.066433
1 Jan 2020 09:19:32.000,180.320,-79.976,23524.587272
1 Jan 2020 09:20:02.000,182.190,-80.236,23428.969328
1 Jan 2020 09:20:32.000,184.177,-80.496,23338.323575
1 Jan 2020 09:21:02.000,186.289,-80.754,23252.756170
1 Jan 2020 09:21:32.000,188.536,-81.008,23172.367883
1 Jan 2020 09:22:02.000,190.926,-81.257,23097.253752
1 Jan 2020 09:22:32.000,193.468,-81.499,23027.502601
1 Jan 2020 09:23:02.000,196.168,-81.733,22963.197333
1 Jan 2020 09:23:32.000,199.034,-81.955,22904.413693
1 Jan 2020 09:24:02.000,202.070,-82.165,22851.220617
1 Jan 2020 09:24:32.000,205.277,-82.359,22803.679807
1 Jan 2020 09:25:02.000,208.654,-82.537,22761.845490
1 Jan 2020 09:25:32.000,212.195,-82.694,22725.764117
1 Jan 2020 09:26:02.000,215.889,-82.831,22695.474540
1 Jan 2020 09:26:32.000,219.720,-82.943,22671.007291
1 Jan 2020 09:27:02.000,223.665,-83.031,22652.384844
1 Jan 2020 09:27:32.000,227.699,-83.091,22639.621428
1 Jan 2020 09:28:02.000,231.790,-83.124,22632.722961
1 Jan 2020 09:28:32.000,235.904,-83.129,22631.687020
1 Jan 2020 09:29:02.000,240.006,-83.106,22636.502907
1 Jan 2020 09:29:32.000,244.062,-83.055,22647.151592
1 Jan 2020 09:30:02.000,248.040,-82.977,22663.605873
1 Jan 2020 09:30:32.000,251.913,-82.874,22685.830466
1 Jan 2020 09:31:02.000,255.657,-82.747,22713.782154
1 Jan 2020 09:31:32.000,259.256,-82.598,22747.410025
1 Jan 2020 09:32:02.000,262.697,-82.429,22786.655437
1 Jan 2020 09:32:32.000,265.974,-82.243,22831.452600
1 Jan 2020 09:33:02.000,269.083,-82.041,22881.728612
1 Jan 2020 09:33:32.000,272.027,-81.827,22937.403800
1 Jan 2020 09:34:02.000,274.810,-81.601,22998.392015
1 Jan 2020 09:34:32.000,277.436,-81.367,23064.601086
1 Jan 2020 09:35:02.000,279.914,-81.125,23135.932657
1 Jan 2020 09:35:32.000,282.252,-80.878,23212.283258
1 Jan 2020 09:36:02.000,284.459,-80.627,23293.544195
1 Jan 2020 09:36:32.000,286.543,-80.373,23379.602023
1 Jan 2020 09:37:02.000,288.513,-80.119,23470.338920
1 Jan 2020 09:37:32.000,290.378,-79.865,23565.633053
1 Jan 2020 09:38:02.000,292.146,-79.612,23665.359142
1 Jan 2020 09:38:32.000,293.824,-79.361,23769.388061
1 Jan 2020 09:39:02.000,295.419,-79.114,23877.588332
1 Jan 2020 09:39:32.000,296.939,-78.870,23989.825736
1 Jan 2020 09:40:02.000,298.389,-78.631,24105.963839
1 Jan 2020 09:40:32.000,299.775,-78.398,24225.864331
1 Jan 2020 09:41:02.000,301.102,-78.170,24349.387350
1 Jan 2020 09:41:32.000,302.374,-77.949,24476.391793
1 Jan 2020 09:42:02.000,303.597,-77.734,24606.735618
1 Jan 2020 09:42:32.000,304.775,-77.527,24740.276381
1 Jan 2020 09:43:02.000,305.910,-77.327,24876.870495
1 Jan 2020 09:43:32.000,307.006,-77.135,25016.374997
1 Jan 2020 09:44:02.000,308.068,-76.951,25158.646787
1 Jan 2020 09:44:32.000,309.096,-76.775,25303.543102
1 Jan 2020 09:45:02.000,310.094,-76.608,25450.921727
1 Jan 2020 09:45:32.000,311.065,-76.449,25600.641192
1 Jan 2020 09:46:02.000,312.011,-76.298,25752.560951
1 Jan 2020 09:46:32.000,312.933,-76.157,25906.541549
1 Jan 2020 09:47:02.000,313.834,-76.024,26062.444775
1 Jan 2020 09:47:32.000,314.715,-75.900,26220.133800
1 Jan 2020 09:48:02.000,315.578,-75.785,26379.473306
1 Jan 2020 09:48:32.000,316.425,-75.679,26540.329596
1 Jan 2020 09:49:02.000,317.256,-75.581,26702.570696
1 Jan 2020 09:49:32.000,318.074,-75.492,26866.066452
1 Jan 2020 09:50:02.000,318.880,-75.412,27030.688601
1 Jan 2020 09:50:32.000,319.674,-75.340,27196.310846
1 Jan 2020 09:51:02.000,320.458,-75.277,27362.808918
1 Jan 2020 09:51:32.000,321.233,-75.223,27530.060624
1 Jan 2020 09:52:02.000,321.999,-75.177,27697.945895
1 Jan 2020 09:52:32.000,322.758,-75.138,27866.346816
1 Jan 2020 09:53:02.000,323.511,-75.109,28035.147663
1 Jan 2020 09:53:32.000,324.258,-75.087,28204.234922
1 Jan 2020 09:54:02.000,325.001,-75.072,28373.497303
1 Jan 2020 09:54:32.000,325.739,-75.066,28542.825757
1 Jan 2020 09:54:41.948,325.983,-75.066,28598.973218
1 Jan 2020 11:12:12.811,184.362,-75.076,28605.176411
1 Jan 2020 11:12:42.000,185.359,-75.078,28465.595088
1 Jan 2020 11:13:12.000,186.394,-75.086,28322.741685
1 Jan 2020 11:13:42.000,187.441,-75.099,28180.588213
1 Jan 2020 11:14:12.000,188.499,-75.118,28039.221959
1 Jan 2020 11:14:42.000,189.569,-75.143,27898.731009
1 Jan 2020 11:15:12.000,190.653,-75.172,27759.204207
1 Jan 2020 11:15:42.000,191.750,-75.208,27620.731108
1 Jan 2020 11:16:12.000,192.863,-75.248,27483.401929
1 Jan 2020 11:16:42.000,193.991,-75.294,27347.307496
1 Jan 2020 11:17:12.000,195.136,-75.345,27212.539185
1 Jan 2020 11:17:42.000,196.298,-75.402,27079.188858
1 Jan 2020 11:18:12.000,197.478,-75.463,26947.348798
1 Jan 2020 11:18:42.000,198.678,-75.530,26817.111631
1 Jan 2020 11:19:12.000,199.898,-75.601,26688.570257
1 Jan 2020 11:19:42.000,201.140,-75.677,26561.817760
1 Jan 2020 11:20:12.000,202.404,-75.758,26436.947322
1 Jan 2020 11:20:42.000,203.691,-75.843,26314.052132
1 Jan 2020 11:21:12.000,205.003,-75.933,26193.225285
1 Jan 2020 11:21:42.000,206.341,-76.027,26074.559441
1 Jan 2020 11:22:12.000,207.706,-76.125,25958.147674
1 Jan 2020 11:22:42.000,209.099,-76.226,25844.081914
1 Jan 2020 11:23:12.000,210.521,-76.331,25732.453793
1 Jan 2020 11:23:42.000,211.974,-76.439,25623.354279
1 Jan 2020 11:24:12.000,213.458,-76.550,25516.873546
1 Jan 2020 11:24:42.000,214.976,-76.663,25413.100841
1 Jan 2020 11:25:12.000,216.527,-76.779,25312.124344
1 Jan 2020 11:25:42.000,218.115,-76.896,25214.031026
1 Jan 2020 11:26:12.000,219.738,-77.015,25118.906504
1 Jan 2020 11:26:42.000,221.400,-77.135,25026.834888
1 Jan 2020 11:27:12.000,223.100,-77.256,24937.898438
1 Jan 2020 11:27:42.000,224.840,-77.377,24852.178193
1 Jan 2020 11:28:12.000,226.621,-77.498,24769.752624
1 Jan 2020 11:28:42.000,228.444,-77.618,24690.698277
1 Jan 2020 11:29:12.000,230.308,-77.736,24615.089413
1 Jan 2020 11:29:42.000,232.216,-77.853,24542.997849
1 Jan 2020 11:30:12.000,234.166,-77.968,24474.492803
1 Jan 2020 11:30:42.000,236.160,-78.079,24409.640733
1 Jan 2020 11:31:12.000,238.197,-78.188,24348.505187
1 Jan 2020 11:31:42.000,240.276,-78.292,24291.146527
1 Jan 2020 11:32:12.000,242.397,-78.392,24237.622289
1 Jan 2020 11:32:42.000,244.560,-78.486,24187.986270
1 Jan 2020 11:33:12.000,246.762,-78.575,24142.288912
1 Jan 2020 11:33:42.000,249.001,-78.658,24100.577043
1 Jan 2020 11:34:12.000,251.277,-78.735,24062.893752
1 Jan 2020 11:34:42.000,253.586,-78.804,24029.278276
1 Jan 2020 11:35:12.000,255.925,-78.866,23999.765894
1 Jan 2020 11:35:42.000,258.291,-78.919,23974.387779
1 Jan 2020 11:36:12.000,260.682,-78.965,23953.171125
1 Jan 2020 11:36:42.000,263.092,-79.001,23936.138738
1 Jan 2020 11:37:12.000,265.518,-79.029,23923.309206
1 Jan 2020 11:37:42.000,267.955,-79.048,23914.696779
1 Jan 2020 11:38:12.000,270.400,-79.058,23910.311336
1 Jan 2020 11:38:42.000,272.847,-79.058,23910.158353
1 Jan 2020 11:39:12.000,275.292,-79.049,23914.238886
1 Jan 2020 11:39:42.000,277.730,-79.030,23922.549595
1 Jan 2020 11:40:12.000,280.157,-79.003,23935.082663
1 Jan 2020 11:40:42.000,282.568,-78.967,23951.825936
1 Jan 2020 11:41:12.000,284.959,-78.922,23972.762888
1 Jan 2020 11:41:42.000,287.327,-78.868,23997.872685
1 Jan 2020 11:42:12.000,289.668,-78.807,24027.130238
1 Jan 2020 11:42:42.000,291.978,-78.738,24060.506280
1 Jan 2020 11:43:12.000,294.256,-78.662,24097.967437
1 Jan 2020 11:43:42.000,296.497,-78.579,24139.476425
1 Jan 2020 11:44:12.000,298.700,-78.490,24184.991767
1 Jan 2020 11:44:42.000,300.864,-78.395,24234.468458
1 Jan 2020 11:45:12.000,302.987,-78.295,24287.857722
1 Jan 2020 11:45:42.000,305.068,-78.191,24345.107227
1 Jan 2020 11:46:12.000,307.105,-78.082,24406.161216
1 Jan 2020 11:46:42.000,309.100,-77.970,24470.960648
1 Jan 2020 11:47:12.000,311.051,-77.855,24539.443337
1 Jan 2020 11:47:42.000,312.959,-77.738,24611.544105
1 Jan 2020 11:48:12.000,314.823,-77.619,24687.195099
1 Jan 2020 11:48:42.000,316.646,-77.499,24766.325277
1 Jan 2020 11:49:12.000,318.426,-77.378,24848.861559
1 Jan 2020 11:49:42.000,320.165,-77.256,24934.728327
1 Jan 2020 11:50:12.000,321.864,-77.135,25023.847748
1 Jan 2020 11:50:42.000,323.523,-77.014,25116.139926
1 Jan 2020 11:51:12.000,325.145,-76.895,25211.523065
1 Jan 2020 11:51:42.000,326.729,-76.777,25309.913622
1 Jan 2020 11:52:12.000,328.278,-76.661,25411.226456
1 Jan 2020 11:52:42.000,329.792,-76.547,25515.374984
1 Jan 2020 11:53:12.000,331.273,-76.435,25622.271328
1 Jan 2020 11:53:42.000,332.721,-76.326,25731.826682
1 Jan 2020 11:54:12.000,334.139,-76.221,25843.950547
1 Jan 2020 11:54:42.000,335.527,-76.119,25958.552224
1 Jan 2020 11:55:12.000,336.886,-76.021,26075.540043
1 Jan 2020 11:55:42.000,338.218,-75.926,26194.821715
1 Jan 2020 11:56:12.000,339.524,-75.836,26316.304452
1 Jan 2020 11:56:42.000,340.805,-75.751,26439.895086
1 Jan 2020 11:57:12.000,342.062,-75.669,26565.500177
1 Jan 2020 11:57:42.000,343.296,-75.593,26693.026121
1 Jan 2020 11:58:12.000,344.508,-75.521,26822.379252
1 Jan 2020 11:58:42.000,345.700,-75.454,26953.465934
1 Jan 2020 11:59:12.000,346.872,-75.392,27086.192655
1 Jan 2020 11:59:42.000,348.025,-75.336,27220.466110
1 Jan 2020 12:00:12.000,349.160,-75.285,27356.193280
1 Jan 2020 12:00:42.000,350.279,-75.239,27493.281511
1 Jan 2020 12:01:12.000,351.381,-75.198,27631.638578
1 Jan 2020 12:01:42.000,352.468,-75.163,27771.172757
1 Jan 2020 12:02:12.000,353.541,-75.134,27911.792878
1 Jan 2020 12:02:42.000,354.600,-75.110,28053.408390
1 Jan 2020 12:03:12.000,355.647,-75.091,28195.929405
1 Jan 2020 12:03:42.000,356.681,-75.078,28339.266750
1 Jan 2020 12:04:12.000,357.705,-75.071,28483.332008
1 Jan 2020 12:04:37.693,358.572,-75.069,28607.224552
1 Jan 2020 13:21:40.372,214.983,-75.075,28610.748011
1 Jan 2020 13:22:10.000,215.665,-75.078,28440.386702
1 Jan 2020 13:22:40.000,216.359,-75.090,28267.893667
1 Jan 2020 13:23:10.000,217.057,-75.110,28095.520781
1 Jan 2020 13:23:40.000,217.760,-75.138,27923.381483
1 Jan 2020 13:24:10.000,218.468,-75.174,27751.591519
1 Jan 2020 13:24:40.000,219.182,-75.219,27580.268932
1 Jan 2020 13:25:10.000,219.903,-75.273,27409.534041
1 Jan 2020 13:25:40.000,220.633,-75.335,27239.509414
1 Jan 2020 13:26:10.000,221.371,-75.406,27070.319833
1 Jan 2020 13:26:40.000,222.119,-75.487,26902.092259
1 Jan 2020 13:27:10.000,222.879,-75.576,26734.955772
1 Jan 2020 13:27:40.000,223.651,-75.674,26569.041526
1 Jan 2020 13:28:10.000,224.436,-75.782,26404.482668
1 Jan 2020 13:28:40.000,225.236,-75.899,26241.414270
1 Jan 2020 13:29:10.000,226.053,-76.025,26079.973237
1 Jan 2020 13:29:40.000,226.888,-76.160,25920.298204
1 Jan 2020 13:30:10.000,227.743,-76.305,25762.529429
1 Jan 2020 13:30:40.000,228.619,-76.459,25606.808661
1 Jan 2020 13:31:10.000,229.519,-76.622,25453.279008
1 Jan 2020 13:31:40.000,230.445,-76.794,25302.084781
1 Jan 2020 13:32:10.000,231.399,-76.976,25153.371042
1 Jan 2020 13:32:40.000,232.384,-77.166,25007.284561
1 Jan 2020 13:33:10.000,233.402,-77.365,24863.971907
1 Jan 2020 13:33:40.000,234.458,-77.572,24723.580377
1 Jan 2020 13:34:10.000,235.553,-77.788,24586.257481
1 Jan 2020 13:34:40.000,236.692,-78.012,24452.150697
1 Jan 2020 13:35:10.000,237.880,-78.243,24321.407209
1 Jan 2020 13:35:40.000,239.120,-78.482,24194.173626
1 Jan 2020 13:36:10.000,240.418,-78.727,24070.595696
1 Jan 2020 13:36:40.000,241.779,-78.979,23950.817760
1 Jan 2020 13:37:10.000,243.209,-79.236,23834.983363
1 Jan 2020 13:37:40.000,244.715,-79.498,23723.233512
1 Jan 2020 13:38:10.000,246.304,-79.764,23615.707269
1 Jan 2020 13:38:40.000,247.985,-80.034,23512.541157
1 Jan 2020 13:39:10.000,249.765,-80.306,23413.868789
1 Jan 2020 13:39:40.000,251.655,-80.580,23319.820490
1 Jan 2020 13:40:10.000,253.665,-80.853,23230.522748
1 Jan 2020 13:40:40.000,255.805,-81.126,23146.098506
1 Jan 2020 13:41:10.000,258.087,-81.395,23066.665736
1 Jan 2020 13:41:40.000,260.523,-81.660,22992.337757
1 Jan 2020 13:42:10.000,263.125,-81.919,22923.222667
1 Jan 2020 13:42:40.000,265.905,-82.170,22859.422970
1 Jan 2020 13:43:10.000,268.872,-82.410,22801.035108
1 Jan 2020 13:43:40.000,272.035,-82.637,22748.149511
1 Jan 2020 13:44:10.000,275.401,-82.849,22700.849630
1 Jan 2020 13:44:40.000,278.972,-83.043,22659.212042
1 Jan 2020 13:45:10.000,282.743,-83.216,22623.306039
1 Jan 2020 13:45:40.000,286.705,-83.366,22593.193352
1 Jan 2020 13:46:10.000,290.840,-83.490,22568.927865
1 Jan 2020 13:46:40.000,295.123,-83.586,22550.555536
1 Jan 2020 13:47:10.000,299.520,-83.653,22538.113971
1 Jan 2020 13:47:40.000,303.989,-83.687,22531.632437
1 Jan 2020 13:48:10.000,308.487,-83.690,22531.131685
1 Jan 2020 13:48:40.000,312.965,-83.661,22536.623871
1 Jan 2020 13:49:10.000,317.378,-83.599,22548.112543
1 Jan 2020 13:49:40.000,321.683,-83.508,22565.592454
1 Jan 2020 13:50:10.000,325.845,-83.387,22589.049827
1 Jan 2020 13:50:40.000,329.835,-83.240,22618.462265
1 Jan 2020 13:51:10.000,333.634,-83.069,22653.798878
1 Jan 2020 13:51:40.000,337.230,-82.876,22695.020416
1 Jan 2020 13:52:10.000,340.616,-82.664,22742.079550
1 Jan 2020 13:52:40.000,343.795,-82.436,22794.920597
1 Jan 2020 13:53:10.000,346.770,-82.194,22853.480437
1 Jan 2020 13:53:40.000,349.550,-81.940,22917.688315
1 Jan 2020 13:54:10.000,352.145,-81.678,22987.466230
1 Jan 2020 13:54:40.000,354.567,-81.409,23062.729236
1 Jan 2020 13:55:10.000,356.826,-81.135,23143.385939
1 Jan 2020 13:55:40.000,358.935,-80.857,23229.338127
1 Jan 2020 13:56:10.000,0.905,-80.578,23320.482168
1 Jan 2020 13:56:40.000,2.748,-80.298,23416.708682
1 Jan 2020 13:57:10.000,4.474,-80.020,23517.903084
1 Jan 2020 13:57:40.000,6.092,-79.743,23623.945953
1 Jan 2020 13:58:10.000,7.611,-79.470,23734.713416
1 Jan 2020 13:58:40.000,9.041,-79.201,23850.077770
1 Jan 2020 13:59:10.000,10.387,-78.937,23969.906868
1 Jan 2020 13:59:40.000,11.657,-78.679,24094.065966
1 Jan 2020 14:00:10.000,12.857,-78.427,24222.417109
1 Jan 2020 14:00:40.000,13.993,-78.183,24354.819732
1 Jan 2020 14:01:10.000,15.070,-77.945,24491.131004
1 Jan 2020 14:01:40.000,16.092,-77.716,24631.206167
1 Jan 2020 14:02:10.000,17.064,-77.495,24774.898852
1 Jan 2020 14:02:40.000,17.990,-77.283,24922.061395
1 Jan 2020 14:03:10.000,18.872,-77.079,25072.545436
1 Jan 2020 14:03:40.000,19.714,-76.885,25226.200976
1 Jan 2020 14:04:10.000,20.519,-76.701,25382.878473
1 Jan 2020 14:04:40.000,21.290,-76.526,25542.427875
1 Jan 2020 14:05:10.000,22.029,-76.361,25704.699161
1 Jan 2020 14:05:40.000,22.738,-76.205,25869.542559
1 Jan 2020 14:06:10.000,23.418,-76.060,26036.808751
1 Jan 2020 14:06:40.000,24.073,-75.925,26206.349063
1 Jan 2020 14:07:10.000,24.703,-75.800,26378.015636
1 Jan 2020 14:07:40.000,25.311,-75.685,26551.661594
1 Jan 2020 14:08:10.000,25.897,-75.580,26727.141185
1 Jan 2020 14:08:40.000,26.463,-75.485,26904.309919
1 Jan 2020 14:09:10.000,27.009,-75.400,27083.024685
1 Jan 2020 14:09:40.000,27.538,-75.325,27263.143867
1 Jan 2020 14:10:10.000,28.051,-75.261,27444.527435
1 Jan 2020 14:10:40.000,28.547,-75.206,27627.037039
1 Jan 2020 14:11:10.000,29.028,-75.160,27810.536082
1 Jan 2020 14:11:40.000,29.495,-75.125,27994.889789
1 Jan 2020 14:12:10.000,29.949,-75.099,28179.965266
1 Jan 2020 14:12:40.000,30.390,-75.082,28365.631553
1 Jan 2020 14:13:10.000,30.819,-75.074,28551.759665
1 Jan 2020 14:13:19.551,30.953,-75.074,28611.095107
1 Jan 2020 15:25:37.173,214.841,-75.071,28609.182803
1 Jan 2020 15:26:07.000,214.648,-75.076,28417.972419
1 Jan 2020 15:26:37.000,214.445,-75.090,28225.892896
1 Jan 2020 15:27:07.000,214.232,-75.115,28034.186668
1 Jan 2020 15:27:37.000,214.009,-75.150,27842.988176
1 Jan 2020 15:28:07.000,213.776,-75.195,27652.434224
1 Jan 2020 15:28:37.000,213.531,-75.251,27462.663948
1 Jan 2020 15:29:07.000,213.274,-75.318,27273.818775
1 Jan 2020 15:29:37.000,213.005,-75.395,27086.042371
1 Jan 2020 15:30:07.000,212.723,-75.484,26899.480586
1 Jan 2020 15:30:37.000,212.427,-75.583,26714.281383
1 Jan 2020 15:31:07.000,212.116,-75.694,26530.594757
1 Jan 2020 15:31:37.000,211.790,-75.816,26348.572642
1 Jan 2020 15:32:07.000,211.448,-75.950,26168.368809
1 Jan 2020 15:32:37.000,211.088,-76.095,25990.138743
1 Jan 2020 15:33:07.000,210.709,-76.252,25814.039513
1 Jan 2020 15:33:37.000,210.310,-76.420,25640.229622
1 Jan 2020 15:34:07.000,209.890,-76.600,25468.868844
1 Jan 2020 15:34:37.000,209.446,-76.792,25300.117721
1 Jan 2020 15:35:07.000,208.978,-76.995,25134.138650
1 Jan 2020 15:35:37.000,208.483,-77.210,24971.093733
1 Jan 2020 15:36:07.000,207.958,-77.436,24811.145837
1 Jan 2020 15:36:37.000,207.402,-77.674,24654.458011
1 Jan 2020 15:37:07.000,206.811,-77.923,24501.193221
1 Jan 2020 15:37:37.000,206.182,-78.183,24351.514050
1 Jan 2020 15:38:07.000,205.511,-78.453,24205.582392
1 Jan 2020 15:38:37.000,204.795,-78.735,24063.558853
1 Jan 2020 15:39:07.000,204.028,-79.027,23925.603485
1 Jan 2020 15:39:37.000,203.206,-79.328,23791.873784
1 Jan 2020 15:40:07.000,202.321,-79.639,23662.525404
1 Jan 2020 15:40:37.000,201.366,-79.959,23537.711487
1 Jan 2020 15:41:07.000,200.334,-80.288,23417.582249
1 Jan 2020 15:41:37.000,199.214,-80.624,23302.284556
1 Jan 2020 15:42:07.000,197.996,-80.968,23191.961251
1 Jan 2020 15:42:37.000,196.665,-81.317,23086.751676
1 Jan 2020 15:43:07.000,195.207,-81.671,22986.789766
1 Jan 2020 15:43:37.000,193.603,-82.030,22892.204581
1 Jan 2020 15:44:07.000,191.831,-82.391,22803.119610
1 Jan 2020 15:44:37.000,189.867,-82.753,22719.652327
1 Jan 2020 15:45:07.000,187.680,-83.115,22641.913587
1 Jan 2020 15:45:37.000,185.235,-83.473,22570.007879
1 Jan 2020 15:46:07.000,182.492,-83.826,22504.031878
1 Jan 2020 15:46:37.000,179.405,-84.170,22444.074756
1 Jan 2020 15:47:07.000,175.922,-84.502,22390.217634
1 Jan 2020 15:47:37.000,171.987,-84.817,22342.533143
1 Jan 2020 15:48:07.000,167.545,-85.111,22301.085498
1 Jan 2020 15:48:37.000,162.551,-85.377,22265.929618
1 Jan 2020 15:49:07.000,156.977,-85.609,22237.111288
1 Jan 2020 15:49:37.000,150.829,-85.799,22214.666849
1 Jan 2020 15:50:07.000,144.166,-85.941,22198.622997
1 Jan 2020 15:50:37.000,137.109,-86.030,22188.996808
1 Jan 2020 15:51:07.000,129.837,-86.060,22185.795414
1 Jan 2020 15:51:37.000,122.565,-86.030,22189.016146
1 Jan 2020 15:52:07.000,115.508,-85.942,22198.646498
1 Jan 2020 15:52:37.000,108.844,-85.800,22214.664211
1 Jan 2020 15:53:07.000,102.692,-85.610,22237.037272
1 Jan 2020 15:53:37.000,97.109,-85.380,22265.724197
1 Jan 2020 15:54:07.000,92.101,-85.115,22300.674141
1 Jan 2020 15:54:37.000,87.639,-84.824,22341.827139
1 Jan 2020 15:55:07.000,83.678,-84.511,22389.114465
1 Jan 2020 15:55:37.000,80.163,-84.182,22442.458588
1 Jan 2020 15:56:07.000,77.037,-83.840,22501.774000
1 Jan 2020 15:56:37.000,74.249,-83.491,22566.967259
1 Jan 2020 15:57:07.000,71.754,-83.136,22637.937452
1 Jan 2020 15:57:37.000,69.510,-82.778,22714.576599
1 Jan 2020 15:58:07.000,67.483,-82.420,22796.770252
1 Jan 2020 15:58:37.000,65.643,-82.063,22884.397261
1 Jan 2020 15:59:07.000,63.965,-81.709,22977.331209
1 Jan 2020 15:59:37.000,62.427,-81.358,23075.440218
1 Jan 2020 16:00:07.000,61.010,-81.013,23178.587567
1 Jan 2020 16:00:37.000,59.701,-80.674,23286.632148
1 Jan 2020 16:01:07.000,58.485,-80.342,23399.428918
1 Jan 2020 16:01:37.000,57.350,-80.018,23516.829586
1 Jan 2020 16:02:07.000,56.288,-79.702,23638.682099
1 Jan 2020 16:02:37.000,55.290,-79.394,23764.832482
1 Jan 2020 16:03:07.000,54.348,-79.097,23895.124316
1 Jan 2020 16:03:37.000,53.457,-78.808,24029.399371
1 Jan 2020 16:04:07.000,52.610,-78.530,24167.497987
1 Jan 2020 16:04:37.000,51.804,-78.262,24309.259435
1 Jan 2020 16:05:07.000,51.033,-78.005,24454.522268
1 Jan 2020 16:05:37.000,50.294,-77.758,24603.124644
1 Jan 2020 16:06:07.000,49.584,-77.522,24754.904929
1 Jan 2020 16:06:37.000,48.900,-77.298,24909.700824
1 Jan 2020 16:07:07.000,48.238,-77.084,25067.351361
1 Jan 2020 16:07:37.000,47.598,-76.882,25227.696009
1 Jan 2020 16:08:07.000,46.976,-76.690,25390.575186
1 Jan 2020 16:08:37.000,46.372,-76.510,25555.830473
1 Jan 2020 16:09:07.000,45.782,-76.341,25723.304802
1 Jan 2020 16:09:37.000,45.206,-76.183,25892.842638
1 Jan 2020 16:10:07.000,44.642,-76.036,26064.290132
1 Jan 2020 16:10:37.000,44.089,-75.901,26237.495264
1 Jan 2020 16:11:07.000,43.546,-75.776,26412.307972
1 Jan 2020 16:11:37.000,43.011,-75.661,26588.580263
1 Jan 2020 16:12:07.000,42.484,-75.558,26766.166311
1 Jan 2020 16:12:37.000,41.963,-75.465,26944.922546
1 Jan 2020 16:13:07.000,41.448,-75.382,27124.707723
1 Jan 2020 16:13:37.000,40.938,-75.310,27305.382987
1 Jan 2020 16:14:07.000,40.432,-75.247,27486.811929
1 Jan 2020 16:14:37.000,39.930,-75.195,27668.860621
1 Jan 2020 16:15:07.000,39.430,-75.152,27851.397659
1 Jan 2020 16:15:37.000,38.933,-75.119,28034.294183
1 Jan 2020 16:16:07.000,38.437,-75.095,28217.423896
1 Jan 2020 16:16:37.000,37.942,-75.081,28400.663079
1 Jan 2020 16:17:07.000,37.447,-75.075,28583.890596
1 Jan 2020 16:17:10.858,37.384,-75.075,28607.446354
1 Jan 2020 17:32:30.698,189.165,-75.066,28601.666045
1 Jan 2020 17:33:00.000,188.250,-75.069,28452.329923
1 Jan 2020 17:33:30.000,187.301,-75.078,28300.161002
1 Jan 2020 17:34:00.000,186.339,-75.093,28148.821183
1 Jan 2020 17:34:30.000,185.363,-75.115,27998.408267
1 Jan 2020 17:35:00.000,184.373,-75.142,27849.020805
1 Jan 2020 17:35:30.000,183.367,-75.176,27700.758050
1 Jan 2020 17:36:00.000,182.346,-75.216,27553.719886
1 Jan 2020 17:36:30.000,181.306,-75.262,27408.006771
1 Jan 2020 17:37:00.000,180.249,-75.315,27263.719662
1 Jan 2020 17:37:30.000,179.173,-75.373,27120.959938
1 Jan 2020 17:38:00.000,178.077,-75.437,26979.829319
1 Jan 2020 17:38:30.000,176.959,-75.506,26840.429779
1 Jan 2020 17:39:00.000,175.819,-75.582,26702.863453
1 Jan 2020 17:39:30.000,174.656,-75.663,26567.232537
1 Jan 2020 17:40:00.000,173.468,-75.749,26433.639182
1 Jan 2020 17:40:30.000,172.255,-75.841,26302.185384
1 Jan 2020 17:41:00.000,171.014,-75.937,26172.972867
1 Jan 2020 17:41:30.000,169.746,-76.039,26046.102692
1 Jan 2020 17:42:00.000,168.447,-76.145,25921.676200
1 Jan 2020 17:42:30.000,167.118,-76.255,25799.793263
1 Jan 2020 17:43:00.000,165.756,-76.370,25680.553222
1 Jan 2020 17:43:30.000,164.361,-76.488,25564.054469
1 Jan 2020 17:44:00.000,162.930,-76.610,25450.394300
1 Jan 2020 17:44:30.000,161.462,-76.735,25339.668752
1 Jan 2020 17:45:00.000,159.957,-76.862,25231.972448
1 Jan 2020 17:45:30.000,158.411,-76.992,25127.398425
1 Jan 2020 17:46:00.000,156.825,-77.124,25026.037971
1 Jan 2020 17:46:30.000,155.196,-77.257,24927.980234
1 Jan 2020 17:47:00.000,153.523,-77.392,24833.312911
1 Jan 2020 17:47:30.000,151.805,-77.526,24742.120771
1 Jan 2020 17:48:00.000,150.040,-77.661,24654.486347
1 Jan 2020 17:48:30.000,148.228,-77.795,24570.489542
1 Jan 2020 17:49:00.000,146.367,-77.928,24490.207447
1 Jan 2020 17:49:30.000,144.457,-78.059,24413.714170
1 Jan 2020 17:50:00.000,142.496,-78.188,24341.080655
1 Jan 2020 17:50:30.000,140.486,-78.313,24272.374369
1 Jan 2020 17:51:00.000,138.425,-78.435,24207.659728
1 Jan 2020 17:51:30.000,136.314,-78.553,24146.997030
1 Jan 2020 17:52:00.000,134.154,-78.666,24090.442910
1 Jan 2020 17:52:30.000,131.945,-78.773,24038.050038
1 Jan 2020 17:53:00.000,129.690,-78.874,23989.866979
1 Jan 2020 17:53:30.000,127.389,-78.968,23945.938054
1 Jan 2020 17:54:00.000,125.045,-79.054,23906.303146
1 Jan 2020 17:54:30.000,122.662,-79.132,23870.997920
1 Jan 2020 17:55:00.000,120.242,-79.202,23840.053204
1 Jan 2020 17:55:30.000,117.789,-79.263,23813.495258
1 Jan 2020 17:56:00.000,115.308,-79.314,23791.345609
1 Jan 2020 17:56:30.000,112.803,-79.356,23773.620989
1 Jan 2020 17:57:00.000,110.279,-79.387,23760.333288
1 Jan 2020 17:57:30.000,107.741,-79.408,23751.489500
1 Jan 2020 17:58:00.000,105.195,-79.419,23747.091802
1 Jan 2020 17:58:30.000,102.647,-79.419,23747.137391
1 Jan 2020 17:59:00.000,100.101,-79.408,23751.618613
1 Jan 2020 17:59:30.000,97.564,-79.387,23760.522955
1 Jan 2020 18:00:00.000,95.041,-79.356,23773.833090
1 Jan 2020 18:00:30.000,92.537,-79.315,23791.526930
1 Jan 2020 18:01:00.000,90.057,-79.264,23813.577737
1 Jan 2020 18:01:30.000,87.605,-79.204,23839.954054
1 Jan 2020 18:02:00.000,85.186,-79.135,23870.620013
1 Jan 2020 18:02:30.000,82.802,-79.058,23905.535315
1 Jan 2020 18:03:00.000,80.458,-78.973,23944.655374
1 Jan 2020 18:03:30.000,78.155,-78.880,23987.931451
1 Jan 2020 18:04:00.000,75.896,-78.781,24035.310795
1 Jan 2020 18:04:30.000,73.683,-78.676,24086.736787
1 Jan 2020 18:05:00.000,71.517,-78.566,24142.149219
1 Jan 2020 18:05:30.000,69.398,-78.451,24201.483996
1 Jan 2020 18:06:00.000,67.328,-78.331,24264.673981
1 Jan 2020 18:06:30.000,65.306,-78.209,24331.648726
1 Jan 2020 18:07:00.000,63.332,-78.083,24402.334763
1 Jan 2020 18:07:30.000,61.405,-77.955,24476.655781
1 Jan 2020 18:08:00.000,59.526,-77.825,24554.532810
1 Jan 2020 18:08:30.000,57.693,-77.695,24635.884407
1 Jan 2020 18:09:00.000,55.905,-77.563,24720.626837
1 Jan 2020 18:09:30.000,54.161,-77.432,24808.674436
1 Jan 2020 18:10:00.000,52.459,-77.301,24899.939089
1 Jan 2020 18:10:30.000,50.799,-77.171,24994.331455
1 Jan 2020 18:11:00.000,49.178,-77.043,25091.760453
1 Jan 2020 18:11:30.000,47.596,-76.916,25192.133605
1 Jan 2020 18:12:00.000,46.051,-76.792,25295.357209
1 Jan 2020 18:12:30.000,44.541,-76.670,25401.336498
1 Jan 2020 18:13:00.000,43.066,-76.551,25509.975805
1 Jan 2020 18:13:30.000,41.623,-76.435,25621.178711
1 Jan 2020 18:14:00.000,40.211,-76.322,25734.848200
1 Jan 2020 18:14:30.000,38.829,-76.214,25850.886797
1 Jan 2020 18:15:00.000,37.475,-76.109,25969.196702
1 Jan 2020 18:15:30.000,36.148,-76.009,26089.679928
1 Jan 2020 18:16:00.000,34.847,-75.913,26212.238661
1 Jan 2020 18:16:30.000,33.570,-75.822,26336.774405
1 Jan 2020 18:17:00.000,32.316,-75.736,26463.189552
1 Jan 2020 18:17:30.000,31.084,-75.654,26591.386513
1 Jan 2020 18:18:00.000,29.873,-75.578,26721.268064
1 Jan 2020 18:18:30.000,28.682,-75.506,26852.737431
1 Jan 2020 18:19:00.000,27.509,-75.440,26985.698379
1 Jan 2020 18:19:30.000,26.354,-75.380,27120.055289
1 Jan 2020 18:20:00.000,25.216,-75.324,27255.713235
1 Jan 2020 18:20:30.000,24.093,-75.274,27392.578047
1 Jan 2020 18:21:00.000,22.985,-75.230,27530.556376
1 Jan 2020 18:21:30.000,21.890,-75.191,27669.555753
1 Jan 2020 18:22:00.000,20.809,-75.158,27809.484636
1 Jan 2020 18:22:30.000,19.739,-75.130,27950.252462
1 Jan 2020 18:23:00.000,18.681,-75.108,28091.769686
1 Jan 2020 18:23:30.000,17.634,-75.091,28233.947821
1 Jan 2020 18:24:00.000,16.596,-75.080,28376.699472
1 Jan 2020 18:24:30.000,15.568,-75.074,28519.938364
1 Jan 2020 18:24:46.598,15.002,-75.073,28599.366955
1 Jan 2020 19:43:37.558,151.043,-75.065,28594.396980
1 Jan 2020 19:44:07.000,150.174,-75.069,28439.957245
1 Jan 2020 19:44:37.000,149.282,-75.079,28282.734668
1 Jan 2020 19:45:07.000,148.384,-75.095,28125.753494
1 Jan 2020 19:45:37.000,147.478,-75.118,27969.113321
1 Jan 2020 19:46:07.000,146.564,-75.149,27812.915585
1 Jan 2020 19:46:37.000,145.640,-75.186,27657.263539
1 Jan 2020 19:47:07.000,144.707,-75.230,27502.262226
1 Jan 2020 19:47:37.000,143.763,-75.281,27348.018450
1 Jan 2020 19:48:07.000,142.806,-75.340,27194.640742
1 Jan 2020 19:48:37.000,141.836,-75.405,27042.239311
1 Jan 2020 19:49:07.000,140.853,-75.478,26890.925998
1 Jan 2020 19:49:37.000,139.853,-75.557,26740.814219
1 Jan 2020 19:50:07.000,138.837,-75.644,26592.018900
1 Jan 2020 19:50:37.000,137.803,-75.738,26444.656405
1 Jan 2020 19:51:07.000,136.749,-75.839,26298.844456
1 Jan 2020 19:51:37.000,135.675,-75.948,26154.702039
1 Jan 2020 19:52:07.000,134.578,-76.063,26012.349313
1 Jan 2020 19:52:37.000,133.457,-76.185,25871.907494
1 Jan 2020 19:53:07.000,132.310,-76.313,25733.498741
1 Jan 2020 19:53:37.000,131.136,-76.449,25597.246023
1 Jan 2020 19:54:07.000,129.931,-76.590,25463.272736
1 Jan 2020 19:54:37.000,128.695,-76.738,25331.703549
1 Jan 2020 19:55:07.000,127.425,-76.892,25202.662736
1 Jan 2020 19:55:37.000,126.118,-77.052,25076.275012
1 Jan 2020 19:56:07.000,124.772,-77.217,24952.665097
1 Jan 2020 19:56:37.000,123.384,-77.387,24831.957519
1 Jan 2020 19:57:07.000,121.952,-77.561,24714.276411
1 Jan 2020 19:57:37.000,120.472,-77.740,24599.745288
1 Jan 2020 19:58:07.000,118.942,-77.923,24488.486827
1 Jan 2020 19:58:37.000,117.357,-78.109,24380.622620
1 Jan 2020 19:59:07.000,115.716,-78.297,24276.272726
1 Jan 2020 19:59:37.000,114.014,-78.488,24175.556246
1 Jan 2020 20:00:07.000,112.248,-78.680,24078.589797
1 Jan 2020 20:00:37.000,110.414,-78.873,23985.488084
1 Jan 2020 20:01:07.000,108.508,-79.065,23896.363414
1 Jan 2020 20:01:37.000,106.527,-79.256,23811.325410
1 Jan 2020 20:02:07.000,104.468,-79.446,23730.480720
1 Jan 2020 20:02:37.000,102.327,-79.632,23653.932732
1 Jan 2020 20:03:07.000,100.102,-79.815,23581.781144
1 Jan 2020 20:03:37.000,97.789,-79.992,23514.122240
1 Jan 2020 20:04:07.000,95.388,-80.163,23451.047736
1 Jan 2020 20:04:37.000,92.896,-80.327,23392.645088
1 Jan 2020 20:05:07.000,90.314,-80.482,23338.997065
1 Jan 2020 20:05:37.000,87.644,-80.628,23290.181481
1 Jan 2020 20:06:07.000,84.886,-80.762,23246.270936
1 Jan 2020 20:06:37.000,82.045,-80.884,23207.332509
1 Jan 2020 20:07:07.000,79.125,-80.992,23173.427792
1 Jan 2020 20:07:37.000,76.135,-81.086,23144.612257
1 Jan 2020 20:08:07.000,73.082,-81.165,23120.935343
1 Jan 2020 20:08:37.000,69.976,-81.227,23102.440207
1 Jan 2020 20:09:07.000,66.830,-81.272,23089.163562
1 Jan 2020 20:09:37.000,63.654,-81.299,23081.135546
1 Jan 2020 20:10:07.000,60.465,-81.309,23078.379600
1 Jan 2020 20:10:37.000,57.274,-81.300,23080.912374
1 Jan 2020 20:11:07.000,54.097,-81.274,23088.743675
1 Jan 2020 20:11:37.000,50.947,-81.229,23101.876423
1 Jan 2020 20:12:07.000,47.838,-81.167,23120.306637
1 Jan 2020 20:12:37.000,44.781,-81.089,23144.023514
1 Jan 2020 20:13:07.000,41.787,-80.994,23173.009206
1 Jan 2020 20:13:37.000,38.866,-80.885,23207.239260
1 Jan 2020 20:14:07.000,36.024,-80.761,23246.682462
1 Jan 2020 20:14:37.000,33.267,-80.625,23291.301009
1 Jan 2020 20:15:07.000,30.601,-80.477,23341.050641
1 Jan 2020 20:15:37.000,28.027,-80.319,23395.880920
1 Jan 2020 20:16:07.000,25.546,-80.151,23455.734915
1 Jan 2020 20:16:37.000,23.161,-79.976,23520.550120
1 Jan 2020 20:17:07.000,20.868,-79.794,23590.258184
1 Jan 2020 20:17:37.000,18.668,-79.606,23664.785264
1 Jan 2020 20:18:07.000,16.557,-79.415,23744.052251
1 Jan 2020 20:18:37.000,14.533,-79.219,23827.975029
1 Jan 2020 20:19:07.000,12.592,-79.022,23916.464927
1 Jan 2020 20:19:37.000,10.733,-78.823,24009.428203
1 Jan 2020 20:20:07.000,8.950,-78.624,24106.767479
1 Jan 2020 20:20:37.000,7.240,-78.426,24208.381252
1 Jan 2020 20:21:07.000,5.601,-78.229,24314.164360
1 Jan 2020 20:21:37.000,4.027,-78.034,24424.008263
1 Jan 2020 20:22:07.000,2.516,-77.842,24537.801319
1 Jan 2020 20:22:37.000,1.065,-77.653,24655.429062
1 Jan 2020 20:23:07.000,359.669,-77.469,24776.774718
1 Jan 2020 20:23:37.000,358.327,-77.289,24901.718492
1 Jan 2020 20:24:07.000,357.034,-77.114,25030.139289
1 Jan 2020 20:24:37.000,355.788,-76.944,25161.914003
1 Jan 2020 20:25:07.000,354.587,-76.780,25296.918002
1 Jan 2020 20:25:37.000,353.427,-76.623,25435.025361
1 Jan 2020 20:26:07.000,352.307,-76.472,25576.109096
1 Jan 2020 20:26:37.000,351.224,-76.328,25720.041378
1 Jan 2020 20:27:07.000,350.176,-76.191,25866.693745
1 Jan 2020 20:27:37.000,349.161,-76.061,26015.937295
1 Jan 2020 20:28:07.000,348.177,-75.939,26167.642879
1 Jan 2020 20:28:37.000,347.223,-75.825,26321.681277
1 Jan 2020 20:29:07.000,346.296,-75.718,26477.923360
1 Jan 2020 20:29:37.000,345.395,-75.619,26636.240579
1 Jan 2020 20:30:07.000,344.519,-75.529,26796.503806
1 Jan 2020 20:30:37.000,343.666,-75.446,26958.585418
1 Jan 2020 20:31:07.000,342.835,-75.372,27122.358128
1 Jan 2020 20:31:37.000,342.024,-75.305,27287.695424
1 Jan 2020 20:32:07.000,341.233,-75.247,27454.471678
1 Jan 2020 20:32:37.000,340.461,-75.197,27622.562244
1 Jan 2020 20:33:07.000,339.706,-75.156,27791.843547
1 Jan 2020 20:33:37.000,338.967,-75.122,27962.193167
1 Jan 2020 20:34:07.000,338.244,-75.096,28133.489910
1 Jan 2020 20:34:37.000,337.536,-75.079,28305.613880
1 Jan 2020 20:35:07.000,336.841,-75.070,28478.446532
1 Jan 2020 20:35:26.890,336.387,-75.068,28593.367144
1 Jan 2020 21:48:33.323,142.454,-75.068,28593.602343
1 Jan 2020 21:49:03.000,142.347,-75.073,28402.324168
1 Jan 2020 21:49:33.000,142.243,-75.088,28209.026432
1 Jan 2020 21:50:03.000,142.145,-75.114,28015.921523
1 Jan 2020 21:50:33.000,142.052,-75.149,27823.143253
1 Jan 2020 21:51:03.000,141.965,-75.195,27630.828106
1 Jan 2020 21:51:33.000,141.883,-75.253,27439.115220
1 Jan 2020 21:52:03.000,141.806,-75.321,27248.146364
1 Jan 2020 21:52:33.000,141.735,-75.400,27058.065901
1 Jan 2020 21:53:03.000,141.669,-75.491,26869.020751
1 Jan 2020 21:53:33.000,141.608,-75.594,26681.160335
1 Jan 2020 21:54:03.000,141.553,-75.708,26494.636515
1 Jan 2020 21:54:33.000,141.503,-75.834,26309.603512
1 Jan 2020 21:55:03.000,141.459,-75.972,26126.217828
1 Jan 2020 21:55:33.000,141.421,-76.123,25944.638136
1 Jan 2020 21:56:03.000,141.388,-76.285,25765.025167
1 Jan 2020 21:56:33.000,141.362,-76.461,25587.541578
1 Jan 2020 21:57:03.000,141.342,-76.648,25412.351802
1 Jan 2020 21:57:33.000,141.328,-76.849,25239.621881
1 Jan 2020 21:58:03.000,141.321,-77.062,25069.518965
1 Jan 2020 21:58:33.000,141.321,-77.288,24902.212387
1 Jan 2020 21:59:03.000,141.328,-77.527,24737.871508
1 Jan 2020 21:59:33.000,141.343,-77.779,24576.666765
1 Jan 2020 22:00:03.000,141.367,-78.044,24418.769083
1 Jan 2020 22:00:33.000,141.399,-78.321,24264.349582
1 Jan 2020 22:01:03.000,141.440,-78.611,24113.579270
1 Jan 2020 22:01:33.000,141.492,-78.914,23966.628714
1 Jan 2020 22:02:03.000,141.555,-79.230,23823.667412
1 Jan 2020 22:02:33.000,141.629,-79.557,23684.864508
1 Jan 2020 22:03:03.000,141.717,-79.898,23550.386757
1 Jan 2020 22:03:33.000,141.820,-80.250,23420.399206
1 Jan 2020 22:04:03.000,141.938,-80.614,23295.064490
1 Jan 2020 22:04:33.000,142.076,-80.989,23174.542377
1 Jan 2020 22:05:03.000,142.234,-81.376,23058.989307
1 Jan 2020 22:05:33.000,142.416,-81.774,22948.557675
1 Jan 2020 22:06:03.000,142.626,-82.183,22843.396299
1 Jan 2020 22:06:33.000,142.870,-82.601,22743.648476
1 Jan 2020 22:07:03.000,143.152,-83.029,22649.452460
1 Jan 2020 22:07:33.000,143.481,-83.467,22560.940718
1 Jan 2020 22:08:03.000,143.869,-83.913,22478.239430
1 Jan 2020 22:08:33.000,144.328,-84.367,22401.467837
1 Jan 2020 22:09:03.000,144.879,-84.828,22330.738433
1 Jan 2020 22:09:33.000,145.550,-85.296,22266.155481
1 Jan 2020 22:10:03.000,146.383,-85.770,22207.815268
1 Jan 2020 22:10:33.000,147.438,-86.249,22155.805504
1 Jan 2020 22:11:03.000,148.816,-86.732,22110.204858
1 Jan 2020 22:11:33.000,150.688,-87.216,22071.082946
1 Jan 2020 22:12:03.000,153.362,-87.701,22038.499469
1 Jan 2020 22:12:33.000,157.472,-88.180,22012.504309
1 Jan 2020 22:13:03.000,164.487,-88.647,21993.137200
1 Jan 2020 22:13:33.000,178.397,-89.074,21980.427510
1 Jan 2020 22:14:03.000,209.627,-89.372,21974.394202
1 Jan 2020 22:14:33.000,255.634,-89.333,21975.045575
1 Jan 2020 22:15:03.000,282.340,-88.995,21982.379349
1 Jan 2020 22:15:33.000,294.325,-88.556,21996.382638
1 Jan 2020 22:16:03.000,300.583,-88.086,22017.032062
1 Jan 2020 22:16:33.000,304.351,-87.605,22044.293685
1 Jan 2020 22:17:03.000,306.856,-87.121,22078.123419
1 Jan 2020 22:17:33.000,308.641,-86.637,22118.467087
1 Jan 2020 22:18:03.000,309.981,-86.155,22165.260711
1 Jan 2020 22:18:33.000,311.027,-85.678,22218.430917
1 Jan 2020 22:19:03.000,311.870,-85.205,22277.894848
1 Jan 2020 22:19:33.000,312.566,-84.739,22343.561152
1 Jan 2020 22:20:03.000,313.154,-84.280,22415.329985
1 Jan 2020 22:20:33.000,313.659,-83.828,22493.093536
1 Jan 2020 22:21:03.000,314.101,-83.384,22576.736478
1 Jan 2020 22:21:33.000,314.493,-82.949,22666.136639
1 Jan 2020 22:22:03.000,314.845,-82.523,22761.164703
1 Jan 2020 22:22:33.000,315.164,-82.107,22861.685856
1 Jan 2020 22:23:03.000,315.457,-81.702,22967.559529
1 Jan 2020 22:23:33.000,315.728,-81.307,23078.640088
1 Jan 2020 22:24:03.000,315.981,-80.922,23194.777328
1 Jan 2020 22:24:33.000,316.220,-80.550,23315.816974
1 Jan 2020 22:25:03.000,316.446,-80.189,23441.601426
1 Jan 2020 22:25:33.000,316.661,-79.839,23571.969175
1 Jan 2020 22:26:03.000,316.868,-79.502,23706.756844
1 Jan 2020 22:26:33.000,317.067,-79.177,23845.798587
1 Jan 2020 22:27:03.000,317.261,-78.865,23988.926773
1 Jan 2020 22:27:33.000,317.450,-78.565,24135.972400
1 Jan 2020 22:28:03.000,317.634,-78.277,24286.765474
1 Jan 2020 22:28:33.000,317.816,-78.003,24441.135383
1 Jan 2020 22:29:03.000,317.994,-77.741,24598.911238
1 Jan 2020 22:29:33.000,318.171,-77.492,24759.922516
1 Jan 2020 22:30:03.000,318.347,-77.256,24923.998097
