STKdata/stk_90fov_4leo/Satellite-MEO_Satellite10203-To-Satellite-LEO_Satellite10000 AER.csv

"Time (UTCG)","Azimuth (deg)","Elevation (deg)","Range (km)"
1 Jan 2020 00:00:00.000,139.893,-75.302,27340.922160
1 Jan 2020 00:00:30.000,141.539,-75.261,27460.330173
1 Jan 2020 00:01:00.000,143.159,-75.223,27583.117520
1 Jan 2020 00:01:30.000,144.752,-75.189,27709.100702
1 Jan 2020 00:02:00.000,146.321,-75.160,27838.094249
1 Jan 2020 00:02:30.000,147.866,-75.134,27969.911124
1 Jan 2020 00:03:00.000,149.387,-75.113,28104.363113
1 Jan 2020 00:03:30.000,150.887,-75.097,28241.261193
1 Jan 2020 00:04:00.000,152.367,-75.086,28380.415884
1 Jan 2020 00:04:30.000,153.827,-75.080,28521.637586
1 Jan 2020 00:04:48.651,154.725,-75.079,28610.391671
1 Jan 2020 01:03:21.890,343.334,-75.069,28606.497297
1 Jan 2020 01:03:51.000,344.542,-75.072,28440.314322
1 Jan 2020 01:04:21.000,345.801,-75.084,28269.795011
1 Jan 2020 01:04:51.000,347.075,-75.103,28100.230761
1 Jan 2020 01:05:21.000,348.367,-75.130,27931.828021
1 Jan 2020 01:05:51.000,349.678,-75.165,27764.796152
1 Jan 2020 01:06:21.000,351.010,-75.208,27599.347215
1 Jan 2020 01:06:51.000,352.364,-75.258,27435.695734
1 Jan 2020 01:07:21.000,353.744,-75.316,27274.058442
1 Jan 2020 01:07:51.000,355.151,-75.381,27114.653989
1 Jan 2020 01:08:21.000,356.586,-75.453,26957.702633
1 Jan 2020 01:08:51.000,358.053,-75.532,26803.425901
1 Jan 2020 01:09:21.000,359.553,-75.617,26652.046214
1 Jan 2020 01:09:51.000,1.088,-75.709,26503.786488
1 Jan 2020 01:10:21.000,2.661,-75.807,26358.869709
1 Jan 2020 01:10:51.000,4.273,-75.910,26217.518258
1 Jan 2020 01:11:21.000,5.928,-76.018,26079.954273
1 Jan 2020 01:11:51.000,7.626,-76.131,25946.397847
1 Jan 2020 01:12:21.000,9.371,-76.247,25817.067346
1 Jan 2020 01:12:51.000,11.164,-76.366,25692.178613
1 Jan 2020 01:13:21.000,13.007,-76.488,25571.944377
1 Jan 2020 01:13:51.000,14.902,-76.612,25456.573628
1 Jan 2020 01:14:21.000,16.851,-76.736,25346.270826
1 Jan 2020 01:14:51.000,18.855,-76.860,25241.235863
1 Jan 2020 01:15:21.000,20.914,-76.984,25141.662451
1 Jan 2020 01:15:51.000,23.031,-77.105,25047.738077
1 Jan 2020 01:16:21.000,25.204,-77.224,24959.643165
1 Jan 2020 01:16:51.000,27.434,-77.339,24877.550385
1 Jan 2020 01:17:21.000,29.720,-77.449,24801.623883
1 Jan 2020 01:17:51.000,32.060,-77.553,24732.019034
1 Jan 2020 01:18:21.000,34.452,-77.650,24668.881146
1 Jan 2020 01:18:51.000,36.894,-77.739,24612.345283
1 Jan 2020 01:19:21.000,39.383,-77.820,24562.535556
1 Jan 2020 01:19:51.000,41.913,-77.891,24519.564527
1 Jan 2020 01:20:21.000,44.480,-77.952,24483.532868
1 Jan 2020 01:20:51.000,47.078,-78.001,24454.528611
1 Jan 2020 01:21:21.000,49.701,-78.039,24432.626935
1 Jan 2020 01:21:51.000,52.343,-78.065,24417.889749
1 Jan 2020 01:22:21.000,54.996,-78.078,24410.365416
1 Jan 2020 01:22:51.000,57.653,-78.079,24410.088461
1 Jan 2020 01:23:21.000,60.306,-78.066,24417.079475
1 Jan 2020 01:23:51.000,62.947,-78.042,24431.344987
1 Jan 2020 01:24:21.000,65.570,-78.005,24452.877441
1 Jan 2020 01:24:51.000,68.167,-77.956,24481.655326
1 Jan 2020 01:25:21.000,70.732,-77.895,24517.642975
1 Jan 2020 01:25:51.000,73.259,-77.824,24560.791205
1 Jan 2020 01:26:21.000,75.742,-77.743,24611.037271
1 Jan 2020 01:26:51.000,78.176,-77.653,24668.305254
1 Jan 2020 01:27:21.000,80.558,-77.554,24732.506568
1 Jan 2020 01:27:51.000,82.885,-77.448,24803.539844
1 Jan 2020 01:28:21.000,85.154,-77.336,24881.292205
1 Jan 2020 01:28:51.000,87.363,-77.219,24965.639261
1 Jan 2020 01:29:21.000,89.510,-77.097,25056.445800
1 Jan 2020 01:29:51.000,91.596,-76.972,25153.566552
1 Jan 2020 01:30:21.000,93.620,-76.845,25256.846115
1 Jan 2020 01:30:51.000,95.583,-76.717,25366.120616
1 Jan 2020 01:31:21.000,97.485,-76.589,25481.217696
1 Jan 2020 01:31:51.000,99.327,-76.461,25601.957333
1 Jan 2020 01:32:21.000,101.111,-76.335,25728.152511
1 Jan 2020 01:32:51.000,102.839,-76.212,25859.610113
1 Jan 2020 01:33:21.000,104.512,-76.093,25996.130668
1 Jan 2020 01:33:51.000,106.132,-75.977,26137.510356
1 Jan 2020 01:34:21.000,107.702,-75.866,26283.540747
1 Jan 2020 01:34:51.000,109.223,-75.760,26434.009637
1 Jan 2020 01:35:21.000,110.697,-75.661,26588.701647
1 Jan 2020 01:35:51.000,112.126,-75.568,26747.398792
1 Jan 2020 01:36:21.000,113.514,-75.482,26909.881032
1 Jan 2020 01:36:51.000,114.861,-75.403,27075.927067
1 Jan 2020 01:37:21.000,116.169,-75.332,27245.313742
1 Jan 2020 01:37:51.000,117.442,-75.270,27417.818137
1 Jan 2020 01:38:21.000,118.681,-75.215,27593.216928
1 Jan 2020 01:38:51.000,119.887,-75.170,27771.287061
1 Jan 2020 01:39:21.000,121.064,-75.133,27951.806134
1 Jan 2020 01:39:51.000,122.211,-75.105,28134.552746
1 Jan 2020 01:40:21.000,123.333,-75.086,28319.306821
1 Jan 2020 01:40:51.000,124.429,-75.077,28505.849905
1 Jan 2020 01:41:06.878,125.000,-75.076,28605.232640
1 Jan 2020 02:41:04.605,312.173,-75.065,28600.069655
1 Jan 2020 02:41:34.000,312.625,-75.072,28378.819496
1 Jan 2020 02:42:04.000,313.085,-75.092,28153.025734
1 Jan 2020 02:42:34.000,313.545,-75.126,27927.464544
1 Jan 2020 02:43:04.000,314.007,-75.175,27702.366215
1 Jan 2020 02:43:34.000,314.470,-75.238,27477.966530
1 Jan 2020 02:44:04.000,314.937,-75.316,27254.506710
1 Jan 2020 02:44:34.000,315.409,-75.410,27032.233343
1 Jan 2020 02:45:04.000,315.886,-75.520,26811.398284
1 Jan 2020 02:45:34.000,316.370,-75.645,26592.258524
1 Jan 2020 02:46:04.000,316.863,-75.787,26375.076030
1 Jan 2020 02:46:34.000,317.366,-75.945,26160.117548
1 Jan 2020 02:47:04.000,317.881,-76.119,25947.654368
1 Jan 2020 02:47:34.000,318.410,-76.311,25737.962042
1 Jan 2020 02:48:04.000,318.955,-76.519,25531.320063
1 Jan 2020 02:48:34.000,319.518,-76.744,25328.011494
1 Jan 2020 02:49:04.000,320.102,-76.987,25128.322221
1 Jan 2020 02:49:34.000,320.711,-77.246,24932.541752
1 Jan 2020 02:50:04.000,321.348,-77.523,24740.960757
1 Jan 2020 02:50:34.000,322.017,-77.817,24553.871757
1 Jan 2020 02:51:04.000,322.722,-78.127,24371.568139
1 Jan 2020 02:51:34.000,323.469,-78.455,24194.343438
1 Jan 2020 02:52:04.000,324.264,-78.798,24022.490286
1 Jan 2020 02:52:34.000,325.115,-79.157,23856.300613
1 Jan 2020 02:53:04.000,326.030,-79.532,23696.063148
1 Jan 2020 02:53:34.000,327.021,-79.922,23542.063514
1 Jan 2020 02:54:04.000,328.098,-80.326,23394.582929
1 Jan 2020 02:54:34.000,329.279,-80.743,23253.896905
1 Jan 2020 02:55:04.000,330.580,-81.171,23120.275035
1 Jan 2020 02:55:34.000,332.025,-81.611,22993.978442
1 Jan 2020 02:56:04.000,333.643,-82.060,22875.259525
1 Jan 2020 02:56:34.000,335.468,-82.517,22764.360348
1 Jan 2020 02:57:04.000,337.545,-82.979,22661.512089
1 Jan 2020 02:57:34.000,339.930,-83.443,22566.932811
1 Jan 2020 02:58:04.000,342.695,-83.906,22480.826961
1 Jan 2020 02:58:34.000,345.930,-84.364,22403.383910
1 Jan 2020 02:59:04.000,349.750,-84.810,22334.777344
1 Jan 2020 02:59:34.000,354.296,-85.239,22275.163442
1 Jan 2020 03:00:04.000,359.732,-85.640,22224.680438
1 Jan 2020 03:00:34.000,6.233,-86.001,22183.447545
1 Jan 2020 03:01:04.000,13.939,-86.307,22151.564437
1 Jan 2020 03:01:34.000,22.875,-86.540,22129.110189
1 Jan 2020 03:02:04.000,32.850,-86.682,22116.143033
1 Jan 2020 03:02:34.000,43.393,-86.722,22112.699914
1 Jan 2020 03:03:04.000,53.841,-86.653,22118.796200
1 Jan 2020 03:03:34.000,63.564,-86.484,22134.425613
1 Jan 2020 03:04:04.000,72.165,-86.229,22159.560276
1 Jan 2020 03:04:34.000,79.519,-85.905,22194.150995
1 Jan 2020 03:05:04.000,85.692,-85.531,22238.127274
1 Jan 2020 03:05:34.000,90.840,-85.120,22291.398259
1 Jan 2020 03:06:04.000,95.136,-84.684,22353.853056
1 Jan 2020 03:06:34.000,98.740,-84.232,22425.361685
1 Jan 2020 03:07:04.000,101.785,-83.770,22505.775336
1 Jan 2020 03:07:34.000,104.380,-83.304,22594.928158
1 Jan 2020 03:08:04.000,106.610,-82.837,22692.637725
1 Jan 2020 03:08:34.000,108.541,-82.374,22798.706455
1 Jan 2020 03:09:04.000,110.226,-81.917,22912.921976
1 Jan 2020 03:09:34.000,111.708,-81.467,23035.059436
1 Jan 2020 03:10:04.000,113.018,-81.027,23164.881965
1 Jan 2020 03:10:34.000,114.184,-80.599,23302.142059
1 Jan 2020 03:11:04.000,115.228,-80.183,23446.583074
1 Jan 2020 03:11:34.000,116.166,-79.780,23597.939287
1 Jan 2020 03:12:04.000,117.013,-79.392,23755.938734
1 Jan 2020 03:12:34.000,117.781,-79.019,23920.303232
1 Jan 2020 03:13:04.000,118.480,-78.662,24090.749746
1 Jan 2020 03:13:34.000,119.117,-78.321,24266.991416
1 Jan 2020 03:14:04.000,119.700,-77.996,24448.738883
1 Jan 2020 03:14:34.000,120.236,-77.689,24635.699878
1 Jan 2020 03:15:04.000,120.728,-77.399,24827.582068
1 Jan 2020 03:15:34.000,121.181,-77.126,25024.092546
1 Jan 2020 03:16:04.000,121.599,-76.870,25224.938892
1 Jan 2020 03:16:34.000,121.985,-76.633,25429.829854
1 Jan 2020 03:17:04.000,122.342,-76.412,25638.475952
1 Jan 2020 03:17:34.000,122.672,-76.209,25850.590040
1 Jan 2020 03:18:04.000,122.978,-76.024,26065.887797
1 Jan 2020 03:18:34.000,123.261,-75.855,26284.088530
1 Jan 2020 03:19:04.000,123.523,-75.704,26504.914115
1 Jan 2020 03:19:34.000,123.765,-75.570,26728.091501
1 Jan 2020 03:20:04.000,123.989,-75.452,26953.351561
1 Jan 2020 03:20:34.000,124.196,-75.351,27180.429702
1 Jan 2020 03:21:04.000,124.387,-75.265,27409.066073
1 Jan 2020 03:21:34.000,124.562,-75.196,27639.005740
1 Jan 2020 03:22:04.000,124.723,-75.142,27869.998827
1 Jan 2020 03:22:34.000,124.870,-75.104,28101.800624
1 Jan 2020 03:23:04.000,125.004,-75.080,28334.171677
1 Jan 2020 03:23:34.000,125.125,-75.071,28566.877839
1 Jan 2020 03:23:38.040,125.140,-75.071,28598.231495
1 Jan 2020 04:23:36.835,302.856,-75.063,28594.277600
1 Jan 2020 04:24:06.000,302.266,-75.069,28380.618104
1 Jan 2020 04:24:36.000,301.639,-75.088,28161.704762
1 Jan 2020 04:25:06.000,300.989,-75.120,27943.898255
1 Jan 2020 04:25:36.000,300.316,-75.165,27727.435029
1 Jan 2020 04:26:06.000,299.617,-75.223,27512.555485
1 Jan 2020 04:26:36.000,298.891,-75.295,27299.503808
1 Jan 2020 04:27:06.000,298.135,-75.380,27088.527759
1 Jan 2020 04:27:36.000,297.348,-75.479,26879.878432
1 Jan 2020 04:28:06.000,296.527,-75.591,26673.809983
1 Jan 2020 04:28:36.000,295.669,-75.716,26470.579316
1 Jan 2020 04:29:06.000,294.771,-75.855,26270.445737
1 Jan 2020 04:29:36.000,293.831,-76.006,26073.670561
1 Jan 2020 04:30:06.000,292.845,-76.171,25880.516364
1 Jan 2020 04:30:36.000,291.808,-76.348,25691.247768
1 Jan 2020 04:31:06.000,290.718,-76.537,25506.129012
1 Jan 2020 04:31:36.000,289.570,-76.738,25325.424661
1 Jan 2020 04:32:06.000,288.359,-76.951,25149.398660
1 Jan 2020 04:32:36.000,287.079,-77.174,24978.313677
1 Jan 2020 04:33:06.000,285.725,-77.406,24812.430118
1 Jan 2020 04:33:36.000,284.292,-77.648,24652.006439
1 Jan 2020 04:34:06.000,282.771,-77.899,24497.296740
1 Jan 2020 04:34:36.000,281.156,-78.156,24348.550998
1 Jan 2020 04:35:06.000,279.439,-78.419,24206.013921
1 Jan 2020 04:35:36.000,277.611,-78.687,24069.923813
1 Jan 2020 04:36:06.000,275.665,-78.957,23940.512565
1 Jan 2020 04:36:36.000,273.590,-79.229,23818.003292
1 Jan 2020 04:37:06.000,271.378,-79.500,23702.610317
1 Jan 2020 04:37:36.000,269.020,-79.769,23594.537962
1 Jan 2020 04:38:06.000,266.506,-80.033,23493.979384
1 Jan 2020 04:38:36.000,263.829,-80.289,23401.116447
1 Jan 2020 04:39:06.000,260.981,-80.535,23316.117538
1 Jan 2020 04:39:36.000,257.959,-80.769,23239.137541
1 Jan 2020 04:40:06.000,254.759,-80.986,23170.316643
1 Jan 2020 04:40:36.000,251.385,-81.186,23109.780073
1 Jan 2020 04:41:06.000,247.841,-81.363,23057.636589
1 Jan 2020 04:41:36.000,244.140,-81.517,23013.978382
1 Jan 2020 04:42:06.000,240.299,-81.644,22978.880310
1 Jan 2020 04:42:36.000,236.340,-81.741,22952.399749
1 Jan 2020 04:43:06.000,232.293,-81.808,22934.575751
1 Jan 2020 04:43:36.000,228.188,-81.843,22925.429130
1 Jan 2020 04:44:06.000,224.063,-81.845,22924.962220
1 Jan 2020 04:44:36.000,219.954,-81.814,22933.158923
1 Jan 2020 04:45:06.000,215.897,-81.751,22949.984659
1 Jan 2020 04:45:36.000,211.923,-81.657,22975.386672
1 Jan 2020 04:46:06.000,208.062,-81.534,23009.294350
1 Jan 2020 04:46:36.000,204.335,-81.385,23051.619474
1 Jan 2020 04:47:06.000,200.761,-81.212,23102.256957
1 Jan 2020 04:47:36.000,197.349,-81.017,23161.085311
1 Jan 2020 04:48:06.000,194.107,-80.804,23227.967459
1 Jan 2020 04:48:36.000,191.036,-80.576,23302.751126
1 Jan 2020 04:49:06.000,188.134,-80.335,23385.270202
1 Jan 2020 04:49:36.000,185.395,-80.084,23475.345273
1 Jan 2020 04:50:06.000,182.813,-79.826,23572.784626
1 Jan 2020 04:50:36.000,180.381,-79.563,23677.385382
1 Jan 2020 04:51:06.000,178.088,-79.297,23788.933763
1 Jan 2020 04:51:36.000,175.926,-79.031,23907.207115
1 Jan 2020 04:52:06.000,173.886,-78.766,24031.974218
1 Jan 2020 04:52:36.000,171.958,-78.503,24162.996427
1 Jan 2020 04:53:06.000,170.133,-78.245,24300.028843
1 Jan 2020 04:53:36.000,168.403,-77.992,24442.820451
1 Jan 2020 04:54:06.000,166.761,-77.747,24591.116217
1 Jan 2020 04:54:36.000,165.198,-77.508,24744.657187
1 Jan 2020 04:55:06.000,163.709,-77.279,24903.181514
1 Jan 2020 04:55:36.000,162.286,-77.058,25066.425259
1 Jan 2020 04:56:06.000,160.924,-76.848,25234.123136
1 Jan 2020 04:56:36.000,159.618,-76.648,25406.009490
1 Jan 2020 04:57:06.000,158.362,-76.460,25581.817881
1 Jan 2020 04:57:36.000,157.152,-76.283,25761.283284
1 Jan 2020 04:58:06.000,155.985,-76.117,25944.141594
1 Jan 2020 04:58:36.000,154.855,-75.963,26130.130399
1 Jan 2020 04:59:06.000,153.760,-75.822,26318.989443
1 Jan 2020 04:59:36.000,152.696,-75.693,26510.461051
1 Jan 2020 05:00:06.000,151.660,-75.576,26704.290497
1 Jan 2020 05:00:36.000,150.649,-75.471,26900.226347
1 Jan 2020 05:01:06.000,149.661,-75.378,27098.020751
1 Jan 2020 05:01:36.000,148.693,-75.298,27297.429705
1 Jan 2020 05:02:06.000,147.743,-75.230,27498.213275
1 Jan 2020 05:02:36.000,146.810,-75.174,27700.135788
1 Jan 2020 05:03:06.000,145.889,-75.130,27902.966005
1 Jan 2020 05:03:36.000,144.981,-75.098,28106.477245
1 Jan 2020 05:04:06.000,144.083,-75.077,28310.447509
1 Jan 2020 05:04:36.000,143.193,-75.067,28514.659564
1 Jan 2020 05:04:47.567,142.852,-75.066,28593.415387
1 Jan 2020 06:04:25.511,313.221,-75.064,28592.707093
1 Jan 2020 06:04:55.000,311.900,-75.067,28437.921072
1 Jan 2020 06:05:25.000,310.535,-75.077,28282.542603
1 Jan 2020 06:05:55.000,309.146,-75.093,28129.468255
1 Jan 2020 06:06:25.000,307.732,-75.115,27978.895708
1 Jan 2020 06:06:55.000,306.292,-75.142,27831.022379
1 Jan 2020 06:07:25.000,304.825,-75.176,27686.045060
1 Jan 2020 06:07:55.000,303.329,-75.214,27544.159551
1 Jan 2020 06:08:25.000,301.803,-75.258,27405.560256
1 Jan 2020 06:08:55.000,300.246,-75.306,27270.439777
1 Jan 2020 06:09:25.000,298.657,-75.358,27138.988477
1 Jan 2020 06:09:55.000,297.035,-75.415,27011.393824
1 Jan 2020 06:10:25.000,295.379,-75.474,26887.840760
1 Jan 2020 06:10:55.000,293.688,-75.537,26768.509963
1 Jan 2020 06:11:25.000,291.961,-75.602,26653.578201
1 Jan 2020 06:11:55.000,290.198,-75.669,26543.217615
1 Jan 2020 06:12:25.000,288.398,-75.737,26437.595214
1 Jan 2020 06:12:55.000,286.562,-75.806,26336.872362
1 Jan 2020 06:13:25.000,284.689,-75.875,26241.204097
1 Jan 2020 06:13:55.000,282.779,-75.944,26150.739285
1 Jan 2020 06:14:25.000,280.833,-76.012,26065.619107
1 Jan 2020 06:14:55.000,278.852,-76.078,25985.977235
1 Jan 2020 06:15:25.000,276.835,-76.142,25911.939186
1 Jan 2020 06:15:55.000,274.786,-76.203,25843.621844
1 Jan 2020 06:16:25.000,272.705,-76.260,25781.132910
1 Jan 2020 06:16:55.000,270.594,-76.314,25724.570932
1 Jan 2020 06:17:25.000,268.455,-76.363,25674.024218
1 Jan 2020 06:17:55.000,266.291,-76.407,25629.570947
1 Jan 2020 06:18:25.000,264.104,-76.446,25591.278728
1 Jan 2020 06:18:55.000,261.897,-76.479,25559.204255
1 Jan 2020 06:19:25.000,259.674,-76.506,25533.393305
1 Jan 2020 06:19:55.000,257.438,-76.527,25513.880169
1 Jan 2020 06:20:25.000,255.192,-76.541,25500.687758
1 Jan 2020 06:20:55.000,252.940,-76.548,25493.827435
1 Jan 2020 06:21:25.000,250.685,-76.549,25493.298952
1 Jan 2020 06:21:55.000,248.432,-76.543,25499.090500
1 Jan 2020 06:22:25.000,246.184,-76.530,25511.178664
1 Jan 2020 06:22:55.000,243.944,-76.510,25529.528597
1 Jan 2020 06:23:25.000,241.717,-76.484,25554.094141
1 Jan 2020 06:23:55.000,239.504,-76.453,25584.818065
1 Jan 2020 06:24:25.000,237.310,-76.415,25621.632165
1 Jan 2020 06:24:55.000,235.138,-76.372,25664.457738
1 Jan 2020 06:25:25.000,232.988,-76.324,25713.205791
1 Jan 2020 06:25:55.000,230.865,-76.272,25767.777426
1 Jan 2020 06:26:25.000,228.770,-76.216,25828.064237
1 Jan 2020 06:26:55.000,226.705,-76.157,25893.948830
1 Jan 2020 06:27:25.000,224.671,-76.095,25965.304892
1 Jan 2020 06:27:55.000,222.669,-76.030,26041.998224
1 Jan 2020 06:28:25.000,220.700,-75.964,26123.886865
1 Jan 2020 06:28:55.000,218.765,-75.897,26210.821688
1 Jan 2020 06:29:25.000,216.864,-75.829,26302.646912
1 Jan 2020 06:29:55.000,214.996,-75.762,26399.200627
1 Jan 2020 06:30:25.000,213.163,-75.695,26500.315464
1 Jan 2020 06:30:55.000,211.364,-75.629,26605.818522
1 Jan 2020 06:31:25.000,209.597,-75.565,26715.532776
1 Jan 2020 06:31:55.000,207.863,-75.503,26829.277001
1 Jan 2020 06:32:25.000,206.160,-75.444,26946.866423
1 Jan 2020 06:32:55.000,204.489,-75.388,27068.113205
1 Jan 2020 06:33:25.000,202.847,-75.335,27192.826929
1 Jan 2020 06:33:55.000,201.234,-75.286,27320.815052
1 Jan 2020 06:34:25.000,199.648,-75.241,27451.883355
1 Jan 2020 06:34:55.000,198.089,-75.200,27585.836545
1 Jan 2020 06:35:25.000,196.555,-75.165,27722.477937
1 Jan 2020 06:35:55.000,195.044,-75.134,27861.610924
1 Jan 2020 06:36:25.000,193.556,-75.109,28003.038622
1 Jan 2020 06:36:55.000,192.089,-75.089,28146.564394
1 Jan 2020 06:37:25.000,190.642,-75.074,28291.992171
1 Jan 2020 06:37:55.000,189.214,-75.065,28439.126756
1 Jan 2020 06:38:25.000,187.802,-75.062,28587.774102
1 Jan 2020 06:38:26.031,187.754,-75.062,28592.906926
1 Jan 2020 07:36:27.965,0.239,-75.070,28595.901722
1 Jan 2020 07:36:57.000,358.908,-75.073,28446.450760
1 Jan 2020 07:37:27.000,357.518,-75.082,28293.278377
1 Jan 2020 07:37:57.000,356.110,-75.097,28141.567344
1 Jan 2020 07:38:27.000,354.682,-75.119,27991.516478
1 Jan 2020 07:38:57.000,353.234,-75.146,27843.326110
1 Jan 2020 07:39:27.000,351.764,-75.180,27697.197805
1 Jan 2020 07:39:57.000,350.270,-75.218,27553.334065
1 Jan 2020 07:40:27.000,348.752,-75.263,27411.938007
1 Jan 2020 07:40:57.000,347.206,-75.312,27273.213018
1 Jan 2020 07:41:27.000,345.633,-75.367,27137.362385
1 Jan 2020 07:41:57.000,344.030,-75.426,27004.588910
1 Jan 2020 07:42:27.000,342.396,-75.489,26875.094493
1 Jan 2020 07:42:57.000,340.730,-75.556,26749.079523
1 Jan 2020 07:43:27.000,339.030,-75.626,26626.743120
1 Jan 2020 07:43:57.000,337.296,-75.699,26508.281604
1 Jan 2020 07:44:27.000,335.527,-75.775,26393.888709
1 Jan 2020 07:44:57.000,333.720,-75.853,26283.754890
1 Jan 2020 07:45:27.000,331.877,-75.932,26178.066793
1 Jan 2020 07:45:57.000,329.996,-76.012,26077.006721
1 Jan 2020 07:46:27.000,328.076,-76.091,25980.751951
1 Jan 2020 07:46:57.000,326.118,-76.171,25889.474690
1 Jan 2020 07:47:27.000,324.122,-76.249,25803.340738
1 Jan 2020 07:47:57.000,322.088,-76.326,25722.509451
1 Jan 2020 07:48:27.000,320.017,-76.400,25647.133050
1 Jan 2020 07:48:57.000,317.909,-76.471,25577.356073
1 Jan 2020 07:49:27.000,315.767,-76.538,25513.314761
1 Jan 2020 07:49:57.000,313.592,-76.600,25455.136859
1 Jan 2020 07:50:27.000,311.385,-76.658,25402.940620
1 Jan 2020 07:50:57.000,309.151,-76.710,25356.834672
1 Jan 2020 07:51:27.000,306.891,-76.756,25316.917486
1 Jan 2020 07:51:57.000,304.608,-76.795,25283.276942
1 Jan 2020 07:52:27.000,302.306,-76.828,25255.990078
1 Jan 2020 07:52:57.000,299.989,-76.853,25235.122564
1 Jan 2020 07:53:27.000,297.661,-76.870,25220.728559
1 Jan 2020 07:53:57.000,295.326,-76.880,25212.850441
1 Jan 2020 07:54:27.000,292.988,-76.881,25211.518637
1 Jan 2020 07:54:57.000,290.652,-76.875,25216.751424
1 Jan 2020 07:55:27.000,288.322,-76.860,25228.554944
1 Jan 2020 07:55:57.000,286.002,-76.838,25246.923127
1 Jan 2020 07:56:27.000,283.696,-76.808,25271.837734
1 Jan 2020 07:56:57.000,281.409,-76.771,25303.268518
1 Jan 2020 07:57:27.000,279.145,-76.727,25341.173082
1 Jan 2020 07:57:57.000,276.906,-76.676,25385.497479
1 Jan 2020 07:58:27.000,274.696,-76.619,25436.176190
1 Jan 2020 07:58:57.000,272.518,-76.557,25493.132478
1 Jan 2020 07:59:27.000,270.374,-76.490,25556.278835
1 Jan 2020 07:59:57.000,268.267,-76.419,25625.516908
1 Jan 2020 08:00:27.000,266.198,-76.344,25700.738566
1 Jan 2020 08:00:57.000,264.168,-76.266,25781.825912
1 Jan 2020 08:01:27.000,262.179,-76.186,25868.651863
1 Jan 2020 08:01:57.000,260.232,-76.105,25961.080641
1 Jan 2020 08:02:27.000,258.327,-76.023,26058.968464
1 Jan 2020 08:02:57.000,256.463,-75.940,26162.163377
1 Jan 2020 08:03:27.000,254.642,-75.859,26270.506828
1 Jan 2020 08:03:57.000,252.862,-75.778,26383.833533
1 Jan 2020 08:04:27.000,251.123,-75.699,26501.972192
1 Jan 2020 08:04:57.000,249.424,-75.623,26624.746038
1 Jan 2020 08:05:27.000,247.765,-75.550,26751.973379
1 Jan 2020 08:05:57.000,246.144,-75.480,26883.468351
1 Jan 2020 08:06:27.000,244.560,-75.414,27019.040587
1 Jan 2020 08:06:57.000,243.013,-75.353,27158.497003
1 Jan 2020 08:07:27.000,241.500,-75.296,27301.641452
1 Jan 2020 08:07:57.000,240.021,-75.245,27448.275409
1 Jan 2020 08:08:27.000,238.574,-75.200,27598.198439
1 Jan 2020 08:08:57.000,237.157,-75.161,27751.208631
1 Jan 2020 08:09:27.000,235.770,-75.128,27907.103021
1 Jan 2020 08:09:57.000,234.411,-75.102,28065.677988
1 Jan 2020 08:10:27.000,233.077,-75.082,28226.729633
1 Jan 2020 08:10:57.000,231.769,-75.069,28390.054128
1 Jan 2020 08:11:27.000,230.484,-75.064,28555.448052
1 Jan 2020 08:11:34.443,230.169,-75.064,28596.780955
1 Jan 2020 09:11:23.028,41.014,-75.074,28601.843585
1 Jan 2020 09:11:53.000,40.249,-75.080,28389.994451
1 Jan 2020 09:12:23.000,39.477,-75.098,28178.022459
1 Jan 2020 09:12:53.000,38.699,-75.129,27966.345753
1 Jan 2020 09:13:23.000,37.912,-75.172,27755.188153
1 Jan 2020 09:13:53.000,37.114,-75.228,27544.778522
1 Jan 2020 09:14:23.000,36.305,-75.297,27335.350693
1 Jan 2020 09:14:53.000,35.481,-75.379,27127.143358
1 Jan 2020 09:15:23.000,34.642,-75.475,26920.399936
1 Jan 2020 09:15:53.000,33.784,-75.584,26715.368414
1 Jan 2020 09:16:23.000,32.905,-75.707,26512.301156
1 Jan 2020 09:16:53.000,32.003,-75.843,26311.454670
1 Jan 2020 09:17:23.000,31.075,-75.994,26113.089351
1 Jan 2020 09:17:53.000,30.117,-76.158,25917.469175
1 Jan 2020 09:18:23.000,29.127,-76.336,25724.861352
1 Jan 2020 09:18:53.000,28.100,-76.528,25535.535938
1 Jan 2020 09:19:23.000,27.033,-76.733,25349.765113
1 Jan 2020 09:19:53.000,25.921,-76.951,25167.823829
1 Jan 2020 09:20:23.000,24.758,-77.182,24989.987560
1 Jan 2020 09:20:53.000,23.540,-77.426,24816.532854
1 Jan 2020 09:21:23.000,22.260,-77.682,24647.736406
1 Jan 2020 09:21:53.000,20.912,-77.949,24483.874353
1 Jan 2020 09:22:23.000,19.487,-78.227,24325.221523
1 Jan 2020 09:22:53.000,17.977,-78.515,24172.050375
1 Jan 2020 09:23:23.000,16.372,-78.812,24024.631176
1 Jan 2020 09:23:53.000,14.663,-79.116,23883.229529
1 Jan 2020 09:24:23.000,12.837,-79.427,23748.106482
1 Jan 2020 09:24:53.000,10.881,-79.742,23619.517273
1 Jan 2020 09:25:23.000,8.781,-80.061,23497.710128
1 Jan 2020 09:25:53.000,6.523,-80.381,23382.925963
1 Jan 2020 09:26:23.000,4.088,-80.699,23275.396180
1 Jan 2020 09:26:53.000,1.461,-81.014,23175.342369
1 Jan 2020 09:27:23.000,358.623,-81.322,23082.974919
1 Jan 2020 09:27:53.000,355.558,-81.620,22998.492462
1 Jan 2020 09:28:23.000,352.250,-81.905,22922.080067
1 Jan 2020 09:28:53.000,348.687,-82.172,22853.908775
1 Jan 2020 09:29:23.000,344.860,-82.418,22794.134434
1 Jan 2020 09:29:53.000,340.772,-82.639,22742.897134
1 Jan 2020 09:30:23.000,336.430,-82.829,22700.319888
1 Jan 2020 09:30:53.000,331.858,-82.985,22666.508253
1 Jan 2020 09:31:23.000,327.090,-83.104,22641.549581
1 Jan 2020 09:31:53.000,322.176,-83.181,22625.512576
1 Jan 2020 09:32:23.000,317.175,-83.216,22618.446715
1 Jan 2020 09:32:53.000,312.155,-83.206,22620.382068
1 Jan 2020 09:33:23.000,307.186,-83.153,22631.329127
1 Jan 2020 09:33:53.000,302.331,-83.057,22651.278582
1 Jan 2020 09:34:23.000,297.648,-82.920,22680.201625
1 Jan 2020 09:34:53.000,293.181,-82.748,22718.050007
1 Jan 2020 09:35:23.000,288.960,-82.542,22764.756495
1 Jan 2020 09:35:53.000,285.003,-82.308,22820.234889
1 Jan 2020 09:36:23.000,281.316,-82.049,22884.381170
1 Jan 2020 09:36:53.000,277.895,-81.770,22957.073759
1 Jan 2020 09:37:23.000,274.733,-81.476,23038.174508
1 Jan 2020 09:37:53.000,271.814,-81.169,23127.528887
1 Jan 2020 09:38:23.000,269.123,-80.853,23224.967801
1 Jan 2020 09:38:53.000,266.643,-80.531,23330.307927
1 Jan 2020 09:39:23.000,264.355,-80.207,23443.353054
1 Jan 2020 09:39:53.000,262.244,-79.882,23563.894330
1 Jan 2020 09:40:23.000,260.292,-79.559,23691.712451
1 Jan 2020 09:40:53.000,258.486,-79.240,23826.577969
1 Jan 2020 09:41:23.000,256.812,-78.927,23968.252530
1 Jan 2020 09:41:53.000,255.256,-78.621,24116.490190
1 Jan 2020 09:42:23.000,253.809,-78.323,24271.037370
1 Jan 2020 09:42:53.000,252.460,-78.035,24431.635443
1 Jan 2020 09:43:23.000,251.199,-77.757,24598.020656
1 Jan 2020 09:43:53.000,250.020,-77.491,24769.925307
1 Jan 2020 09:44:23.000,248.913,-77.237,24947.078636
1 Jan 2020 09:44:53.000,247.874,-76.996,25129.207954
1 Jan 2020 09:45:23.000,246.897,-76.768,25316.038224
1 Jan 2020 09:45:53.000,245.975,-76.553,25507.294595
1 Jan 2020 09:46:23.000,245.104,-76.353,25702.701887
1 Jan 2020 09:46:53.000,244.281,-76.167,25901.985511
1 Jan 2020 09:47:23.000,243.501,-75.996,26104.872048
1 Jan 2020 09:47:53.000,242.761,-75.839,26311.089767
1 Jan 2020 09:48:23.000,242.058,-75.697,26520.369100
1 Jan 2020 09:48:53.000,241.389,-75.569,26732.443067
1 Jan 2020 09:49:23.000,240.752,-75.456,26947.047652
1 Jan 2020 09:49:53.000,240.143,-75.358,27163.922142
1 Jan 2020 09:50:23.000,239.563,-75.275,27382.809772
1 Jan 2020 09:50:53.000,239.007,-75.205,27603.456564
1 Jan 2020 09:51:23.000,238.475,-75.150,27825.613672
1 Jan 2020 09:51:53.000,237.964,-75.110,28049.036155
1 Jan 2020 09:52:23.000,237.475,-75.083,28273.483484
1 Jan 2020 09:52:53.000,237.004,-75.070,28498.719674
1 Jan 2020 09:53:06.950,236.791,-75.068,28603.658374
1 Jan 2020 10:53:07.174,55.909,-75.077,28608.251889
1 Jan 2020 10:53:37.000,56.181,-75.084,28379.028020
1 Jan 2020 10:54:07.000,56.470,-75.105,28148.922514
1 Jan 2020 10:54:37.000,56.775,-75.141,27919.506411
1 Jan 2020 10:55:07.000,57.098,-75.192,27691.019062
1 Jan 2020 10:55:37.000,57.439,-75.258,27463.704796
1 Jan 2020 10:56:07.000,57.800,-75.339,27237.812823
1 Jan 2020 10:56:37.000,58.182,-75.436,27013.597094
1 Jan 2020 10:57:07.000,58.586,-75.548,26791.316144
1 Jan 2020 10:57:37.000,59.015,-75.676,26571.232887
1 Jan 2020 10:58:07.000,59.470,-75.821,26353.614389
1 Jan 2020 10:58:37.000,59.953,-75.981,26138.731590
1 Jan 2020 10:59:07.000,60.466,-76.158,25926.858989
1 Jan 2020 10:59:37.000,61.013,-76.352,25718.274282
1 Jan 2020 11:00:07.000,61.595,-76.561,25513.257624
1 Jan 2020 11:00:37.000,62.217,-76.787,25312.092475
1 Jan 2020 11:01:07.000,62.883,-77.029,25115.063115
1 Jan 2020 11:01:37.000,63.596,-77.287,24922.455388
1 Jan 2020 11:02:07.000,64.362,-77.561,24734.555742
1 Jan 2020 11:02:37.000,65.186,-77.850,24551.650543
1 Jan 2020 11:03:07.000,66.074,-78.154,24374.025039
1 Jan 2020 11:03:37.000,67.035,-78.472,24201.963695
1 Jan 2020 11:04:07.000,68.076,-78.805,24035.747609
1 Jan 2020 11:04:37.000,69.208,-79.150,23875.654746
1 Jan 2020 11:05:07.000,70.442,-79.508,23721.958674
1 Jan 2020 11:05:37.000,71.792,-79.876,23574.927293
1 Jan 2020 11:06:07.000,73.274,-80.255,23434.822788
1 Jan 2020 11:06:37.000,74.906,-80.641,23301.898990
1 Jan 2020 11:07:07.000,76.709,-81.035,23176.401288
1 Jan 2020 11:07:37.000,78.710,-81.432,23058.565033
1 Jan 2020 11:08:07.000,80.938,-81.832,22948.615158
1 Jan 2020 11:08:37.000,83.427,-82.231,22846.763853
1 Jan 2020 11:09:07.000,86.217,-82.625,22753.210232
1 Jan 2020 11:09:37.000,89.352,-83.012,22668.138875
1 Jan 2020 11:10:07.000,92.881,-83.385,22591.719393
1 Jan 2020 11:10:37.000,96.854,-83.740,22524.104467
1 Jan 2020 11:11:07.000,101.319,-84.071,22465.429574
1 Jan 2020 11:11:37.000,106.314,-84.369,22415.811871
1 Jan 2020 11:12:07.000,111.855,-84.627,22375.349853
1 Jan 2020 11:12:37.000,117.922,-84.836,22344.122080
1 Jan 2020 11:13:07.000,124.449,-84.989,22322.187086
1 Jan 2020 11:13:37.000,131.314,-85.080,22309.582847
1 Jan 2020 11:14:07.000,138.346,-85.104,22306.326650
1 Jan 2020 11:14:37.000,145.348,-85.059,22312.414735
1 Jan 2020 11:15:07.000,152.127,-84.949,22327.822488
1 Jan 2020 11:15:37.000,158.529,-84.778,22352.504586
1 Jan 2020 11:16:07.000,164.448,-84.554,22386.395144
1 Jan 2020 11:16:37.000,169.835,-84.284,22429.408337
1 Jan 2020 11:17:07.000,174.686,-83.977,22481.438836
1 Jan 2020 11:17:37.000,179.023,-83.641,22542.362610
1 Jan 2020 11:18:07.000,182.891,-83.282,22612.037294
1 Jan 2020 11:18:37.000,186.337,-82.907,22690.303650
1 Jan 2020 11:19:07.000,189.412,-82.521,22776.986141
1 Jan 2020 11:19:37.000,192.164,-82.128,22871.894203
1 Jan 2020 11:20:07.000,194.635,-81.732,22974.822717
1 Jan 2020 11:20:37.000,196.864,-81.337,23085.554013
1 Jan 2020 11:21:07.000,198.882,-80.944,23203.858447
1 Jan 2020 11:21:37.000,200.719,-80.557,23329.495694
1 Jan 2020 11:22:07.000,202.399,-80.176,23462.216159
1 Jan 2020 11:22:37.000,203.942,-79.805,23601.761178
1 Jan 2020 11:23:07.000,205.365,-79.443,23747.865559
1 Jan 2020 11:23:37.000,206.685,-79.093,23900.257758
1 Jan 2020 11:24:07.000,207.914,-78.755,24058.661181
1 Jan 2020 11:24:37.000,209.062,-78.430,24222.795204
1 Jan 2020 11:25:07.000,210.141,-78.119,24392.376436
1 Jan 2020 11:25:37.000,211.157,-77.822,24567.118485
1 Jan 2020 11:26:07.000,212.119,-77.540,24746.734543
1 Jan 2020 11:26:37.000,213.033,-77.273,24930.937053
1 Jan 2020 11:27:07.000,213.903,-77.021,25119.438733
1 Jan 2020 11:27:37.000,214.736,-76.785,25311.953263
1 Jan 2020 11:28:07.000,215.535,-76.564,25508.195909
1 Jan 2020 11:28:37.000,216.304,-76.359,25707.884092
1 Jan 2020 11:29:07.000,217.046,-76.170,25910.737895
1 Jan 2020 11:29:37.000,217.766,-75.996,26116.480851
1 Jan 2020 11:30:07.000,218.465,-75.838,26324.839032
1 Jan 2020 11:30:37.000,219.146,-75.696,26535.543370
1 Jan 2020 11:31:07.000,219.811,-75.568,26748.328659
1 Jan 2020 11:31:37.000,220.462,-75.456,26962.934149
1 Jan 2020 11:32:07.000,221.102,-75.359,27179.103770
1 Jan 2020 11:32:37.000,221.731,-75.277,27396.586324
1 Jan 2020 11:33:07.000,222.352,-75.209,27615.135639
1 Jan 2020 11:33:37.000,222.967,-75.155,27834.510696
1 Jan 2020 11:34:07.000,223.576,-75.115,28054.475727
1 Jan 2020 11:34:37.000,224.180,-75.088,28274.800287
1 Jan 2020 11:35:07.000,224.782,-75.075,28495.259304
1 Jan 2020 11:35:22.552,225.094,-75.073,28609.525824
1 Jan 2020 12:35:18.912,53.270,-75.077,28611.415063
1 Jan 2020 12:35:48.000,54.413,-75.081,28439.116988
1 Jan 2020 12:36:18.000,55.616,-75.093,28263.231515
1 Jan 2020 12:36:48.000,56.843,-75.114,28089.397430
1 Jan 2020 12:37:18.000,58.098,-75.142,27917.827193
1 Jan 2020 12:37:48.000,59.382,-75.179,27748.734126
1 Jan 2020 12:38:18.000,60.695,-75.223,27582.332092
1 Jan 2020 12:38:48.000,62.041,-75.274,27418.835130
1 Jan 2020 12:39:18.000,63.421,-75.332,27258.457081
1 Jan 2020 12:39:48.000,64.836,-75.398,27101.411177
1 Jan 2020 12:40:18.000,66.289,-75.469,26947.909614
1 Jan 2020 12:40:48.000,67.780,-75.547,26798.162849
1 Jan 2020 12:41:18.000,69.312,-75.629,26652.380086
1 Jan 2020 12:41:48.000,70.887,-75.717,26510.767320
1 Jan 2020 12:42:18.000,72.505,-75.810,26373.527780
1 Jan 2020 12:42:48.000,74.169,-75.906,26240.861141
1 Jan 2020 12:43:18.000,75.880,-76.005,26112.962959
1 Jan 2020 12:43:48.000,77.639,-76.107,25990.024089
1 Jan 2020 12:44:18.000,79.448,-76.211,25872.229884
1 Jan 2020 12:44:48.000,81.306,-76.315,25759.760445
1 Jan 2020 12:45:18.000,83.216,-76.420,25652.788722
1 Jan 2020 12:45:48.000,85.177,-76.525,25551.480774
1 Jan 2020 12:46:18.000,87.189,-76.628,25455.994948
1 Jan 2020 12:46:48.000,89.252,-76.728,25366.481275
1 Jan 2020 12:47:18.000,91.365,-76.826,25283.080729
1 Jan 2020 12:47:48.000,93.527,-76.920,25205.925313
1 Jan 2020 12:48:18.000,95.737,-77.008,25135.136515
1 Jan 2020 12:48:48.000,97.993,-77.092,25070.825465
1 Jan 2020 12:49:18.000,100.291,-77.168,25013.092286
1 Jan 2020 12:49:48.000,102.629,-77.238,24962.025542
1 Jan 2020 12:50:18.000,105.003,-77.299,24917.702247
1 Jan 2020 12:50:48.000,107.408,-77.352,24880.186883
1 Jan 2020 12:51:18.000,109.841,-77.396,24849.531522
1 Jan 2020 12:51:48.000,112.296,-77.431,24825.775469
1 Jan 2020 12:52:18.000,114.769,-77.455,24808.945024
1 Jan 2020 12:52:48.000,117.252,-77.470,24799.053543
1 Jan 2020 12:53:18.000,119.742,-77.474,24796.101065
1 Jan 2020 12:53:48.000,122.231,-77.468,24800.074517
1 Jan 2020 12:54:18.000,124.714,-77.452,24810.947716
1 Jan 2020 12:54:48.000,127.186,-77.427,24828.681498
1 Jan 2020 12:55:18.000,129.641,-77.391,24853.223860
1 Jan 2020 12:55:48.000,132.075,-77.346,24884.510238
1 Jan 2020 12:56:18.000,134.481,-77.293,24922.463787
1 Jan 2020 12:56:48.000,136.857,-77.231,24966.995731
1 Jan 2020 12:57:18.000,139.199,-77.162,25018.005821
1 Jan 2020 12:57:48.000,141.503,-77.086,25075.382533
1 Jan 2020 12:58:18.000,143.766,-77.004,25139.003908
1 Jan 2020 12:58:48.000,145.986,-76.916,25208.737838
1 Jan 2020 12:59:18.000,148.162,-76.825,25284.442676
1 Jan 2020 12:59:48.000,150.292,-76.729,25365.967804
1 Jan 2020 13:00:18.000,152.376,-76.631,25453.154363
1 Jan 2020 13:00:48.000,154.413,-76.531,25545.835342
1 Jan 2020 13:01:18.000,156.403,-76.430,25643.836959
1 Jan 2020 13:01:48.000,158.346,-76.328,25746.978783
1 Jan 2020 13:02:18.000,160.244,-76.226,25855.074487
1 Jan 2020 13:02:48.000,162.097,-76.126,25967.932459
1 Jan 2020 13:03:18.000,163.906,-76.028,26085.356418
1 Jan 2020 13:03:48.000,165.672,-75.932,26207.146192
1 Jan 2020 13:04:18.000,167.397,-75.838,26333.097592
1 Jan 2020 13:04:48.000,169.082,-75.749,26463.004034
1 Jan 2020 13:05:18.000,170.730,-75.663,26596.656392
1 Jan 2020 13:05:48.000,172.341,-75.582,26733.843692
1 Jan 2020 13:06:18.000,173.918,-75.506,26874.353619
1 Jan 2020 13:06:48.000,175.462,-75.436,27017.972989
1 Jan 2020 13:07:18.000,176.975,-75.371,27164.488205
1 Jan 2020 13:07:48.000,178.459,-75.312,27313.685677
1 Jan 2020 13:08:18.000,179.916,-75.259,27465.352225
1 Jan 2020 13:08:48.000,181.347,-75.212,27619.275451
1 Jan 2020 13:09:18.000,182.754,-75.173,27775.244301
1 Jan 2020 13:09:48.000,184.139,-75.140,27933.048516
1 Jan 2020 13:10:18.000,185.503,-75.114,28092.480230
1 Jan 2020 13:10:48.000,186.849,-75.094,28253.333373
1 Jan 2020 13:11:18.000,188.178,-75.082,28415.404137
1 Jan 2020 13:11:48.000,189.492,-75.077,28578.491195
1 Jan 2020 13:11:54.041,189.755,-75.077,28611.434770
1 Jan 2020 14:10:10.594,17.751,-75.073,28609.586724
1 Jan 2020 14:10:40.000,19.162,-75.075,28468.509916
1 Jan 2020 14:11:10.000,20.619,-75.083,28326.336514
1 Jan 2020 14:11:40.000,22.095,-75.097,28186.125547
1 Jan 2020 14:12:10.000,23.592,-75.115,28048.068404
1 Jan 2020 14:12:40.000,25.110,-75.139,27912.356668
1 Jan 2020 14:13:10.000,26.652,-75.167,27779.181796
1 Jan 2020 14:13:40.000,28.217,-75.199,27648.734768
1 Jan 2020 14:14:10.000,29.807,-75.236,27521.205728
1 Jan 2020 14:14:40.000,31.424,-75.277,27396.783601
1 Jan 2020 14:15:10.000,33.067,-75.321,27275.655687
1 Jan 2020 14:15:40.000,34.739,-75.368,27158.007250
1 Jan 2020 14:16:10.000,36.439,-75.418,27044.020920
1 Jan 2020 14:16:40.000,38.169,-75.471,26933.876899
1 Jan 2020 14:17:10.000,39.928,-75.525,26827.751508
1 Jan 2020 14:17:40.000,41.718,-75.581,26725.817383
1 Jan 2020 14:18:10.000,43.539,-75.639,26628.242824
1 Jan 2020 14:18:40.000,45.391,-75.696,26535.191309
1 Jan 2020 14:19:10.000,47.274,-75.754,26446.820999
1 Jan 2020 14:19:40.000,49.188,-75.812,26363.284137
1 Jan 2020 14:20:10.000,51.132,-75.868,26284.727012
1 Jan 2020 14:20:40.000,53.105,-75.923,26211.288774
1 Jan 2020 14:21:10.000,55.107,-75.976,26143.101433
1 Jan 2020 14:21:40.000,57.137,-76.026,26080.289272
1 Jan 2020 14:22:10.000,59.192,-76.074,26022.968399
1 Jan 2020 14:22:40.000,61.272,-76.118,25971.246252
1 Jan 2020 14:23:10.000,63.375,-76.158,25925.221466
1 Jan 2020 14:23:40.000,65.498,-76.194,25884.983067
1 Jan 2020 14:24:10.000,67.639,-76.225,25850.610422
1 Jan 2020 14:24:40.000,69.796,-76.252,25822.172838
1 Jan 2020 14:25:10.000,71.965,-76.273,25799.729290
1 Jan 2020 14:25:40.000,74.144,-76.288,25783.328164
1 Jan 2020 14:26:10.000,76.330,-76.298,25773.007121
1 Jan 2020 14:26:40.000,78.520,-76.302,25768.792831
1 Jan 2020 14:27:10.000,80.710,-76.300,25770.700949
1 Jan 2020 14:27:40.000,82.898,-76.293,25778.736023
1 Jan 2020 14:28:10.000,85.079,-76.280,25792.891511
1 Jan 2020 14:28:40.000,87.252,-76.261,25813.149685
1 Jan 2020 14:29:10.000,89.412,-76.237,25839.481879
1 Jan 2020 14:29:40.000,91.558,-76.207,25871.848505
1 Jan 2020 14:30:10.000,93.686,-76.173,25910.199243
1 Jan 2020 14:30:40.000,95.794,-76.134,25954.473246
1 Jan 2020 14:31:10.000,97.879,-76.091,26004.599488
1 Jan 2020 14:31:40.000,99.940,-76.045,26060.496672
1 Jan 2020 14:32:10.000,101.974,-75.995,26122.074107
1 Jan 2020 14:32:40.000,103.980,-75.942,26189.231698
1 Jan 2020 14:33:10.000,105.957,-75.887,26261.860422
1 Jan 2020 14:33:40.000,107.904,-75.831,26339.842734
1 Jan 2020 14:34:10.000,109.819,-75.773,26423.053135
1 Jan 2020 14:34:40.000,111.702,-75.715,26511.358081
1 Jan 2020 14:35:10.000,113.553,-75.656,26604.617241
1 Jan 2020 14:35:40.000,115.371,-75.598,26702.683455
1 Jan 2020 14:36:10.000,117.156,-75.541,26805.403337
1 Jan 2020 14:36:40.000,118.909,-75.485,26912.617765
1 Jan 2020 14:37:10.000,120.630,-75.431,27024.162369
1 Jan 2020 14:37:40.000,122.319,-75.380,27139.868189
1 Jan 2020 14:38:10.000,123.977,-75.331,27259.561461
1 Jan 2020 14:38:40.000,125.605,-75.286,27383.065128
1 Jan 2020 14:39:10.000,127.203,-75.244,27510.198614
1 Jan 2020 14:39:40.000,128.773,-75.206,27640.778451
1 Jan 2020 14:40:10.000,130.315,-75.172,27774.618715
1 Jan 2020 14:40:40.000,131.831,-75.144,27911.531450
1 Jan 2020 14:41:10.000,133.320,-75.120,28051.327079
1 Jan 2020 14:41:40.000,134.786,-75.101,28193.814791
1 Jan 2020 14:42:10.000,136.228,-75.088,28338.802916
1 Jan 2020 14:42:40.000,137.649,-75.080,28486.099280
1 Jan 2020 14:43:04.704,138.803,-75.078,28608.992048
1 Jan 2020 15:42:26.518,328.558,-75.067,28604.330297
1 Jan 2020 15:42:56.000,329.564,-75.072,28414.145475
1 Jan 2020 15:43:26.000,330.598,-75.087,28220.922273
1 Jan 2020 15:43:56.000,331.644,-75.112,28028.216254
1 Jan 2020 15:44:26.000,332.704,-75.147,27836.242856
1 Jan 2020 15:44:56.000,333.779,-75.193,27645.221735
1 Jan 2020 15:45:26.000,334.873,-75.249,27455.376633
1 Jan 2020 15:45:56.000,335.986,-75.316,27266.935215
1 Jan 2020 15:46:26.000,337.122,-75.393,27080.128888
1 Jan 2020 15:46:56.000,338.282,-75.481,26895.192585
1 Jan 2020 15:47:26.000,339.469,-75.579,26712.364524
1 Jan 2020 15:47:56.000,340.686,-75.688,26531.885931
1 Jan 2020 15:48:26.000,341.936,-75.807,26354.000734
1 Jan 2020 15:48:56.000,343.222,-75.936,26178.955214
1 Jan 2020 15:49:26.000,344.546,-76.075,26006.997626
1 Jan 2020 15:49:56.000,345.913,-76.223,25838.377776
1 Jan 2020 15:50:26.000,347.326,-76.381,25673.346306
1 Jan 2020 15:50:56.000,348.788,-76.547,25512.155215
1 Jan 2020 15:51:26.000,350.305,-76.721,25355.055770
1 Jan 2020 15:51:56.000,351.879,-76.903,25202.298957
1 Jan 2020 15:52:26.000,353.516,-77.091,25054.134590
1 Jan 2020 15:52:56.000,355.220,-77.286,24910.810649
1 Jan 2020 15:53:26.000,356.997,-77.485,24772.572569
1 Jan 2020 15:53:56.000,358.850,-77.689,24639.662294
1 Jan 2020 15:54:26.000,0.785,-77.896,24512.318330
1 Jan 2020 15:54:56.000,2.808,-78.104,24390.773676
1 Jan 2020 15:55:26.000,4.922,-78.313,24275.255843
1 Jan 2020 15:55:56.000,7.134,-78.521,24165.985780
1 Jan 2020 15:56:26.000,9.446,-78.727,24063.176874
1 Jan 2020 15:56:56.000,11.863,-78.928,23967.034629
1 Jan 2020 15:57:26.000,14.388,-79.123,23877.754929
1 Jan 2020 15:57:56.000,17.023,-79.310,23795.523753
1 Jan 2020 15:58:26.000,19.768,-79.488,23720.516165
1 Jan 2020 15:58:56.000,22.621,-79.653,23652.895393
1 Jan 2020 15:59:26.000,25.580,-79.805,23592.812405
1 Jan 2020 15:59:56.000,28.640,-79.942,23540.404561
1 Jan 2020 16:00:26.000,31.792,-80.061,23495.795312
1 Jan 2020 16:00:56.000,35.026,-80.162,23459.093418
1 Jan 2020 16:01:26.000,38.331,-80.241,23430.392492
1 Jan 2020 16:01:56.000,41.689,-80.300,23409.770281
1 Jan 2020 16:02:26.000,45.086,-80.335,23397.288398
1 Jan 2020 16:02:56.000,48.501,-80.348,23392.991959
1 Jan 2020 16:03:26.000,51.917,-80.337,23396.909264
1 Jan 2020 16:03:56.000,55.314,-80.302,23409.051740
1 Jan 2020 16:04:26.000,58.673,-80.245,23429.413832
1 Jan 2020 16:04:56.000,61.977,-80.166,23457.973138
1 Jan 2020 16:05:26.000,65.209,-80.066,23494.690255
1 Jan 2020 16:05:56.000,68.358,-79.946,23539.509428
1 Jan 2020 16:06:26.000,71.411,-79.808,23592.358616
1 Jan 2020 16:06:56.000,74.360,-79.655,23653.150088
1 Jan 2020 16:07:26.000,77.199,-79.487,23721.780437
1 Jan 2020 16:07:56.000,79.924,-79.306,23798.131851
1 Jan 2020 16:08:26.000,82.533,-79.116,23882.072288
1 Jan 2020 16:08:56.000,85.027,-78.917,23973.456285
1 Jan 2020 16:09:26.000,87.406,-78.711,24072.125904
1 Jan 2020 16:09:56.000,89.674,-78.501,24177.910692
1 Jan 2020 16:10:26.000,91.833,-78.288,24290.629719
1 Jan 2020 16:10:56.000,93.888,-78.074,24410.091611
1 Jan 2020 16:11:26.000,95.844,-77.860,24536.095606
1 Jan 2020 16:11:56.000,97.705,-77.648,24668.432645
1 Jan 2020 16:12:26.000,99.475,-77.439,24806.885298
1 Jan 2020 16:12:56.000,101.161,-77.234,24951.230003
1 Jan 2020 16:13:26.000,102.767,-77.034,25101.236984
1 Jan 2020 16:13:56.000,104.298,-76.841,25256.671298
1 Jan 2020 16:14:26.000,105.758,-76.655,25417.293620
1 Jan 2020 16:14:56.000,107.152,-76.477,25582.861279
1 Jan 2020 16:15:26.000,108.484,-76.308,25753.127897
1 Jan 2020 16:15:56.000,109.758,-76.148,25927.845706
1 Jan 2020 16:16:26.000,110.978,-75.998,26106.765127
1 Jan 2020 16:16:56.000,112.148,-75.858,26289.635648
1 Jan 2020 16:17:26.000,113.270,-75.729,26476.206403
1 Jan 2020 16:17:56.000,114.348,-75.611,26666.226704
1 Jan 2020 16:18:26.000,115.385,-75.505,26859.446538
1 Jan 2020 16:18:56.000,116.384,-75.410,27055.617017
1 Jan 2020 16:19:26.000,117.346,-75.326,27254.490798
1 Jan 2020 16:19:56.000,118.275,-75.255,27455.822782
1 Jan 2020 16:20:26.000,119.173,-75.195,27659.369159
1 Jan 2020 16:20:56.000,120.042,-75.147,27864.889657
1 Jan 2020 16:21:26.000,120.884,-75.111,28072.146526
1 Jan 2020 16:21:56.000,121.701,-75.088,28280.905101
1 Jan 2020 16:22:26.000,122.494,-75.076,28490.934014
1 Jan 2020 16:22:41.902,122.906,-75.074,28602.698295
1 Jan 2020 17:22:41.184,306.918,-75.064,28597.691149
1 Jan 2020 17:23:11.000,306.995,-75.071,28366.085949
1 Jan 2020 17:23:41.000,307.063,-75.093,28133.199993
1 Jan 2020 17:24:11.000,307.122,-75.130,27900.696598
1 Jan 2020 17:24:41.000,307.173,-75.181,27668.812303
1 Jan 2020 17:25:11.000,307.214,-75.249,27437.789132
1 Jan 2020 17:25:41.000,307.247,-75.333,27207.874543
1 Jan 2020 17:26:11.000,307.271,-75.433,26979.321340
1 Jan 2020 17:26:41.000,307.285,-75.549,26752.387564
1 Jan 2020 17:27:11.000,307.289,-75.683,26527.336354
1 Jan 2020 17:27:41.000,307.283,-75.834,26304.435768
1 Jan 2020 17:28:11.000,307.267,-76.002,26083.958570
1 Jan 2020 17:28:41.000,307.240,-76.188,25866.181976
1 Jan 2020 17:29:11.000,307.202,-76.392,25651.387351
1 Jan 2020 17:29:41.000,307.151,-76.614,25439.859865
1 Jan 2020 17:30:11.000,307.088,-76.854,25231.887764
1 Jan 2020 17:30:41.000,307.011,-77.113,25027.763225
1 Jan 2020 17:31:11.000,306.919,-77.390,24827.779870
1 Jan 2020 17:31:41.000,306.810,-77.686,24632.233516
1 Jan 2020 17:32:11.000,306.684,-78.000,24441.421200
1 Jan 2020 17:32:41.000,306.539,-78.333,24255.640486
1 Jan 2020 17:33:11.000,306.372,-78.684,24075.188408
1 Jan 2020 17:33:41.000,306.182,-79.053,23900.361775
1 Jan 2020 17:34:11.000,305.964,-79.440,23731.454557
1 Jan 2020 17:34:41.000,305.715,-79.845,23568.758076
1 Jan 2020 17:35:11.000,305.432,-80.267,23412.559687
1 Jan 2020 17:35:41.000,305.107,-80.706,23263.141453
1 Jan 2020 17:36:11.000,304.735,-81.161,23120.780027
1 Jan 2020 17:36:41.000,304.305,-81.632,22985.743937
1 Jan 2020 17:37:11.000,303.808,-82.117,22858.293413
1 Jan 2020 17:37:41.000,303.227,-82.617,22738.678703
1 Jan 2020 17:38:11.000,302.543,-83.130,22627.139585
1 Jan 2020 17:38:41.000,301.728,-83.655,22523.902952
1 Jan 2020 17:39:11.000,300.746,-84.191,22429.182358
1 Jan 2020 17:39:41.000,299.540,-84.736,22343.176458
1 Jan 2020 17:40:11.000,298.032,-85.289,22266.068446
1 Jan 2020 17:40:41.000,296.096,-85.847,22198.024004
1 Jan 2020 17:41:11.000,293.532,-86.407,22139.190897
1 Jan 2020 17:41:41.000,289.994,-86.964,22089.697778
1 Jan 2020 17:42:11.000,284.852,-87.510,22049.653701
1 Jan 2020 17:42:41.000,276.877,-88.030,22019.146812
1 Jan 2020 17:43:11.000,263.625,-88.488,21998.244148
1 Jan 2020 17:43:41.000,241.322,-88.808,21986.991051
1 Jan 2020 17:44:11.000,211.078,-88.860,21985.410937
1 Jan 2020 17:44:41.000,185.388,-88.615,21993.504968
1 Jan 2020 17:45:11.000,169.556,-88.191,22011.252170
1 Jan 2020 17:45:41.000,160.173,-87.686,22038.609596
1 Jan 2020 17:46:11.000,154.252,-87.147,22075.512405
1 Jan 2020 17:46:41.000,150.244,-86.593,22121.874608
1 Jan 2020 17:47:11.000,147.369,-86.034,22177.589466
1 Jan 2020 17:47:41.000,145.210,-85.476,22242.530381
1 Jan 2020 17:48:11.000,143.528,-84.922,22316.551226
1 Jan 2020 17:48:41.000,142.177,-84.375,22399.488004
1 Jan 2020 17:49:11.000,141.065,-83.836,22491.159421
1 Jan 2020 17:49:41.000,140.130,-83.308,22591.368277
1 Jan 2020 17:50:11.000,139.331,-82.792,22699.901929
1 Jan 2020 17:50:41.000,138.636,-82.289,22816.534537
1 Jan 2020 17:51:11.000,138.023,-81.800,22941.027628
1 Jan 2020 17:51:41.000,137.477,-81.325,23073.131728
1 Jan 2020 17:52:11.000,136.983,-80.866,23212.586778
1 Jan 2020 17:52:41.000,136.533,-80.423,23359.124614
1 Jan 2020 17:53:11.000,136.120,-79.996,23512.469370
1 Jan 2020 17:53:41.000,135.735,-79.586,23672.338864
1 Jan 2020 17:54:11.000,135.376,-79.194,23838.446012
1 Jan 2020 17:54:41.000,135.037,-78.820,24010.498831
1 Jan 2020 17:55:11.000,134.716,-78.464,24188.203091
1 Jan 2020 17:55:41.000,134.409,-78.126,24371.262221
1 Jan 2020 17:56:11.000,134.114,-77.806,24559.378486
1 Jan 2020 17:56:41.000,133.830,-77.505,24752.253831
1 Jan 2020 17:57:11.000,133.553,-77.222,24949.590662
1 Jan 2020 17:57:41.000,133.284,-76.957,25151.092890
1 Jan 2020 17:58:11.000,133.020,-76.711,25356.465258
1 Jan 2020 17:58:41.000,132.760,-76.483,25565.415899
1 Jan 2020 17:59:11.000,132.504,-76.273,25777.655551
1 Jan 2020 17:59:41.000,132.250,-76.081,25992.898346
1 Jan 2020 18:00:11.000,131.998,-75.906,26210.862221
1 Jan 2020 18:00:41.000,131.746,-75.749,26431.269272
1 Jan 2020 18:01:11.000,131.494,-75.610,26653.846065
1 Jan 2020 18:01:41.000,131.242,-75.486,26878.323894
1 Jan 2020 18:02:11.000,130.989,-75.380,27104.439006
1 Jan 2020 18:02:41.000,130.734,-75.290,27331.932778
1 Jan 2020 18:03:11.000,130.477,-75.216,27560.551870
1 Jan 2020 18:03:41.000,130.216,-75.157,27790.048331
1 Jan 2020 18:04:11.000,129.953,-75.113,28020.179695
1 Jan 2020 18:04:41.000,129.685,-75.085,28250.709034
1 Jan 2020 18:05:11.000,129.413,-75.071,28481.405001
1 Jan 2020 18:05:25.913,129.276,-75.069,28596.079340
1 Jan 2020 19:05:24.652,303.583,-75.063,28593.079696
1 Jan 2020 19:05:54.000,302.661,-75.068,28398.000641
1 Jan 2020 19:06:24.000,301.695,-75.083,28199.993966
1 Jan 2020 19:06:54.000,300.703,-75.109,28003.629580
1 Jan 2020 19:07:24.000,299.684,-75.146,27809.133966
1 Jan 2020 19:07:54.000,298.637,-75.193,27616.735959
1 Jan 2020 19:08:24.000,297.558,-75.250,27426.666471
1 Jan 2020 19:08:54.000,296.445,-75.317,27239.158197
1 Jan 2020 19:09:24.000,295.298,-75.394,27054.445283
1 Jan 2020 19:09:54.000,294.112,-75.481,26872.762965
1 Jan 2020 19:10:24.000,292.886,-75.578,26694.347175
1 Jan 2020 19:10:54.000,291.618,-75.684,26519.434113
1 Jan 2020 19:11:24.000,290.304,-75.798,26348.259504
1 Jan 2020 19:11:54.000,288.942,-75.920,26181.059245
1 Jan 2020 19:12:24.000,287.529,-76.051,26018.067151
1 Jan 2020 19:12:54.000,286.062,-76.188,25859.515549
1 Jan 2020 19:13:24.000,284.538,-76.332,25705.634392
1 Jan 2020 19:13:54.000,282.954,-76.482,25556.650635
1 Jan 2020 19:14:24.000,281.308,-76.637,25412.787577
1 Jan 2020 19:14:54.000,279.596,-76.797,25274.263925
1 Jan 2020 19:15:24.000,277.814,-76.959,25141.294134
1 Jan 2020 19:15:54.000,275.961,-77.124,25014.086100
1 Jan 2020 19:16:24.000,274.034,-77.289,24892.841484
1 Jan 2020 19:16:54.000,272.030,-77.455,24777.754698
1 Jan 2020 19:17:24.000,269.947,-77.620,24669.011961
1 Jan 2020 19:17:54.000,267.783,-77.782,24566.791301
1 Jan 2020 19:18:24.000,265.538,-77.940,24471.260664
1 Jan 2020 19:18:54.000,263.211,-78.093,24382.577958
1 Jan 2020 19:19:24.000,260.804,-78.240,24300.890141
1 Jan 2020 19:19:54.000,258.316,-78.378,24226.332396
1 Jan 2020 19:20:24.000,255.751,-78.507,24159.028088
1 Jan 2020 19:20:54.000,253.112,-78.625,24099.087234
1 Jan 2020 19:21:24.000,250.405,-78.732,24046.606579
1 Jan 2020 19:21:54.000,247.635,-78.825,24001.668858
1 Jan 2020 19:22:24.000,244.810,-78.904,23964.342703
1 Jan 2020 19:22:54.000,241.938,-78.967,23934.681744
1 Jan 2020 19:23:24.000,239.029,-79.015,23912.724688
1 Jan 2020 19:23:54.000,236.094,-79.046,23898.494962
1 Jan 2020 19:24:24.000,233.143,-79.060,23892.000751
1 Jan 2020 19:24:54.000,230.187,-79.058,23893.234673
1 Jan 2020 19:25:24.000,227.239,-79.038,23902.173999
1 Jan 2020 19:25:54.000,224.309,-79.002,23918.780724
1 Jan 2020 19:26:24.000,221.408,-78.949,23943.001731
1 Jan 2020 19:26:54.000,218.545,-78.882,23974.769090
1 Jan 2020 19:27:24.000,215.730,-78.799,24014.000393
1 Jan 2020 19:27:54.000,212.970,-78.703,24060.599181
1 Jan 2020 19:28:24.000,210.272,-78.595,24114.455497
1 Jan 2020 19:28:54.000,207.641,-78.476,24175.446133
1 Jan 2020 19:29:24.000,205.081,-78.346,24243.435660
1 Jan 2020 19:29:54.000,202.595,-78.209,24318.276795
1 Jan 2020 19:30:24.000,200.184,-78.064,24399.811156
1 Jan 2020 19:30:54.000,197.850,-77.913,24487.870098
1 Jan 2020 19:31:24.000,195.591,-77.758,24582.274958
1 Jan 2020 19:31:54.000,193.408,-77.599,24682.838549
1 Jan 2020 19:32:24.000,191.298,-77.439,24789.365449
1 Jan 2020 19:32:54.000,189.261,-77.278,24901.652889
1 Jan 2020 19:33:24.000,187.292,-77.117,25019.491528
1 Jan 2020 19:33:54.000,185.391,-76.958,25142.666400
1 Jan 2020 19:34:24.000,183.553,-76.801,25270.956920
1 Jan 2020 19:34:54.000,181.776,-76.648,25404.138719
1 Jan 2020 19:35:24.000,180.058,-76.499,25541.983622
1 Jan 2020 19:35:54.000,178.393,-76.354,25684.260515
1 Jan 2020 19:36:24.000,176.781,-76.216,25830.735997
1 Jan 2020 19:36:54.000,175.216,-76.083,25981.175003
1 Jan 2020 19:37:24.000,173.698,-75.957,26135.341390
1 Jan 2020 19:37:54.000,172.222,-75.838,26292.998736
1 Jan 2020 19:38:24.000,170.785,-75.727,26453.909921
1 Jan 2020 19:38:54.000,169.385,-75.624,26617.839006
1 Jan 2020 19:39:24.000,168.020,-75.529,26784.550765
1 Jan 2020 19:39:54.000,166.686,-75.443,26953.811325
1 Jan 2020 19:40:24.000,165.381,-75.365,27125.388552
1 Jan 2020 19:40:54.000,164.103,-75.296,27299.052399
1 Jan 2020 19:41:24.000,162.850,-75.236,27474.575219
1 Jan 2020 19:41:54.000,161.619,-75.185,27651.732056
1 Jan 2020 19:42:24.000,160.408,-75.143,27830.300901
1 Jan 2020 19:42:54.000,159.216,-75.110,28010.062917
1 Jan 2020 19:43:24.000,158.040,-75.086,28190.802646
1 Jan 2020 19:43:54.000,156.878,-75.071,28372.308185
1 Jan 2020 19:44:24.000,155.730,-75.065,28554.371342
1 Jan 2020 19:44:30.317,155.489,-75.065,28592.756661
1 Jan 2020 20:43:27.240,326.129,-75.066,28593.372794
1 Jan 2020 20:43:57.000,324.703,-75.069,28450.769751
1 Jan 2020 20:44:27.000,323.246,-75.076,28309.102027
1 Jan 2020 20:44:57.000,321.768,-75.090,28169.718479
1 Jan 2020 20:45:27.000,320.268,-75.108,28032.808191
1 Jan 2020 20:45:57.000,318.745,-75.130,27898.559686
1 Jan 2020 20:46:27.000,317.197,-75.158,27767.160577
1 Jan 2020 20:46:57.000,315.625,-75.189,27638.797198
1 Jan 2020 20:47:27.000,314.026,-75.225,27513.654213
1 Jan 2020 20:47:57.000,312.400,-75.264,27391.914222
1 Jan 2020 20:48:27.000,310.746,-75.306,27273.757335
1 Jan 2020 20:48:57.000,309.064,-75.352,27159.360578
1 Jan 2020 20:49:27.000,307.352,-75.399,27048.898129
1 Jan 2020 20:49:57.000,305.611,-75.449,26942.539832
1 Jan 2020 20:50:27.000,303.840,-75.500,26840.451426
1 Jan 2020 20:50:57.000,302.039,-75.553,26742.793907
1 Jan 2020 20:51:27.000,300.207,-75.606,26649.723046
1 Jan 2020 20:51:57.000,298.345,-75.659,26561.388924
1 Jan 2020 20:52:27.000,296.453,-75.712,26477.935329
1 Jan 2020 20:52:57.000,294.532,-75.765,26399.499795
1 Jan 2020 20:53:27.000,292.583,-75.815,26326.212376
1 Jan 2020 20:53:57.000,290.605,-75.864,26258.195714
1 Jan 2020 20:54:27.000,288.602,-75.911,26195.564478
1 Jan 2020 20:54:57.000,286.573,-75.955,26138.424943
1 Jan 2020 20:55:27.000,284.521,-75.996,26086.874529
1 Jan 2020 20:55:57.000,282.447,-76.034,26041.001739
1 Jan 2020 20:56:27.000,280.353,-76.067,26000.885341
1 Jan 2020 20:56:57.000,278.242,-76.096,25966.594387
1 Jan 2020 20:57:27.000,276.117,-76.120,25938.187855
1 Jan 2020 20:57:57.000,273.979,-76.140,25915.714417
1 Jan 2020 20:58:27.000,271.832,-76.154,25899.212208
1 Jan 2020 20:58:57.000,269.678,-76.164,25888.708788
1 Jan 2020 20:59:27.000,267.520,-76.167,25884.220844
1 Jan 2020 20:59:57.000,265.361,-76.166,25885.754254
1 Jan 2020 21:00:27.000,263.205,-76.159,25893.304023
1 Jan 2020 21:00:57.000,261.054,-76.147,25906.854329
1 Jan 2020 21:01:27.000,258.911,-76.130,25926.378511
1 Jan 2020 21:01:57.000,256.779,-76.108,25951.839279
1 Jan 2020 21:02:27.000,254.660,-76.081,25983.188807
1 Jan 2020 21:02:57.000,252.557,-76.050,26020.368941
1 Jan 2020 21:03:27.000,250.473,-76.014,26063.311433
1 Jan 2020 21:03:57.000,248.409,-75.975,26111.938290
1 Jan 2020 21:04:27.000,246.368,-75.932,26166.161770
1 Jan 2020 21:04:57.000,244.350,-75.887,26225.885173
1 Jan 2020 21:05:27.000,242.358,-75.839,26291.002914
1 Jan 2020 21:05:57.000,240.393,-75.789,26361.400985
1 Jan 2020 21:06:27.000,238.456,-75.737,26436.957370
1 Jan 2020 21:06:57.000,236.547,-75.685,26517.542597
1 Jan 2020 21:07:27.000,234.668,-75.632,26603.019721
1 Jan 2020 21:07:57.000,232.818,-75.579,26693.245467
1 Jan 2020 21:08:27.000,230.998,-75.526,26788.070253
1 Jan 2020 21:08:57.000,229.208,-75.474,26887.338772
1 Jan 2020 21:09:27.000,227.448,-75.423,26990.890467
1 Jan 2020 21:09:57.000,225.717,-75.375,27098.560008
1 Jan 2020 21:10:27.000,224.015,-75.328,27210.177760
1 Jan 2020 21:10:57.000,222.341,-75.284,27325.570429
1 Jan 2020 21:11:27.000,220.695,-75.244,27444.560813
1 Jan 2020 21:11:57.000,219.075,-75.206,27566.969297
1 Jan 2020 21:12:27.000,217.482,-75.172,27692.613591
1 Jan 2020 21:12:57.000,215.914,-75.143,27821.309327
1 Jan 2020 21:13:27.000,214.370,-75.117,27952.870461
1 Jan 2020 21:13:57.000,212.849,-75.096,28087.109662
1 Jan 2020 21:14:27.000,211.350,-75.080,28223.838687
1 Jan 2020 21:14:57.000,209.872,-75.069,28362.868731
1 Jan 2020 21:15:27.000,208.414,-75.063,28504.010768
1 Jan 2020 21:15:45.868,207.506,-75.062,28593.778477
1 Jan 2020 22:14:24.326,18.695,-75.072,28597.779067
1 Jan 2020 22:14:54.000,17.484,-75.076,28425.768607
1 Jan 2020 22:15:24.000,16.247,-75.088,28252.560501
1 Jan 2020 22:15:54.000,14.994,-75.108,28080.250028
1 Jan 2020 22:16:24.000,13.725,-75.136,27909.045140
1 Jan 2020 22:16:54.000,12.436,-75.172,27739.156868
1 Jan 2020 22:17:24.000,11.126,-75.216,27570.799120
1 Jan 2020 22:17:54.000,9.794,-75.268,27404.188454
1 Jan 2020 22:18:24.000,8.437,-75.328,27239.543827
1 Jan 2020 22:18:54.000,7.053,-75.396,27077.086311
1 Jan 2020 22:19:24.000,5.640,-75.471,26917.038794
1 Jan 2020 22:19:54.000,4.195,-75.554,26759.625637
1 Jan 2020 22:20:24.000,2.718,-75.643,26605.072317
1 Jan 2020 22:20:54.000,1.204,-75.739,26453.605020
1 Jan 2020 22:21:24.000,359.653,-75.841,26305.450228
1 Jan 2020 22:21:54.000,358.061,-75.949,26160.834033
1 Jan 2020 22:22:24.000,356.426,-76.063,26019.982523
1 Jan 2020 22:22:54.000,354.746,-76.181,25883.119950
1 Jan 2020 22:23:24.000,353.018,-76.304,25750.469062
1 Jan 2020 22:23:54.000,351.241,-76.430,25622.250302
1 Jan 2020 22:24:24.000,349.411,-76.559,25498.681204
1 Jan 2020 22:24:54.000,347.528,-76.690,25379.975763
1 Jan 2020 22:25:24.000,345.588,-76.822,25266.343626
1 Jan 2020 22:25:54.000,343.591,-76.954,25157.990068
1 Jan 2020 22:26:24.000,341.535,-77.086,25055.114321
1 Jan 2020 22:26:54.000,339.418,-77.216,24957.909546
1 Jan 2020 22:27:24.000,337.241,-77.344,24866.561959
1 Jan 2020 22:27:54.000,335.004,-77.467,24781.250125
1 Jan 2020 22:28:24.000,332.705,-77.586,24702.144154
1 Jan 2020 22:28:54.000,330.348,-77.700,24629.405454
1 Jan 2020 22:29:24.000,327.933,-77.806,24563.185371
1 Jan 2020 22:29:54.000,325.464,-77.904,24503.625006
1 Jan 2020 22:30:24.000,322.943,-77.993,24450.854470
1 Jan 2020 22:30:54.000,320.375,-78.072,24404.992254
1 Jan 2020 22:31:24.000,317.765,-78.141,24366.144876
1 Jan 2020 22:31:54.000,315.119,-78.198,24334.406066
1 Jan 2020 22:32:24.000,312.443,-78.242,24309.856545
1 Jan 2020 22:32:54.000,309.744,-78.273,24292.563572
1 Jan 2020 22:33:24.000,307.031,-78.292,24282.580636
1 Jan 2020 22:33:54.000,304.312,-78.296,24279.947149
1 Jan 2020 22:34:24.000,301.594,-78.288,24284.688304
1 Jan 2020 22:34:54.000,298.885,-78.265,24296.814934
1 Jan 2020 22:35:24.000,296.195,-78.229,24316.323472
1 Jan 2020 22:35:54.000,293.531,-78.181,24343.196054
1 Jan 2020 22:36:24.000,290.900,-78.120,24377.400313
1 Jan 2020 22:36:54.000,288.308,-78.047,24418.889995
1 Jan 2020 22:37:24.000,285.763,-77.963,24467.604916
1 Jan 2020 22:37:54.000,283.268,-77.869,24523.471338
1 Jan 2020 22:38:24.000,280.830,-77.766,24586.402478
1 Jan 2020 22:38:54.000,278.450,-77.655,24656.298389
1 Jan 2020 22:39:24.000,276.132,-77.537,24733.047244
1 Jan 2020 22:39:54.000,273.878,-77.413,24816.525337
1 Jan 2020 22:40:24.000,271.690,-77.284,24906.597786
1 Jan 2020 22:40:54.000,269.567,-77.152,25003.119310
1 Jan 2020 22:41:24.000,267.510,-77.017,25105.934157
1 Jan 2020 22:41:54.000,265.519,-76.880,25214.877808
1 Jan 2020 22:42:24.000,263.592,-76.743,25329.776956
1 Jan 2020 22:42:54.000,261.728,-76.607,25450.450363
1 Jan 2020 22:43:24.000,259.926,-76.472,25576.709543
1 Jan 2020 22:43:54.000,258.184,-76.340,25708.359686
1 Jan 2020 22:44:24.000,256.500,-76.211,25845.199396
1 Jan 2020 22:44:54.000,254.871,-76.086,25987.022764
1 Jan 2020 22:45:24.000,253.296,-75.966,26133.619096
1 Jan 2020 22:45:54.000,251.773,-75.851,26284.773779
1 Jan 2020 22:46:24.000,250.298,-75.743,26440.268900
1 Jan 2020 22:46:54.000,248.871,-75.641,26599.883834
1 Jan 2020 22:47:24.000,247.487,-75.546,26763.395817
1 Jan 2020 22:47:54.000,246.146,-75.459,26930.580764
1 Jan 2020 22:48:24.000,244.845,-75.380,27101.212651
1 Jan 2020 22:48:54.000,243.581,-75.309,27275.065687
1 Jan 2020 22:49:24.000,242.353,-75.247,27451.913639
1 Jan 2020 22:49:54.000,241.159,-75.193,27631.530537
1 Jan 2020 22:50:24.000,239.997,-75.149,27813.691064
1 Jan 2020 22:50:54.000,238.864,-75.114,27998.170916
1 Jan 2020 22:51:24.000,237.759,-75.088,28184.747133
1 Jan 2020 22:51:54.000,236.680,-75.072,28373.198412
1 Jan 2020 22:52:24.000,235.625,-75.065,28563.305375
1 Jan 2020 22:52:29.625,235.430,-75.065,28599.114871
1 Jan 2020 23:52:28.794,48.600,-75.076,28604.300440
1 Jan 2020 23:52:58.000,48.195,-75.082,28383.061365
1 Jan 2020 23:53:28.000,47.781,-75.103,28155.818209
1 Jan 2020 23:53:58.000,47.367,-75.137,27928.813099
1 Jan 2020 23:54:28.000,46.953,-75.187,27702.277681
1 Jan 2020 23:54:58.000,46.539,-75.251,27476.449133
1 Jan 2020 23:55:28.000,46.122,-75.330,27251.570116
1 Jan 2020 23:55:58.000,45.703,-75.425,27027.888704
1 Jan 2020 23:56:28.000,45.279,-75.536,26805.658279
1 Jan 2020 23:56:58.000,44.850,-75.664,26585.137406
1 Jan 2020 23:57:28.000,44.415,-75.807,26366.589665
1 Jan 2020 23:57:58.000,43.972,-75.968,26150.283459
1 Jan 2020 23:58:28.000,43.519,-76.145,25936.491772
1 Jan 2020 23:58:58.000,43.055,-76.339,25725.491891
1 Jan 2020 23:59:28.000,42.578,-76.551,25517.565077
1 Jan 2020 23:59:58.000,42.086,-76.780,25312.996192
2 Jan 2020 00:00:28.000,41.576,-77.026,25112.072944
2 Jan 2020 00:00:58.000,41.046,-77.290,24915.086703
2 Jan 2020 00:01:28.000,40.493,-77.572,24722.330001
2 Jan 2020 00:01:58.000,39.913,-77.871,24534.097234
2 Jan 2020 00:02:28.000,39.302,-78.187,24350.683675
2 Jan 2020 00:02:58.000,38.655,-78.520,24172.384731
2 Jan 2020 00:03:28.000,37.966,-78.871,23999.494895
2 Jan 2020 00:03:58.000,37.230,-79.238,23832.307942
2 Jan 2020 00:04:28.000,36.437,-79.621,23671.114400
2 Jan 2020 00:04:58.000,35.579,-80.019,23516.201646
2 Jan 2020 00:05:28.000,34.645,-80.433,23367.852596
2 Jan 2020 00:05:58.000,33.619,-80.861,23226.344379
2 Jan 2020 00:06:28.000,32.486,-81.301,23091.948132
