STKdata/stk_90fov_4leo/Satellite-MEO_Satellite10103-To-Satellite-LEO_Satellite10000 AER.csv

"Time (UTCG)","Azimuth (deg)","Elevation (deg)","Range (km)"
1 Jan 2020 00:00:00.000,299.589,-75.234,27548.504061
1 Jan 2020 00:00:30.000,297.798,-75.223,27587.588642
1 Jan 2020 00:01:00.000,296.017,-75.211,27630.601399
1 Jan 2020 00:01:30.000,294.248,-75.198,27677.507703
1 Jan 2020 00:02:00.000,292.490,-75.185,27728.266959
1 Jan 2020 00:02:30.000,290.746,-75.172,27782.832724
1 Jan 2020 00:03:00.000,289.014,-75.159,27841.152827
1 Jan 2020 00:03:30.000,287.296,-75.147,27903.169515
1 Jan 2020 00:04:00.000,285.593,-75.135,27968.819606
1 Jan 2020 00:04:30.000,283.904,-75.123,28038.034788
1 Jan 2020 00:05:00.000,282.230,-75.113,28110.741272
1 Jan 2020 00:05:30.000,280.572,-75.103,28186.860764
1 Jan 2020 00:06:00.000,278.929,-75.095,28266.310143
1 Jan 2020 00:06:30.000,277.301,-75.088,28349.001799
1 Jan 2020 00:07:00.000,275.689,-75.083,28434.843839
1 Jan 2020 00:07:30.000,274.093,-75.080,28523.740310
1 Jan 2020 00:07:58.620,272.585,-75.079,28611.302464
1 Jan 2020 01:14:09.323,64.964,-75.071,28608.038291
1 Jan 2020 01:14:39.000,64.055,-75.076,28420.763876
1 Jan 2020 01:15:09.000,63.131,-75.090,28231.324402
1 Jan 2020 01:15:39.000,62.203,-75.115,28041.936066
1 Jan 2020 01:16:09.000,61.267,-75.149,27852.782981
1 Jan 2020 01:16:39.000,60.322,-75.193,27664.053475
1 Jan 2020 01:17:09.000,59.367,-75.248,27475.940021
1 Jan 2020 01:17:39.000,58.400,-75.314,27288.639168
1 Jan 2020 01:18:09.000,57.420,-75.390,27102.351444
1 Jan 2020 01:18:39.000,56.423,-75.476,26917.281243
1 Jan 2020 01:19:09.000,55.409,-75.574,26733.636689
1 Jan 2020 01:19:39.000,54.374,-75.683,26551.629483
1 Jan 2020 01:20:09.000,53.317,-75.802,26371.474714
1 Jan 2020 01:20:39.000,52.236,-75.933,26193.390658
1 Jan 2020 01:21:09.000,51.126,-76.074,26017.598535
1 Jan 2020 01:21:39.000,49.986,-76.227,25844.322245
1 Jan 2020 01:22:09.000,48.813,-76.390,25673.788070
1 Jan 2020 01:22:39.000,47.602,-76.563,25506.224339
1 Jan 2020 01:23:09.000,46.350,-76.746,25341.860821
1 Jan 2020 01:23:39.000,45.053,-76.940,25180.929310
1 Jan 2020 01:24:09.000,43.706,-77.143,25023.661695
1 Jan 2020 01:24:39.000,42.306,-77.355,24870.290483
1 Jan 2020 01:25:09.000,40.847,-77.575,24721.048037
1 Jan 2020 01:25:39.000,39.322,-77.803,24576.166026
1 Jan 2020 01:26:09.000,37.727,-78.039,24435.874837
1 Jan 2020 01:26:39.000,36.055,-78.281,24300.402750
1 Jan 2020 01:27:09.000,34.298,-78.528,24169.976098
1 Jan 2020 01:27:39.000,32.450,-78.779,24044.817344
1 Jan 2020 01:28:09.000,30.503,-79.034,23925.145190
1 Jan 2020 01:28:39.000,28.448,-79.290,23811.173629
1 Jan 2020 01:29:09.000,26.277,-79.546,23703.111182
1 Jan 2020 01:29:39.000,23.982,-79.801,23601.159949
1 Jan 2020 01:30:09.000,21.554,-80.053,23505.515478
1 Jan 2020 01:30:39.000,18.985,-80.299,23416.364966
1 Jan 2020 01:31:09.000,16.268,-80.538,23333.887142
1 Jan 2020 01:31:39.000,13.396,-80.767,23258.251305
1 Jan 2020 01:32:09.000,10.367,-80.984,23189.616468
1 Jan 2020 01:32:39.000,7.177,-81.186,23128.130984
1 Jan 2020 01:33:09.000,3.830,-81.370,23073.931245
1 Jan 2020 01:33:39.000,0.330,-81.535,23027.141411
1 Jan 2020 01:34:09.000,356.688,-81.677,22987.872680
1 Jan 2020 01:34:39.000,352.920,-81.795,22956.222688
1 Jan 2020 01:35:09.000,349.047,-81.886,22932.275113
1 Jan 2020 01:35:39.000,345.093,-81.948,22916.099040
1 Jan 2020 01:36:09.000,341.088,-81.980,22907.748734
1 Jan 2020 01:36:39.000,337.064,-81.982,22907.263345
1 Jan 2020 01:37:09.000,333.056,-81.953,22914.666586
1 Jan 2020 01:37:39.000,329.095,-81.895,22929.966766
1 Jan 2020 01:38:09.000,325.212,-81.807,22953.156661
1 Jan 2020 01:38:39.000,321.435,-81.692,22984.213672
1 Jan 2020 01:39:09.000,317.785,-81.551,23023.099647
1 Jan 2020 01:39:39.000,314.280,-81.386,23069.761557
1 Jan 2020 01:40:09.000,310.933,-81.201,23124.131510
1 Jan 2020 01:40:39.000,307.750,-80.996,23186.127327
1 Jan 2020 01:41:09.000,304.734,-80.777,23255.652493
1 Jan 2020 01:41:39.000,301.885,-80.543,23332.597408
1 Jan 2020 01:42:09.000,299.200,-80.300,23416.839485
1 Jan 2020 01:42:39.000,296.674,-80.047,23508.243892
1 Jan 2020 01:43:09.000,294.299,-79.789,23606.664437
1 Jan 2020 01:43:39.000,292.068,-79.527,23711.943430
1 Jan 2020 01:44:09.000,289.973,-79.263,23823.913666
1 Jan 2020 01:44:39.000,288.004,-78.999,23942.398363
1 Jan 2020 01:45:09.000,286.155,-78.736,24067.212129
1 Jan 2020 01:45:39.000,284.416,-78.476,24198.161979
1 Jan 2020 01:46:09.000,282.780,-78.220,24335.047157
1 Jan 2020 01:46:39.000,281.239,-77.970,24477.661314
1 Jan 2020 01:47:09.000,279.786,-77.726,24625.792330
1 Jan 2020 01:47:39.000,278.416,-77.490,24779.223281
1 Jan 2020 01:48:09.000,277.121,-77.263,24937.733153
1 Jan 2020 01:48:39.000,275.896,-77.044,25101.097529
1 Jan 2020 01:49:09.000,274.736,-76.835,25269.089575
1 Jan 2020 01:49:39.000,273.637,-76.637,25441.479367
1 Jan 2020 01:50:09.000,272.593,-76.449,25618.036424
1 Jan 2020 01:50:39.000,271.602,-76.273,25798.528984
1 Jan 2020 01:51:09.000,270.659,-76.108,25982.724844
1 Jan 2020 01:51:39.000,269.761,-75.955,26170.391848
1 Jan 2020 01:52:09.000,268.905,-75.813,26361.298340
1 Jan 2020 01:52:39.000,268.088,-75.685,26555.213581
1 Jan 2020 01:53:09.000,267.308,-75.568,26751.908126
1 Jan 2020 01:53:39.000,266.561,-75.464,26951.154177
1 Jan 2020 01:54:09.000,265.847,-75.372,27152.725897
1 Jan 2020 01:54:39.000,265.162,-75.293,27356.400030
1 Jan 2020 01:55:09.000,264.506,-75.226,27561.954801
1 Jan 2020 01:55:39.000,263.876,-75.172,27769.172175
1 Jan 2020 01:56:09.000,263.270,-75.130,27977.836703
1 Jan 2020 01:56:39.000,262.688,-75.100,28187.736032
1 Jan 2020 01:57:09.000,262.128,-75.082,28398.661063
1 Jan 2020 01:57:38.441,261.598,-75.076,28606.450985
1 Jan 2020 03:00:36.128,80.377,-75.067,28601.315761
1 Jan 2020 03:01:06.000,80.756,-75.073,28384.949701
1 Jan 2020 03:01:36.000,81.155,-75.092,28168.252591
1 Jan 2020 03:02:06.000,81.574,-75.124,27952.358237
1 Jan 2020 03:02:36.000,82.013,-75.169,27737.477394
1 Jan 2020 03:03:06.000,82.474,-75.227,27523.824598
1 Jan 2020 03:03:36.000,82.959,-75.298,27311.618057
1 Jan 2020 03:04:06.000,83.468,-75.383,27101.079504
1 Jan 2020 03:04:36.000,84.003,-75.481,26892.434038
1 Jan 2020 03:05:06.000,84.566,-75.593,26685.909932
1 Jan 2020 03:05:36.000,85.159,-75.719,26481.738415
1 Jan 2020 03:06:06.000,85.785,-75.858,26280.153424
1 Jan 2020 03:06:36.000,86.445,-76.012,26081.391322
1 Jan 2020 03:07:06.000,87.142,-76.179,25885.690581
1 Jan 2020 03:07:36.000,87.879,-76.359,25693.291436
1 Jan 2020 03:08:06.000,88.659,-76.553,25504.435138
1 Jan 2020 03:08:36.000,89.487,-76.760,25319.364948
1 Jan 2020 03:09:06.000,90.365,-76.980,25138.323531
1 Jan 2020 03:09:36.000,91.299,-77.213,24961.553882
1 Jan 2020 03:10:06.000,92.292,-77.458,24789.298413
1 Jan 2020 03:10:36.000,93.352,-77.715,24621.798368
1 Jan 2020 03:11:06.000,94.483,-77.982,24459.293186
1 Jan 2020 03:11:36.000,95.694,-78.261,24302.019535
1 Jan 2020 03:12:06.000,96.991,-78.549,24150.211825
1 Jan 2020 03:12:36.000,98.383,-78.845,24004.099614
1 Jan 2020 03:13:06.000,99.880,-79.150,23863.908080
1 Jan 2020 03:13:36.000,101.492,-79.461,23729.856906
1 Jan 2020 03:14:06.000,103.232,-79.777,23602.159226
1 Jan 2020 03:14:36.000,105.112,-80.096,23481.021703
1 Jan 2020 03:15:06.000,107.147,-80.417,23366.642283
1 Jan 2020 03:15:36.000,109.352,-80.738,23259.210275
1 Jan 2020 03:16:06.000,111.744,-81.057,23158.905258
1 Jan 2020 03:16:36.000,114.341,-81.370,23065.896046
1 Jan 2020 03:17:06.000,117.159,-81.675,22980.340657
1 Jan 2020 03:17:36.000,120.215,-81.969,22902.384308
1 Jan 2020 03:18:06.000,123.525,-82.249,22832.159482
1 Jan 2020 03:18:36.000,127.100,-82.510,22769.784890
1 Jan 2020 03:19:06.000,130.946,-82.749,22715.365307
1 Jan 2020 03:19:36.000,135.060,-82.962,22668.990236
1 Jan 2020 03:20:06.000,139.431,-83.144,22630.733903
1 Jan 2020 03:20:36.000,144.034,-83.292,22600.654626
1 Jan 2020 03:21:06.000,148.829,-83.402,22578.794746
1 Jan 2020 03:21:36.000,153.766,-83.472,22565.179922
1 Jan 2020 03:22:06.000,158.782,-83.500,22559.819285
1 Jan 2020 03:22:36.000,163.809,-83.485,22562.705273
1 Jan 2020 03:23:06.000,168.778,-83.428,22573.813723
1 Jan 2020 03:23:36.000,173.625,-83.330,22593.103896
1 Jan 2020 03:24:06.000,178.297,-83.195,22620.518790
1 Jan 2020 03:24:36.000,182.752,-83.024,22655.985481
1 Jan 2020 03:25:06.000,186.962,-82.823,22699.415359
1 Jan 2020 03:25:36.000,190.912,-82.594,22750.704863
1 Jan 2020 03:26:06.000,194.599,-82.343,22809.735904
1 Jan 2020 03:26:36.000,198.028,-82.073,22876.376629
1 Jan 2020 03:27:06.000,201.208,-81.788,22950.481758
1 Jan 2020 03:27:36.000,204.155,-81.492,23031.893864
1 Jan 2020 03:28:06.000,206.884,-81.187,23120.443827
1 Jan 2020 03:28:36.000,209.414,-80.876,23215.951747
1 Jan 2020 03:29:06.000,211.762,-80.563,23318.227968
1 Jan 2020 03:29:36.000,213.944,-80.248,23427.073264
1 Jan 2020 03:30:06.000,215.977,-79.935,23542.280725
1 Jan 2020 03:30:36.000,217.875,-79.625,23663.635968
1 Jan 2020 03:31:06.000,219.651,-79.320,23790.918170
1 Jan 2020 03:31:36.000,221.318,-79.020,23923.900920
1 Jan 2020 03:32:06.000,222.888,-78.728,24062.353286
1 Jan 2020 03:32:36.000,224.369,-78.444,24206.039673
1 Jan 2020 03:33:06.000,225.770,-78.169,24354.722006
1 Jan 2020 03:33:36.000,227.101,-77.904,24508.159537
1 Jan 2020 03:34:06.000,228.367,-77.649,24666.109778
1 Jan 2020 03:34:36.000,229.576,-77.405,24828.329167
1 Jan 2020 03:35:06.000,230.733,-77.172,24994.573680
1 Jan 2020 03:35:36.000,231.843,-76.951,25164.599421
1 Jan 2020 03:36:06.000,232.911,-76.743,25338.163434
1 Jan 2020 03:36:36.000,233.942,-76.546,25515.023071
1 Jan 2020 03:37:06.000,234.939,-76.362,25694.938132
1 Jan 2020 03:37:36.000,235.906,-76.190,25877.670156
1 Jan 2020 03:38:06.000,236.845,-76.031,26062.983077
1 Jan 2020 03:38:36.000,237.761,-75.885,26250.643553
1 Jan 2020 03:39:06.000,238.654,-75.751,26440.421271
1 Jan 2020 03:39:36.000,239.529,-75.630,26632.089207
1 Jan 2020 03:40:06.000,240.387,-75.521,26825.423862
1 Jan 2020 03:40:36.000,241.230,-75.424,27020.205463
1 Jan 2020 03:41:06.000,242.061,-75.340,27216.218138
1 Jan 2020 03:41:36.000,242.880,-75.267,27413.250064
1 Jan 2020 03:42:06.000,243.690,-75.207,27611.093591
1 Jan 2020 03:42:36.000,244.492,-75.158,27809.545344
1 Jan 2020 03:43:06.000,245.289,-75.120,28008.406306
1 Jan 2020 03:43:36.000,246.080,-75.094,28207.481881
1 Jan 2020 03:44:06.000,246.868,-75.078,28406.581943
1 Jan 2020 03:44:35.074,247.630,-75.073,28599.386682
1 Jan 2020 04:49:53.773,90.814,-75.064,28594.695142
1 Jan 2020 04:50:23.000,92.273,-75.065,28485.507854
1 Jan 2020 04:50:53.000,93.790,-75.070,28376.155041
1 Jan 2020 04:51:23.000,95.326,-75.078,28269.682805
1 Jan 2020 04:51:53.000,96.882,-75.088,28166.211017
1 Jan 2020 04:52:23.000,98.456,-75.101,28065.856295
1 Jan 2020 04:52:53.000,100.051,-75.117,27968.731733
1 Jan 2020 04:53:23.000,101.665,-75.134,27874.946652
1 Jan 2020 04:53:53.000,103.299,-75.153,27784.606337
1 Jan 2020 04:54:23.000,104.953,-75.174,27697.811780
1 Jan 2020 04:54:53.000,106.626,-75.196,27614.659275
1 Jan 2020 04:55:23.000,108.319,-75.218,27535.240803
1 Jan 2020 04:55:53.000,110.031,-75.242,27459.642834
1 Jan 2020 04:56:23.000,111.762,-75.266,27387.946740
1 Jan 2020 04:56:53.000,113.512,-75.290,27320.228412
1 Jan 2020 04:57:23.000,115.279,-75.314,27256.558048
1 Jan 2020 04:57:53.000,117.063,-75.337,27196.999952
1 Jan 2020 04:58:23.000,118.863,-75.360,27141.612354
1 Jan 2020 04:58:53.000,120.680,-75.382,27090.447119
1 Jan 2020 04:59:23.000,122.510,-75.403,27043.550072
1 Jan 2020 04:59:53.000,124.355,-75.423,27000.960139
1 Jan 2020 05:00:23.000,126.212,-75.441,26962.709715
1 Jan 2020 05:00:53.000,128.080,-75.458,26928.824445
1 Jan 2020 05:01:23.000,129.958,-75.473,26899.323147
1 Jan 2020 05:01:53.000,131.846,-75.485,26874.217757
1 Jan 2020 05:02:23.000,133.741,-75.496,26853.513223
1 Jan 2020 05:02:53.000,135.642,-75.505,26837.207765
1 Jan 2020 05:03:23.000,137.548,-75.511,26825.292471
1 Jan 2020 05:03:53.000,139.458,-75.515,26817.751609
1 Jan 2020 05:04:23.000,141.370,-75.517,26814.562606
1 Jan 2020 05:04:53.000,143.282,-75.517,26815.696126
1 Jan 2020 05:05:23.000,145.194,-75.514,26821.116163
1 Jan 2020 05:05:53.000,147.104,-75.509,26830.780139
1 Jan 2020 05:06:23.000,149.011,-75.502,26844.639125
1 Jan 2020 05:06:53.000,150.913,-75.493,26862.637858
1 Jan 2020 05:07:23.000,152.809,-75.481,26884.715011
1 Jan 2020 05:07:53.000,154.699,-75.469,26910.803358
1 Jan 2020 05:08:23.000,156.581,-75.454,26940.829977
1 Jan 2020 05:08:53.000,158.454,-75.438,26974.716471
1 Jan 2020 05:09:23.000,160.318,-75.420,27012.379196
1 Jan 2020 05:09:53.000,162.171,-75.401,27053.729535
1 Jan 2020 05:10:23.000,164.013,-75.381,27098.674039
1 Jan 2020 05:10:53.000,165.843,-75.361,27147.114845
1 Jan 2020 05:11:23.000,167.660,-75.340,27198.949845
1 Jan 2020 05:11:53.000,169.465,-75.318,27254.072982
1 Jan 2020 05:12:23.000,171.257,-75.296,27312.374523
1 Jan 2020 05:12:53.000,173.035,-75.275,27373.741345
1 Jan 2020 05:13:23.000,174.800,-75.253,27438.057208
1 Jan 2020 05:13:53.000,176.551,-75.232,27505.203040
1 Jan 2020 05:14:23.000,178.288,-75.211,27575.057212
1 Jan 2020 05:14:53.000,180.012,-75.191,27647.495894
1 Jan 2020 05:15:23.000,181.722,-75.173,27722.393023
1 Jan 2020 05:15:53.000,183.419,-75.155,27799.621017
1 Jan 2020 05:16:23.000,185.103,-75.138,27879.050748
1 Jan 2020 05:16:53.000,186.774,-75.123,27960.551865
1 Jan 2020 05:17:23.000,188.432,-75.110,28043.993051
1 Jan 2020 05:17:53.000,190.079,-75.098,28129.242257
1 Jan 2020 05:18:23.000,191.714,-75.089,28216.166942
1 Jan 2020 05:18:53.000,193.337,-75.081,28304.634299
1 Jan 2020 05:19:23.000,194.950,-75.075,28394.511468
1 Jan 2020 05:19:53.000,196.553,-75.071,28485.665747
1 Jan 2020 05:20:23.000,198.146,-75.070,28577.964793
1 Jan 2020 05:20:28.322,198.428,-75.070,28594.447131
1 Jan 2020 06:26:54.430,55.425,-75.061,28592.233248
1 Jan 2020 06:27:24.000,57.132,-75.061,28577.987762
1 Jan 2020 06:27:54.000,58.865,-75.061,28566.587289
1 Jan 2020 06:28:24.000,60.600,-75.061,28558.298223
1 Jan 2020 06:28:54.000,62.335,-75.061,28553.152987
1 Jan 2020 06:29:24.000,64.071,-75.061,28551.179140
1 Jan 2020 06:29:54.000,65.806,-75.061,28552.399298
1 Jan 2020 06:30:24.000,67.541,-75.061,28556.831079
1 Jan 2020 06:30:54.000,69.274,-75.061,28564.487047
1 Jan 2020 06:31:24.000,71.006,-75.061,28575.374681
1 Jan 2020 06:31:54.000,72.735,-75.061,28589.496350
1 Jan 2020 06:31:59.190,73.034,-75.061,28592.267415
1 Jan 2020 07:44:03.216,304.727,-75.068,28594.481411
1 Jan 2020 07:44:33.000,305.950,-75.071,28437.907860
1 Jan 2020 07:45:03.000,307.191,-75.081,28280.278718
1 Jan 2020 07:45:33.000,308.440,-75.097,28122.893314
1 Jan 2020 07:46:03.000,309.701,-75.121,27965.918202
1 Jan 2020 07:46:33.000,310.973,-75.151,27809.523151
1 Jan 2020 07:47:03.000,312.260,-75.188,27653.881041
1 Jan 2020 07:47:33.000,313.562,-75.232,27499.167739
1 Jan 2020 07:48:03.000,314.881,-75.283,27345.561959
1 Jan 2020 07:48:33.000,316.218,-75.341,27193.245109
1 Jan 2020 07:49:03.000,317.576,-75.405,27042.401111
1 Jan 2020 07:49:33.000,318.956,-75.476,26893.216214
1 Jan 2020 07:50:03.000,320.361,-75.554,26745.878775
1 Jan 2020 07:50:33.000,321.791,-75.639,26600.579027
1 Jan 2020 07:51:03.000,323.250,-75.729,26457.508822
1 Jan 2020 07:51:33.000,324.739,-75.825,26316.861351
1 Jan 2020 07:52:03.000,326.260,-75.928,26178.830840
1 Jan 2020 07:52:33.000,327.815,-76.035,26043.612229
1 Jan 2020 07:53:03.000,329.407,-76.148,25911.400816
1 Jan 2020 07:53:33.000,331.038,-76.265,25782.391694
1 Jan 2020 07:54:03.000,332.709,-76.386,25656.780130
1 Jan 2020 07:54:33.000,334.425,-76.511,25534.759965
1 Jan 2020 07:55:03.000,336.185,-76.639,25416.523964
1 Jan 2020 07:55:33.000,337.993,-76.770,25302.263148
1 Jan 2020 07:56:03.000,339.851,-76.902,25192.166306
1 Jan 2020 07:56:33.000,341.760,-77.035,25086.419493
1 Jan 2020 07:57:03.000,343.722,-77.169,24985.205503
1 Jan 2020 07:57:33.000,345.740,-77.302,24888.703197
1 Jan 2020 07:58:03.000,347.813,-77.433,24797.087506
1 Jan 2020 07:58:33.000,349.944,-77.562,24710.528029
1 Jan 2020 07:59:03.000,352.132,-77.689,24629.189036
1 Jan 2020 07:59:33.000,354.377,-77.810,24553.228758
1 Jan 2020 08:00:03.000,356.679,-77.927,24482.798823
1 Jan 2020 08:00:33.000,359.038,-78.038,24418.043619
1 Jan 2020 08:01:03.000,1.450,-78.141,24359.100047
1 Jan 2020 08:01:33.000,3.914,-78.237,24306.096523
1 Jan 2020 08:02:03.000,6.426,-78.323,24259.152780
1 Jan 2020 08:02:33.000,8.983,-78.400,24218.379294
1 Jan 2020 08:03:03.000,11.579,-78.465,24183.876806
1 Jan 2020 08:03:33.000,14.209,-78.520,24155.735972
1 Jan 2020 08:04:03.000,16.867,-78.562,24134.036834
1 Jan 2020 08:04:33.000,19.546,-78.592,24118.848571
1 Jan 2020 08:05:03.000,22.239,-78.609,24110.229167
1 Jan 2020 08:05:33.000,24.937,-78.613,24108.225188
1 Jan 2020 08:06:03.000,27.634,-78.604,24112.871437
1 Jan 2020 08:06:33.000,30.320,-78.581,24124.190996
1 Jan 2020 08:07:03.000,32.989,-78.546,24142.195005
1 Jan 2020 08:07:33.000,35.633,-78.498,24166.882648
1 Jan 2020 08:08:03.000,38.245,-78.437,24198.241261
1 Jan 2020 08:08:33.000,40.818,-78.365,24236.246029
1 Jan 2020 08:09:03.000,43.347,-78.282,24280.860646
1 Jan 2020 08:09:33.000,45.826,-78.188,24332.037147
1 Jan 2020 08:10:03.000,48.250,-78.086,24389.716214
1 Jan 2020 08:10:33.000,50.617,-77.975,24453.827597
1 Jan 2020 08:11:03.000,52.923,-77.856,24524.289867
1 Jan 2020 08:11:33.000,55.166,-77.732,24601.011612
1 Jan 2020 08:12:03.000,57.344,-77.601,24683.891289
1 Jan 2020 08:12:33.000,59.458,-77.467,24772.817791
1 Jan 2020 08:13:03.000,61.505,-77.329,24867.670906
1 Jan 2020 08:13:33.000,63.488,-77.189,24968.322025
1 Jan 2020 08:14:03.000,65.406,-77.048,25074.633768
1 Jan 2020 08:14:33.000,67.260,-76.906,25186.461810
1 Jan 2020 08:15:03.000,69.052,-76.765,25303.654550
1 Jan 2020 08:15:33.000,70.783,-76.626,25426.053864
1 Jan 2020 08:16:03.000,72.456,-76.489,25553.495644
1 Jan 2020 08:16:33.000,74.071,-76.355,25685.810339
1 Jan 2020 08:17:03.000,75.632,-76.225,25822.823764
1 Jan 2020 08:17:33.000,77.140,-76.099,25964.356531
1 Jan 2020 08:18:03.000,78.597,-75.978,26110.226198
1 Jan 2020 08:18:33.000,80.005,-75.863,26260.246692
1 Jan 2020 08:19:03.000,81.367,-75.755,26414.229059
1 Jan 2020 08:19:33.000,82.684,-75.653,26571.981941
1 Jan 2020 08:20:03.000,83.959,-75.558,26733.312019
1 Jan 2020 08:20:33.000,85.194,-75.470,26898.024447
1 Jan 2020 08:21:03.000,86.391,-75.391,27065.923260
1 Jan 2020 08:21:33.000,87.551,-75.319,27236.812050
1 Jan 2020 08:22:03.000,88.677,-75.256,27410.493172
1 Jan 2020 08:22:33.000,89.770,-75.202,27586.769822
1 Jan 2020 08:23:03.000,90.832,-75.156,27765.445198
1 Jan 2020 08:23:33.000,91.865,-75.120,27946.323093
1 Jan 2020 08:24:03.000,92.870,-75.092,28129.208165
1 Jan 2020 08:24:33.000,93.848,-75.074,28313.906193
1 Jan 2020 08:25:03.000,94.803,-75.064,28500.224312
1 Jan 2020 08:25:18.270,95.279,-75.063,28595.623048
1 Jan 2020 09:28:32.771,283.280,-75.072,28600.394986
1 Jan 2020 09:29:02.000,283.334,-75.078,28383.466310
1 Jan 2020 09:29:32.000,283.379,-75.098,28160.935101
1 Jan 2020 09:30:02.000,283.412,-75.131,27938.725748
1 Jan 2020 09:30:32.000,283.435,-75.178,27717.047370
1 Jan 2020 09:31:02.000,283.445,-75.239,27496.113725
1 Jan 2020 09:31:32.000,283.444,-75.315,27276.143165
1 Jan 2020 09:32:02.000,283.431,-75.406,27057.358559
1 Jan 2020 09:32:32.000,283.405,-75.512,26839.987204
1 Jan 2020 09:33:02.000,283.366,-75.633,26624.260704
1 Jan 2020 09:33:32.000,283.313,-75.769,26410.414833
1 Jan 2020 09:34:02.000,283.247,-75.922,26198.689355
1 Jan 2020 09:34:32.000,283.166,-76.091,25989.327828
1 Jan 2020 09:35:02.000,283.069,-76.276,25782.577361
1 Jan 2020 09:35:32.000,282.955,-76.477,25578.688342
1 Jan 2020 09:36:02.000,282.824,-76.695,25377.914124
1 Jan 2020 09:36:32.000,282.674,-76.929,25180.510342
1 Jan 2020 09:37:02.000,282.504,-77.180,24986.735839
1 Jan 2020 09:37:32.000,282.312,-77.448,24796.850223
1 Jan 2020 09:38:02.000,282.096,-77.733,24611.114714
1 Jan 2020 09:38:32.000,281.853,-78.034,24429.791268
1 Jan 2020 09:39:02.000,281.582,-78.352,24253.141980
1 Jan 2020 09:39:32.000,281.279,-78.686,24081.428449
1 Jan 2020 09:40:02.000,280.940,-79.037,23914.910774
1 Jan 2020 09:40:32.000,280.561,-79.403,23753.848048
1 Jan 2020 09:41:02.000,280.136,-79.786,23598.495698
1 Jan 2020 09:41:32.000,279.659,-80.183,23449.105907
1 Jan 2020 09:42:02.000,279.123,-80.595,23305.926414
1 Jan 2020 09:42:32.000,278.517,-81.022,23169.199366
1 Jan 2020 09:43:02.000,277.830,-81.461,23039.161308
1 Jan 2020 09:43:32.000,277.046,-81.914,22916.040778
1 Jan 2020 09:44:02.000,276.147,-82.379,22800.058275
1 Jan 2020 09:44:32.000,275.107,-82.854,22691.425007
1 Jan 2020 09:45:02.000,273.894,-83.339,22590.341682
1 Jan 2020 09:45:32.000,272.464,-83.831,22496.998323
1 Jan 2020 09:46:02.000,270.759,-84.330,22411.572043
1 Jan 2020 09:46:32.000,268.697,-84.833,22334.226939
1 Jan 2020 09:47:02.000,266.162,-85.336,22265.112847
1 Jan 2020 09:47:32.000,262.985,-85.836,22204.364982
1 Jan 2020 09:48:02.000,258.920,-86.326,22152.102385
1 Jan 2020 09:48:32.000,253.595,-86.798,22108.427729
1 Jan 2020 09:49:02.000,246.468,-87.239,22073.426498
1 Jan 2020 09:49:32.000,236.808,-87.624,22047.166717
1 Jan 2020 09:50:02.000,223.894,-87.922,22029.698101
1 Jan 2020 09:50:32.000,207.767,-88.086,22021.052031
1 Jan 2020 09:51:02.000,190.243,-88.082,22021.241277
1 Jan 2020 09:51:32.000,174.241,-87.910,22030.259919
1 Jan 2020 09:52:02.000,161.484,-87.608,22048.083342
1 Jan 2020 09:52:32.000,151.946,-87.220,22074.668435
1 Jan 2020 09:53:02.000,144.894,-86.778,22109.953912
1 Jan 2020 09:53:32.000,139.604,-86.306,22153.860440
1 Jan 2020 09:54:02.000,135.543,-85.816,22206.291491
1 Jan 2020 09:54:32.000,132.349,-85.318,22267.133704
1 Jan 2020 09:55:02.000,129.778,-84.816,22336.257747
1 Jan 2020 09:55:32.000,127.666,-84.315,22413.518592
1 Jan 2020 09:56:02.000,125.898,-83.819,22498.757053
1 Jan 2020 09:56:32.000,124.394,-83.328,22591.800218
1 Jan 2020 09:57:02.000,123.096,-82.846,22692.462668
1 Jan 2020 09:57:32.000,121.961,-82.374,22800.546800
1 Jan 2020 09:58:02.000,120.957,-81.912,22915.844782
1 Jan 2020 09:58:32.000,120.060,-81.462,23038.138939
1 Jan 2020 09:59:02.000,119.249,-81.025,23167.202922
1 Jan 2020 09:59:32.000,118.511,-80.601,23302.802960
1 Jan 2020 10:00:02.000,117.833,-80.192,23444.697896
1 Jan 2020 10:00:32.000,117.205,-79.797,23592.641572
1 Jan 2020 10:01:02.000,116.620,-79.418,23746.382836
1 Jan 2020 10:01:32.000,116.072,-79.054,23905.666677
1 Jan 2020 10:02:02.000,115.554,-78.705,24070.235084
1 Jan 2020 10:02:32.000,115.062,-78.373,24239.828152
1 Jan 2020 10:03:02.000,114.593,-78.057,24414.183715
1 Jan 2020 10:03:32.000,114.143,-77.758,24593.039754
1 Jan 2020 10:04:02.000,113.710,-77.475,24776.133953
1 Jan 2020 10:04:32.000,113.290,-77.208,24963.204590
1 Jan 2020 10:05:02.000,112.882,-76.958,25153.991104
1 Jan 2020 10:05:32.000,112.483,-76.725,25348.234616
1 Jan 2020 10:06:02.000,112.093,-76.507,25545.678390
1 Jan 2020 10:06:32.000,111.710,-76.306,25746.068260
1 Jan 2020 10:07:02.000,111.332,-76.121,25949.153004
1 Jan 2020 10:07:32.000,110.958,-75.952,26154.685013
1 Jan 2020 10:08:02.000,110.587,-75.798,26362.419230
1 Jan 2020 10:08:32.000,110.218,-75.660,26572.115430
1 Jan 2020 10:09:02.000,109.851,-75.537,26783.537093
1 Jan 2020 10:09:32.000,109.483,-75.429,26996.451923
1 Jan 2020 10:10:02.000,109.116,-75.336,27210.632003
1 Jan 2020 10:10:32.000,108.747,-75.257,27425.853923
1 Jan 2020 10:11:02.000,108.376,-75.192,27641.898881
1 Jan 2020 10:11:32.000,108.002,-75.141,27858.552763
1 Jan 2020 10:12:02.000,107.625,-75.103,28075.606202
1 Jan 2020 10:12:32.000,107.244,-75.079,28292.854616
1 Jan 2020 10:13:02.000,106.859,-75.068,28510.098232
1 Jan 2020 10:13:14.763,106.693,-75.066,28602.472548
1 Jan 2020 11:17:04.604,272.870,-75.076,28607.536542
1 Jan 2020 11:17:34.000,271.678,-75.079,28451.675183
1 Jan 2020 11:18:04.000,270.439,-75.089,28294.679976
1 Jan 2020 11:18:34.000,269.176,-75.105,28139.945617
1 Jan 2020 11:19:04.000,267.887,-75.127,27987.641861
1 Jan 2020 11:19:34.000,266.570,-75.156,27837.937755
1 Jan 2020 11:20:04.000,265.226,-75.190,27691.001350
1 Jan 2020 11:20:34.000,263.853,-75.230,27546.999394
1 Jan 2020 11:21:04.000,262.449,-75.275,27406.097017
1 Jan 2020 11:21:34.000,261.014,-75.324,27268.457404
1 Jan 2020 11:22:04.000,259.547,-75.379,27134.241450
1 Jan 2020 11:22:34.000,258.047,-75.437,27003.607169
1 Jan 2020 11:23:04.000,256.512,-75.500,26876.710289
1 Jan 2020 11:23:34.000,254.943,-75.565,26753.702437
1 Jan 2020 11:24:04.000,253.337,-75.634,26634.731725
1 Jan 2020 11:24:34.000,251.695,-75.705,26519.942123
1 Jan 2020 11:25:04.000,250.017,-75.778,26409.473069
1 Jan 2020 11:25:34.000,248.300,-75.853,26303.459080
1 Jan 2020 11:26:04.000,246.546,-75.928,26202.029166
1 Jan 2020 11:26:34.000,244.755,-76.004,26105.307222
1 Jan 2020 11:27:04.000,242.926,-76.079,26013.410470
1 Jan 2020 11:27:34.000,241.059,-76.154,25926.449873
1 Jan 2020 11:28:04.000,239.156,-76.227,25844.529574
1 Jan 2020 11:28:34.000,237.216,-76.299,25767.746545
1 Jan 2020 11:29:04.000,235.241,-76.368,25696.190104
1 Jan 2020 11:29:34.000,233.233,-76.434,25629.942198
1 Jan 2020 11:30:04.000,231.192,-76.496,25569.076201
1 Jan 2020 11:30:34.000,229.120,-76.555,25513.657255
1 Jan 2020 11:31:04.000,227.020,-76.609,25463.741877
1 Jan 2020 11:31:34.000,224.894,-76.658,25419.377735
1 Jan 2020 11:32:04.000,222.743,-76.701,25380.603370
1 Jan 2020 11:32:34.000,220.572,-76.739,25347.448460
1 Jan 2020 11:33:04.000,218.383,-76.771,25319.933061
1 Jan 2020 11:33:34.000,216.178,-76.797,25298.067964
1 Jan 2020 11:34:04.000,213.962,-76.816,25281.854538
1 Jan 2020 11:34:34.000,211.737,-76.828,25271.284722
1 Jan 2020 11:35:04.000,209.508,-76.834,25266.341008
1 Jan 2020 11:35:34.000,207.277,-76.833,25266.996704
1 Jan 2020 11:36:04.000,205.047,-76.826,25273.215726
1 Jan 2020 11:36:34.000,202.823,-76.812,25284.952959
1 Jan 2020 11:37:04.000,200.607,-76.791,25302.154364
1 Jan 2020 11:37:34.000,198.402,-76.764,25324.757196
1 Jan 2020 11:38:04.000,196.212,-76.732,25352.690245
1 Jan 2020 11:38:34.000,194.038,-76.694,25385.874069
1 Jan 2020 11:39:04.000,191.885,-76.651,25424.221333
1 Jan 2020 11:39:34.000,189.752,-76.603,25467.637104
1 Jan 2020 11:40:04.000,187.644,-76.550,25516.019200
1 Jan 2020 11:40:34.000,185.560,-76.494,25569.258543
1 Jan 2020 11:41:04.000,183.504,-76.434,25627.239542
1 Jan 2020 11:41:34.000,181.475,-76.371,25689.840553
1 Jan 2020 11:42:04.000,179.475,-76.306,25756.933994
1 Jan 2020 11:42:34.000,177.505,-76.239,25828.387171
1 Jan 2020 11:43:04.000,175.564,-76.170,25904.062420
1 Jan 2020 11:43:34.000,173.654,-76.101,25983.817594
1 Jan 2020 11:44:04.000,171.774,-76.031,26067.506472
1 Jan 2020 11:44:34.000,169.923,-75.960,26154.979179
1 Jan 2020 11:45:04.000,168.103,-75.891,26246.082595
1 Jan 2020 11:45:34.000,166.312,-75.822,26340.660874
1 Jan 2020 11:46:04.000,164.549,-75.754,26438.555371
1 Jan 2020 11:46:34.000,162.814,-75.688,26539.605726
1 Jan 2020 11:47:04.000,161.106,-75.624,26643.649777
1 Jan 2020 11:47:34.000,159.425,-75.562,26750.524034
1 Jan 2020 11:48:04.000,157.768,-75.503,26860.064031
1 Jan 2020 11:48:34.000,156.136,-75.447,26972.104655
1 Jan 2020 11:49:04.000,154.527,-75.394,27086.480470
1 Jan 2020 11:49:34.000,152.940,-75.345,27203.026016
1 Jan 2020 11:50:04.000,151.374,-75.299,27321.576100
1 Jan 2020 11:50:34.000,149.828,-75.257,27441.966068
1 Jan 2020 11:51:04.000,148.301,-75.219,27564.032057
1 Jan 2020 11:51:34.000,146.791,-75.185,27687.611241
1 Jan 2020 11:52:04.000,145.297,-75.155,27812.542051
1 Jan 2020 11:52:34.000,143.819,-75.130,27938.664384
1 Jan 2020 11:53:04.000,142.354,-75.109,28065.819802
1 Jan 2020 11:53:34.000,140.902,-75.092,28193.851703
1 Jan 2020 11:54:04.000,139.463,-75.080,28322.605497
1 Jan 2020 11:54:34.000,138.033,-75.073,28451.928927
1 Jan 2020 11:55:04.000,136.614,-75.069,28581.671494
1 Jan 2020 11:55:10.183,136.322,-75.069,28608.451444
1 Jan 2020 14:15:59.594,39.093,-75.074,28610.663037
1 Jan 2020 14:16:29.000,37.657,-75.076,28491.846277
1 Jan 2020 14:16:59.000,36.182,-75.082,28371.137181
1 Jan 2020 14:17:29.000,34.697,-75.092,28251.087539
1 Jan 2020 14:17:59.000,33.201,-75.106,28131.845155
1 Jan 2020 14:18:29.000,31.692,-75.123,28013.559656
1 Jan 2020 14:18:59.000,30.170,-75.144,27896.382323
1 Jan 2020 14:19:29.000,28.633,-75.169,27780.465925
1 Jan 2020 14:19:59.000,27.080,-75.197,27665.964523
1 Jan 2020 14:20:29.000,25.512,-75.229,27553.033272
1 Jan 2020 14:20:59.000,23.926,-75.264,27441.828202
1 Jan 2020 14:21:29.000,22.321,-75.302,27332.505994
1 Jan 2020 14:21:59.000,20.698,-75.343,27225.223731
1 Jan 2020 14:22:29.000,19.054,-75.387,27120.138643
1 Jan 2020 14:22:59.000,17.389,-75.433,27017.407834
1 Jan 2020 14:23:29.000,15.702,-75.482,26917.187998
1 Jan 2020 14:23:59.000,13.993,-75.533,26819.635120
1 Jan 2020 14:24:29.000,12.261,-75.585,26724.904162
1 Jan 2020 14:24:59.000,10.505,-75.639,26633.148630
1 Jan 2020 14:25:29.000,8.725,-75.693,26544.520695
1 Jan 2020 14:25:59.000,6.920,-75.749,26459.170149
1 Jan 2020 14:26:29.000,5.090,-75.805,26377.244524
1 Jan 2020 14:26:59.000,3.235,-75.861,26298.888606
1 Jan 2020 14:27:29.000,1.355,-75.916,26224.244067
1 Jan 2020 14:27:59.000,359.450,-75.971,26153.449088
1 Jan 2020 14:28:29.000,357.521,-76.024,26086.637985
1 Jan 2020 14:28:59.000,355.567,-76.076,26023.940766
1 Jan 2020 14:29:29.000,353.590,-76.126,25965.482995
1 Jan 2020 14:29:59.000,351.590,-76.174,25911.385045
1 Jan 2020 14:30:29.000,349.569,-76.218,25861.761981
1 Jan 2020 14:30:59.000,347.528,-76.260,25816.723131
1 Jan 2020 14:31:29.000,345.467,-76.298,25776.371731
1 Jan 2020 14:31:59.000,343.390,-76.332,25740.804589
1 Jan 2020 14:32:29.000,341.297,-76.362,25710.111744
1 Jan 2020 14:32:59.000,339.191,-76.387,25684.376198
1 Jan 2020 14:33:29.000,337.074,-76.408,25663.673560
1 Jan 2020 14:33:59.000,334.948,-76.423,25648.071828
1 Jan 2020 14:34:29.000,332.816,-76.434,25637.631130
1 Jan 2020 14:34:59.000,330.680,-76.439,25632.403510
1 Jan 2020 14:35:29.000,328.544,-76.439,25632.432772
1 Jan 2020 14:35:59.000,326.409,-76.434,25637.754166
1 Jan 2020 14:36:29.000,324.278,-76.423,25648.394481
1 Jan 2020 14:36:59.000,322.155,-76.407,25664.371804
1 Jan 2020 14:37:29.000,320.041,-76.386,25685.695483
1 Jan 2020 14:37:59.000,317.940,-76.360,25712.366098
1 Jan 2020 14:38:29.000,315.854,-76.329,25744.375552
1 Jan 2020 14:38:59.000,313.785,-76.293,25781.706732
1 Jan 2020 14:39:29.000,311.736,-76.254,25824.334116
1 Jan 2020 14:39:59.000,309.709,-76.210,25872.223515
1 Jan 2020 14:40:29.000,307.705,-76.162,25925.332286
1 Jan 2020 14:40:59.000,305.727,-76.112,25983.609490
1 Jan 2020 14:41:29.000,303.775,-76.058,26046.996208
1 Jan 2020 14:41:59.000,301.853,-76.002,26115.425214
1 Jan 2020 14:42:29.000,299.959,-75.945,26188.822010
1 Jan 2020 14:42:59.000,298.096,-75.886,26267.104553
1 Jan 2020 14:43:29.000,296.264,-75.826,26350.183664
1 Jan 2020 14:43:59.000,294.464,-75.765,26437.963324
1 Jan 2020 14:44:29.000,292.696,-75.704,26530.340981
1 Jan 2020 14:44:59.000,290.960,-75.644,26627.208067
1 Jan 2020 14:45:29.000,289.257,-75.585,26728.449570
1 Jan 2020 14:45:59.000,287.586,-75.527,26833.945511
1 Jan 2020 14:46:29.000,285.948,-75.471,26943.570543
1 Jan 2020 14:46:59.000,284.341,-75.417,27057.194488
1 Jan 2020 14:47:29.000,282.765,-75.366,27174.682693
1 Jan 2020 14:47:59.000,281.221,-75.318,27295.896386
1 Jan 2020 14:48:29.000,279.706,-75.274,27420.693026
1 Jan 2020 14:48:59.000,278.221,-75.233,27548.926653
1 Jan 2020 14:49:29.000,276.765,-75.196,27680.448473
1 Jan 2020 14:49:59.000,275.337,-75.164,27815.106235
1 Jan 2020 14:50:29.000,273.936,-75.137,27952.745992
1 Jan 2020 14:50:59.000,272.561,-75.114,28093.211472
1 Jan 2020 14:51:29.000,271.212,-75.097,28236.344624
1 Jan 2020 14:51:59.000,269.886,-75.085,28381.985916
1 Jan 2020 14:52:29.000,268.585,-75.079,28529.974625
1 Jan 2020 14:52:45.047,267.897,-75.078,28610.039749
1 Jan 2020 15:56:51.529,72.138,-75.070,28605.878800
1 Jan 2020 15:57:21.000,71.663,-75.076,28395.649555
1 Jan 2020 15:57:51.000,71.181,-75.094,28181.519064
1 Jan 2020 15:58:21.000,70.702,-75.125,27967.456682
1 Jan 2020 15:58:51.000,70.225,-75.169,27753.662428
1 Jan 2020 15:59:21.000,69.748,-75.226,27540.341103
1 Jan 2020 15:59:51.000,69.270,-75.297,27327.702254
1 Jan 2020 16:00:21.000,68.791,-75.381,27115.960130
1 Jan 2020 16:00:51.000,68.310,-75.480,26905.333607
1 Jan 2020 16:01:21.000,67.826,-75.593,26696.046102
1 Jan 2020 16:01:51.000,67.336,-75.720,26488.325460
1 Jan 2020 16:02:21.000,66.841,-75.863,26282.403808
1 Jan 2020 16:02:51.000,66.338,-76.021,26078.517394
1 Jan 2020 16:03:21.000,65.826,-76.193,25876.906380
1 Jan 2020 16:03:51.000,65.304,-76.382,25677.814615
1 Jan 2020 16:04:21.000,64.770,-76.585,25481.489359
1 Jan 2020 16:04:51.000,64.221,-76.805,25288.180983
1 Jan 2020 16:05:21.000,63.655,-77.040,25098.142318
1 Jan 2020 16:05:51.000,63.070,-77.291,24911.629453
1 Jan 2020 16:06:21.000,62.463,-77.558,24728.899509
1 Jan 2020 16:06:51.000,61.830,-77.840,24550.211348
1 Jan 2020 16:07:21.000,61.168,-78.138,24375.824747
1 Jan 2020 16:07:51.000,60.471,-78.452,24205.999807
1 Jan 2020 16:08:21.000,59.736,-78.781,24040.996329
1 Jan 2020 16:08:51.000,58.956,-79.124,23881.072851
1 Jan 2020 16:09:21.000,58.123,-79.482,23726.487020
1 Jan 2020 16:09:51.000,57.230,-79.854,23577.493151
1 Jan 2020 16:10:21.000,56.267,-80.240,23434.342515
1 Jan 2020 16:10:51.000,55.221,-80.638,23297.282196
1 Jan 2020 16:11:21.000,54.078,-81.049,23166.553978
1 Jan 2020 16:11:51.000,52.820,-81.470,23042.394236
1 Jan 2020 16:12:21.000,51.426,-81.902,22925.031717
1 Jan 2020 16:12:51.000,49.868,-82.342,22814.687400
1 Jan 2020 16:13:21.000,48.112,-82.788,22711.573291
1 Jan 2020 16:13:51.000,46.115,-83.240,22615.891253
1 Jan 2020 16:14:21.000,43.822,-83.694,22527.832707
1 Jan 2020 16:14:51.000,41.163,-84.148,22447.576605
1 Jan 2020 16:15:21.000,38.047,-84.597,22375.289198
1 Jan 2020 16:15:51.000,34.359,-85.036,22311.122863
1 Jan 2020 16:16:21.000,29.952,-85.459,22255.215637
1 Jan 2020 16:16:51.000,24.651,-85.858,22207.689817
1 Jan 2020 16:17:21.000,18.260,-86.220,22168.651665
1 Jan 2020 16:17:51.000,10.601,-86.532,22138.190627
1 Jan 2020 16:18:21.000,1.597,-86.775,22116.378955
1 Jan 2020 16:18:51.000,351.396,-86.930,22103.270993
1 Jan 2020 16:19:21.000,340.468,-86.984,22098.903041
1 Jan 2020 16:19:51.000,329.540,-86.931,22103.293103
1 Jan 2020 16:20:21.000,319.339,-86.775,22116.440691
1 Jan 2020 16:20:51.000,310.340,-86.531,22138.326941
1 Jan 2020 16:21:21.000,302.693,-86.219,22168.914686
1 Jan 2020 16:21:51.000,296.323,-85.856,22208.148791
1 Jan 2020 16:22:21.000,291.054,-85.455,22255.956164
1 Jan 2020 16:22:51.000,286.689,-85.030,22312.246703
1 Jan 2020 16:23:21.000,283.052,-84.588,22376.913540
1 Jan 2020 16:23:51.000,279.997,-84.137,22449.833902
1 Jan 2020 16:24:21.000,277.407,-83.680,22530.869272
1 Jan 2020 16:24:51.000,275.193,-83.223,22619.867013
1 Jan 2020 16:25:21.000,273.283,-82.768,22716.660685
1 Jan 2020 16:25:51.000,271.623,-82.318,22821.071266
1 Jan 2020 16:26:21.000,270.169,-81.874,22932.907365
1 Jan 2020 16:26:51.000,268.888,-81.439,23051.967264
1 Jan 2020 16:27:21.000,267.752,-81.014,23178.039195
1 Jan 2020 16:27:51.000,266.740,-80.600,23310.902505
1 Jan 2020 16:28:21.000,265.833,-80.198,23450.328899
1 Jan 2020 16:28:51.000,265.018,-79.809,23596.082377
1 Jan 2020 16:29:21.000,264.282,-79.434,23747.921718
1 Jan 2020 16:29:51.000,263.615,-79.073,23905.600395
1 Jan 2020 16:30:21.000,263.010,-78.726,24068.867708
1 Jan 2020 16:30:51.000,262.459,-78.395,24237.469641
1 Jan 2020 16:31:21.000,261.957,-78.079,24411.149968
1 Jan 2020 16:31:51.000,261.498,-77.779,24589.649813
1 Jan 2020 16:32:21.000,261.078,-77.495,24772.710164
1 Jan 2020 16:32:51.000,260.694,-77.227,24960.071347
1 Jan 2020 16:33:21.000,260.342,-76.976,25151.473940
1 Jan 2020 16:33:51.000,260.019,-76.740,25346.659344
1 Jan 2020 16:34:21.000,259.724,-76.521,25545.370297
1 Jan 2020 16:34:51.000,259.454,-76.318,25747.351352
1 Jan 2020 16:35:21.000,259.208,-76.131,25952.349299
1 Jan 2020 16:35:51.000,258.983,-75.959,26160.113549
1 Jan 2020 16:36:21.000,258.779,-75.804,26370.396834
1 Jan 2020 16:36:51.000,258.593,-75.665,26582.954065
1 Jan 2020 16:37:21.000,258.426,-75.540,26797.544752
1 Jan 2020 16:37:51.000,258.276,-75.431,27013.931795
1 Jan 2020 16:38:21.000,258.142,-75.338,27231.882040
1 Jan 2020 16:38:51.000,258.024,-75.259,27451.166438
1 Jan 2020 16:39:21.000,257.920,-75.194,27671.560187
1 Jan 2020 16:39:51.000,257.831,-75.144,27892.842840
1 Jan 2020 16:40:21.000,257.755,-75.107,28114.798395
1 Jan 2020 16:40:51.000,257.693,-75.085,28337.215361
1 Jan 2020 16:41:21.000,257.644,-75.075,28559.886812
1 Jan 2020 16:41:26.931,257.636,-75.075,28603.918459
1 Jan 2020 17:44:36.041,84.003,-75.066,28598.676982
1 Jan 2020 17:45:06.000,84.854,-75.071,28404.905092
1 Jan 2020 17:45:36.000,85.730,-75.086,28212.218218
1 Jan 2020 17:46:06.000,86.631,-75.111,28021.078997
1 Jan 2020 17:46:36.000,87.558,-75.146,27831.686075
1 Jan 2020 17:47:06.000,88.514,-75.190,27644.239884
1 Jan 2020 17:47:36.000,89.500,-75.245,27458.942415
1 Jan 2020 17:48:06.000,90.517,-75.309,27275.996976
1 Jan 2020 17:48:36.000,91.568,-75.383,27095.607923
1 Jan 2020 17:49:06.000,92.655,-75.466,26917.980364
1 Jan 2020 17:49:36.000,93.779,-75.558,26743.319841
1 Jan 2020 17:50:06.000,94.943,-75.659,26571.831995
1 Jan 2020 17:50:36.000,96.149,-75.768,26403.722189
1 Jan 2020 17:51:06.000,97.399,-75.886,26239.194809
1 Jan 2020 17:51:36.000,98.697,-76.011,26078.454102
1 Jan 2020 17:52:06.000,100.044,-76.143,25921.701835
1 Jan 2020 17:52:36.000,101.443,-76.282,25769.138098
1 Jan 2020 17:53:06.000,102.896,-76.428,25620.960498
1 Jan 2020 17:53:36.000,104.408,-76.578,25477.363640
1 Jan 2020 17:54:06.000,105.979,-76.734,25338.538599
1 Jan 2020 17:54:36.000,107.614,-76.893,25204.672112
1 Jan 2020 17:55:06.000,109.314,-77.056,25075.947051
1 Jan 2020 17:55:36.000,111.083,-77.221,24952.540271
1 Jan 2020 17:56:06.000,112.923,-77.387,24834.623078
1 Jan 2020 17:56:36.000,114.837,-77.554,24722.360373
1 Jan 2020 17:57:06.000,116.826,-77.719,24615.910057
1 Jan 2020 17:57:36.000,118.892,-77.883,24515.422223
1 Jan 2020 17:58:06.000,121.036,-78.043,24421.039444
1 Jan 2020 17:58:36.000,123.260,-78.200,24332.894882
1 Jan 2020 17:59:06.000,125.562,-78.350,24251.112625
1 Jan 2020 17:59:36.000,127.943,-78.494,24175.806933
1 Jan 2020 18:00:06.000,130.401,-78.629,24107.081592
1 Jan 2020 18:00:36.000,132.933,-78.755,24045.030037
1 Jan 2020 18:01:06.000,135.536,-78.870,23989.734019
1 Jan 2020 18:01:36.000,138.204,-78.974,23941.263833
1 Jan 2020 18:02:06.000,140.933,-79.065,23899.677823
1 Jan 2020 18:02:36.000,143.714,-79.142,23865.022005
1 Jan 2020 18:03:06.000,146.539,-79.205,23837.330216
1 Jan 2020 18:03:36.000,149.401,-79.252,23816.623351
1 Jan 2020 18:04:06.000,152.289,-79.284,23802.909654
1 Jan 2020 18:04:36.000,155.192,-79.299,23796.184566
1 Jan 2020 18:05:06.000,158.101,-79.299,23796.430707
1 Jan 2020 18:05:36.000,161.004,-79.282,23803.618079
1 Jan 2020 18:06:06.000,163.892,-79.250,23817.703989
1 Jan 2020 18:06:36.000,166.754,-79.202,23838.633403
1 Jan 2020 18:07:06.000,169.582,-79.140,23866.339159
1 Jan 2020 18:07:36.000,172.366,-79.064,23900.742309
1 Jan 2020 18:08:06.000,175.101,-78.974,23941.752369
1 Jan 2020 18:08:36.000,177.779,-78.873,23989.267885
1 Jan 2020 18:09:06.000,180.395,-78.761,24043.176796
1 Jan 2020 18:09:36.000,182.946,-78.639,24103.356950
1 Jan 2020 18:10:06.000,185.428,-78.508,24169.676714
1 Jan 2020 18:10:36.000,187.841,-78.370,24241.995206
1 Jan 2020 18:11:06.000,190.182,-78.225,24320.163349
1 Jan 2020 18:11:36.000,192.452,-78.076,24404.024160
1 Jan 2020 18:12:06.000,194.652,-77.923,24493.413440
1 Jan 2020 18:12:36.000,196.782,-77.767,24588.160387
1 Jan 2020 18:13:06.000,198.844,-77.609,24688.088362
1 Jan 2020 18:13:36.000,200.840,-77.451,24793.014942
1 Jan 2020 18:14:06.000,202.773,-77.294,24902.753368
1 Jan 2020 18:14:36.000,204.646,-77.137,25017.112603
1 Jan 2020 18:15:06.000,206.460,-76.983,25135.898049
1 Jan 2020 18:15:36.000,208.219,-76.832,25258.912125
1 Jan 2020 18:16:06.000,209.925,-76.684,25385.954822
1 Jan 2020 18:16:36.000,211.582,-76.540,25516.824228
1 Jan 2020 18:17:06.000,213.192,-76.401,25651.317249
1 Jan 2020 18:17:36.000,214.758,-76.268,25789.229273
1 Jan 2020 18:18:06.000,216.283,-76.140,25930.355847
1 Jan 2020 18:18:36.000,217.770,-76.019,26074.492300
1 Jan 2020 18:19:06.000,219.221,-75.904,26221.434353
1 Jan 2020 18:19:36.000,220.639,-75.796,26370.978491
1 Jan 2020 18:20:06.000,222.025,-75.695,26522.922320
1 Jan 2020 18:20:36.000,223.383,-75.601,26677.064886
1 Jan 2020 18:21:06.000,224.715,-75.514,26833.206978
1 Jan 2020 18:21:36.000,226.023,-75.436,26991.151397
1 Jan 2020 18:22:06.000,227.308,-75.365,27150.703209
1 Jan 2020 18:22:36.000,228.573,-75.301,27311.669969
1 Jan 2020 18:23:06.000,229.820,-75.246,27473.861922
1 Jan 2020 18:23:36.000,231.051,-75.198,27637.092190
1 Jan 2020 18:24:06.000,232.266,-75.158,27801.176927
1 Jan 2020 18:24:36.000,233.469,-75.126,27965.935468
1 Jan 2020 18:25:06.000,234.660,-75.101,28131.190454
1 Jan 2020 18:25:36.000,235.841,-75.084,28296.767936
1 Jan 2020 18:26:06.000,237.013,-75.075,28462.497475
1 Jan 2020 18:26:30.379,237.961,-75.072,28597.173444
1 Jan 2020 19:35:56.869,99.694,-75.063,28593.236611
1 Jan 2020 19:36:26.000,101.349,-75.063,28554.089581
1 Jan 2020 19:36:56.000,103.059,-75.064,28516.963920
1 Jan 2020 19:37:26.000,104.777,-75.065,28483.109028
1 Jan 2020 19:37:56.000,106.500,-75.066,28452.554522
1 Jan 2020 19:38:26.000,108.229,-75.067,28425.324878
1 Jan 2020 19:38:56.000,109.963,-75.069,28401.439365
1 Jan 2020 19:39:26.000,111.702,-75.070,28380.912003
1 Jan 2020 19:39:56.000,113.444,-75.071,28363.751529
1 Jan 2020 19:40:26.000,115.190,-75.072,28349.961375
1 Jan 2020 19:40:56.000,116.938,-75.073,28339.539630
1 Jan 2020 19:41:26.000,118.688,-75.073,28332.479199
1 Jan 2020 19:41:56.000,120.439,-75.074,28328.767589
1 Jan 2020 19:42:26.000,122.192,-75.074,28328.387112
1 Jan 2020 19:42:56.000,123.944,-75.074,28331.314888
1 Jan 2020 19:43:26.000,125.696,-75.073,28337.522915
1 Jan 2020 19:43:56.000,127.447,-75.073,28346.978143
1 Jan 2020 19:44:26.000,129.196,-75.072,28359.642563
1 Jan 2020 19:44:56.000,130.943,-75.071,28375.473313
1 Jan 2020 19:45:26.000,132.688,-75.070,28394.422790
1 Jan 2020 19:45:56.000,134.429,-75.070,28416.438780
1 Jan 2020 19:46:26.000,136.166,-75.069,28441.464574
1 Jan 2020 19:46:56.000,137.900,-75.068,28469.439139
1 Jan 2020 19:47:26.000,139.629,-75.067,28500.297255
1 Jan 2020 19:47:56.000,141.353,-75.066,28533.969685
1 Jan 2020 19:48:26.000,143.072,-75.066,28570.383341
1 Jan 2020 19:48:43.859,144.093,-75.066,28593.331087
1 Jan 2020 20:51:51.619,350.011,-75.064,28592.665910
1 Jan 2020 20:52:21.000,351.599,-75.064,28510.977282
1 Jan 2020 20:52:51.000,353.229,-75.067,28428.931460
1 Jan 2020 20:53:21.000,354.869,-75.071,28348.388170
1 Jan 2020 20:53:51.000,356.519,-75.077,28269.473736
1 Jan 2020 20:54:21.000,358.179,-75.084,28192.314019
1 Jan 2020 20:54:51.000,359.850,-75.093,28117.034201
1 Jan 2020 20:55:21.000,1.532,-75.103,28043.758562
1 Jan 2020 20:55:51.000,3.225,-75.114,27972.610247
1 Jan 2020 20:56:21.000,4.929,-75.127,27903.711035
1 Jan 2020 20:56:51.000,6.645,-75.140,27837.181094
1 Jan 2020 20:57:21.000,8.372,-75.154,27773.138734
1 Jan 2020 20:57:51.000,10.111,-75.168,27711.700160
1 Jan 2020 20:58:21.000,11.861,-75.183,27652.979216
1 Jan 2020 20:58:51.000,13.622,-75.198,27597.087131
1 Jan 2020 20:59:21.000,15.394,-75.213,27544.132218
1 Jan 2020 20:59:51.000,17.177,-75.228,27494.219796
1 Jan 2020 21:00:21.000,18.970,-75.243,27447.451659
1 Jan 2020 21:00:51.000,20.774,-75.257,27403.926008
1 Jan 2020 21:01:21.000,22.586,-75.271,27363.737156
1 Jan 2020 21:01:51.000,24.408,-75.284,27326.975277
1 Jan 2020 21:02:21.000,26.238,-75.296,27293.726170
1 Jan 2020 21:02:51.000,28.076,-75.307,27264.071022
1 Jan 2020 21:03:21.000,29.920,-75.317,27238.086184
1 Jan 2020 21:03:51.000,31.770,-75.325,27215.842964
1 Jan 2020 21:04:21.000,33.625,-75.333,27197.407401
1 Jan 2020 21:04:51.000,35.484,-75.339,27182.840093
1 Jan 2020 21:05:21.000,37.346,-75.343,27172.196011
1 Jan 2020 21:05:51.000,39.211,-75.346,27165.524335
1 Jan 2020 21:06:21.000,41.076,-75.347,27162.868303
1 Jan 2020 21:06:51.000,42.940,-75.346,27164.265083
1 Jan 2020 21:07:21.000,44.804,-75.344,27169.745651
1 Jan 2020 21:07:51.000,46.665,-75.340,27179.334756
1 Jan 2020 21:08:21.000,48.522,-75.334,27193.050621
1 Jan 2020 21:08:51.000,50.375,-75.327,27210.905200
1 Jan 2020 21:09:21.000,52.221,-75.318,27232.903932
1 Jan 2020 21:09:51.000,54.061,-75.308,27259.045772
1 Jan 2020 21:10:21.000,55.892,-75.297,27289.323189
1 Jan 2020 21:10:51.000,57.715,-75.284,27323.722185
1 Jan 2020 21:11:21.000,59.527,-75.271,27362.222337
1 Jan 2020 21:11:51.000,61.328,-75.256,27404.796950
1 Jan 2020 21:12:21.000,63.117,-75.241,27451.412732
1 Jan 2020 21:12:51.000,64.893,-75.225,27502.030488
1 Jan 2020 21:13:21.000,66.656,-75.208,27556.604837
1 Jan 2020 21:13:51.000,68.405,-75.192,27615.084433
1 Jan 2020 21:14:21.000,70.139,-75.176,27677.412113
1 Jan 2020 21:14:51.000,71.857,-75.159,27743.525052
1 Jan 2020 21:15:21.000,73.560,-75.144,27813.354935
1 Jan 2020 21:15:51.000,75.246,-75.129,27886.828138
1 Jan 2020 21:16:21.000,76.916,-75.115,27963.866080
1 Jan 2020 21:16:51.000,78.569,-75.102,28044.384807
1 Jan 2020 21:17:21.000,80.205,-75.090,28128.296127
1 Jan 2020 21:17:51.000,81.824,-75.081,28215.507218
1 Jan 2020 21:18:21.000,83.426,-75.073,28305.921008
1 Jan 2020 21:18:51.000,85.011,-75.067,28399.436403
1 Jan 2020 21:19:21.000,86.579,-75.063,28495.948521
1 Jan 2020 21:19:50.267,88.093,-75.062,28592.885736
1 Jan 2020 22:25:38.917,294.010,-75.069,28596.205886
1 Jan 2020 22:26:08.000,294.854,-75.074,28409.090028
1 Jan 2020 22:26:38.000,295.728,-75.088,28215.929655
1 Jan 2020 22:27:08.000,296.608,-75.113,28022.804792
1 Jan 2020 22:27:38.000,297.493,-75.148,27829.901771
1 Jan 2020 22:28:08.000,298.387,-75.194,27637.411224
1 Jan 2020 22:28:38.000,299.289,-75.251,27445.528031
1 Jan 2020 22:29:08.000,300.203,-75.319,27254.451247
1 Jan 2020 22:29:38.000,301.130,-75.398,27064.384013
1 Jan 2020 22:30:08.000,302.071,-75.488,26875.533446
1 Jan 2020 22:30:38.000,303.029,-75.590,26688.110512
1 Jan 2020 22:31:08.000,304.006,-75.703,26502.329871
1 Jan 2020 22:31:38.000,305.005,-75.828,26318.409697
1 Jan 2020 22:32:08.000,306.027,-75.964,26136.571476
1 Jan 2020 22:32:38.000,307.076,-76.112,25957.039767
1 Jan 2020 22:33:08.000,308.154,-76.271,25780.041941
1 Jan 2020 22:33:38.000,309.265,-76.441,25605.807883
1 Jan 2020 22:34:08.000,310.412,-76.623,25434.569658
1 Jan 2020 22:34:38.000,311.599,-76.816,25266.560891
1 Jan 2020 22:35:08.000,312.831,-77.020,25102.017387
1 Jan 2020 22:35:38.000,314.111,-77.233,24941.175142
1 Jan 2020 22:36:08.000,315.445,-77.457,24784.270902
1 Jan 2020 22:36:38.000,316.838,-77.690,24631.541376
1 Jan 2020 22:37:08.000,318.296,-77.932,24483.222683
1 Jan 2020 22:37:38.000,319.825,-78.182,24339.549752
1 Jan 2020 22:38:08.000,321.433,-78.440,24200.755472
1 Jan 2020 22:38:38.000,323.128,-78.703,24067.070880
1 Jan 2020 22:39:08.000,324.917,-78.972,23938.723157
1 Jan 2020 22:39:38.000,326.809,-79.245,23815.935762
1 Jan 2020 22:40:08.000,328.816,-79.521,23698.927452
1 Jan 2020 22:40:38.000,330.945,-79.798,23587.911491
1 Jan 2020 22:41:08.000,333.209,-80.075,23483.094676
1 Jan 2020 22:41:38.000,335.617,-80.349,23384.677207
1 Jan 2020 22:42:08.000,338.182,-80.618,23292.850809
1 Jan 2020 22:42:38.000,340.913,-80.881,23207.798624
1 Jan 2020 22:43:08.000,343.819,-81.134,23129.694208
1 Jan 2020 22:43:38.000,346.909,-81.374,23058.700635
1 Jan 2020 22:44:08.000,350.187,-81.600,22994.970131
1 Jan 2020 22:44:38.000,353.654,-81.808,22938.642685
1 Jan 2020 22:45:08.000,357.308,-81.995,22889.845794
1 Jan 2020 22:45:38.000,1.139,-82.158,22848.693645
1 Jan 2020 22:46:08.000,5.131,-82.293,22815.286692
1 Jan 2020 22:46:38.000,9.260,-82.400,22789.710846
1 Jan 2020 22:47:08.000,13.496,-82.475,22772.037210
1 Jan 2020 22:47:38.000,17.803,-82.516,22762.321650
1 Jan 2020 22:48:08.000,22.140,-82.523,22760.604454
1 Jan 2020 22:48:38.000,26.465,-82.496,22766.910154
1 Jan 2020 22:49:08.000,30.734,-82.435,22781.247386
1 Jan 2020 22:49:38.000,34.910,-82.341,22803.608918
1 Jan 2020 22:50:08.000,38.957,-82.216,22833.971449
1 Jan 2020 22:50:38.000,42.849,-82.063,22872.296120
1 Jan 2020 22:51:08.000,46.564,-81.883,22918.528512
1 Jan 2020 22:51:38.000,50.090,-81.681,22972.599139
1 Jan 2020 22:52:08.000,53.421,-81.458,23034.423385
1 Jan 2020 22:52:38.000,56.553,-81.218,23103.902644
1 Jan 2020 22:53:08.000,59.491,-80.965,23180.924429
1 Jan 2020 22:53:38.000,62.241,-80.700,23265.363075
1 Jan 2020 22:54:08.000,64.810,-80.426,23357.080605
1 Jan 2020 22:54:38.000,67.210,-80.147,23455.926605
1 Jan 2020 22:55:08.000,69.450,-79.864,23561.740178
1 Jan 2020 22:55:38.000,71.541,-79.579,23674.349910
1 Jan 2020 22:56:08.000,73.494,-79.295,23793.574853
1 Jan 2020 22:56:38.000,75.319,-79.012,23919.225571
1 Jan 2020 22:57:08.000,77.026,-78.733,24051.103980
1 Jan 2020 22:57:38.000,78.625,-78.460,24189.005577
1 Jan 2020 22:58:08.000,80.125,-78.192,24332.719292
1 Jan 2020 22:58:38.000,81.532,-77.931,24482.028506
1 Jan 2020 22:59:08.000,82.855,-77.679,24636.711805
1 Jan 2020 22:59:38.000,84.100,-77.436,24796.544013
1 Jan 2020 23:00:08.000,85.273,-77.203,24961.295741
1 Jan 2020 23:00:38.000,86.380,-76.980,25130.735786
1 Jan 2020 23:01:08.000,87.426,-76.768,25304.630639
1 Jan 2020 23:01:38.000,88.415,-76.567,25482.745372
1 Jan 2020 23:02:08.000,89.352,-76.379,25664.844209
1 Jan 2020 23:02:38.000,90.241,-76.202,25850.691067
1 Jan 2020 23:03:08.000,91.085,-76.038,26040.050043
1 Jan 2020 23:03:38.000,91.888,-75.887,26232.685877
1 Jan 2020 23:04:08.000,92.651,-75.748,26428.364718
1 Jan 2020 23:04:38.000,93.378,-75.622,26626.853138
1 Jan 2020 23:05:08.000,94.072,-75.509,26827.920528
1 Jan 2020 23:05:38.000,94.734,-75.409,27031.338055
1 Jan 2020 23:06:08.000,95.366,-75.321,27236.879286
1 Jan 2020 23:06:38.000,95.971,-75.247,27444.320439
1 Jan 2020 23:07:08.000,96.550,-75.186,27653.440608
1 Jan 2020 23:07:38.000,97.105,-75.137,27864.021956
1 Jan 2020 23:08:08.000,97.636,-75.101,28075.849895
1 Jan 2020 23:08:38.000,98.146,-75.077,28288.713225
1 Jan 2020 23:09:08.000,98.636,-75.066,28502.404263
1 Jan 2020 23:09:21.376,98.848,-75.064,28597.896505
2 Jan 2020 00:12:17.292,279.163,-75.074,28603.056276
2 Jan 2020 00:12:47.000,278.727,-75.079,28389.695046
2 Jan 2020 00:13:17.000,278.267,-75.098,28174.912363
2 Jan 2020 00:13:47.000,277.787,-75.129,27961.012842
2 Jan 2020 00:14:17.000,277.286,-75.172,27748.206882
2 Jan 2020 00:14:47.000,276.761,-75.229,27536.708464
2 Jan 2020 00:15:17.000,276.212,-75.299,27326.735030
2 Jan 2020 00:15:47.000,275.637,-75.381,27118.507325
2 Jan 2020 00:16:17.000,275.034,-75.477,26912.249218
2 Jan 2020 00:16:47.000,274.401,-75.587,26708.187506
2 Jan 2020 00:17:17.000,273.737,-75.709,26506.551674
2 Jan 2020 00:17:47.000,273.039,-75.845,26307.573637
2 Jan 2020 00:18:17.000,272.305,-75.994,26111.487447
2 Jan 2020 00:18:47.000,271.531,-76.156,25918.528961
2 Jan 2020 00:19:17.000,270.715,-76.330,25728.935161
2 Jan 2020 00:19:47.000,269.853,-76.518,25542.945047
2 Jan 2020 00:20:17.000,268.943,-76.718,25360.797250
2 Jan 2020 00:20:47.000,267.979,-76.931,25182.730861
2 Jan 2020 00:21:17.000,266.957,-77.155,25008.984593
2 Jan 2020 00:21:47.000,265.873,-77.390,24839.796222
2 Jan 2020 00:22:17.000,264.720,-77.637,24675.402000
2 Jan 2020 00:22:47.000,263.494,-77.893,24516.035721
2 Jan 2020 00:23:17.000,262.187,-78.159,24361.929264
2 Jan 2020 00:23:47.000,260.791,-78.433,24213.310070
2 Jan 2020 00:24:17.000,259.299,-78.715,24070.401629
2 Jan 2020 00:24:47.000,257.702,-79.003,23933.422418
2 Jan 2020 00:25:17.000,255.990,-79.296,23802.584883
2 Jan 2020 00:25:47.000,254.152,-79.593,23678.095555
2 Jan 2020 00:26:17.000,252.178,-79.892,23560.152845
2 Jan 2020 00:26:47.000,250.054,-80.191,23448.947150
2 Jan 2020 00:27:17.000,247.768,-80.489,23344.659796
2 Jan 2020 00:27:47.000,245.307,-80.782,23247.462019
2 Jan 2020 00:28:17.000,242.659,-81.069,23157.514971
2 Jan 2020 00:28:47.000,239.810,-81.346,23074.967708
2 Jan 2020 00:29:17.000,236.750,-81.611,22999.957273
2 Jan 2020 00:29:47.000,233.472,-81.861,22932.607660
2 Jan 2020 00:30:17.000,229.970,-82.092,22873.029658
2 Jan 2020 00:30:47.000,226.246,-82.301,22821.319470
2 Jan 2020 00:31:17.000,222.307,-82.485,22777.558710
2 Jan 2020 00:31:47.000,218.171,-82.639,22741.813725
2 Jan 2020 00:32:17.000,213.862,-82.762,22714.135534
2 Jan 2020 00:32:47.000,209.414,-82.851,22694.559021
2 Jan 2020 00:33:17.000,204.871,-82.903,22683.103074
2 Jan 2020 00:33:47.000,200.281,-82.919,22679.770350
2 Jan 2020 00:34:17.000,195.696,-82.896,22684.547350
2 Jan 2020 00:34:47.000,191.166,-82.837,22697.404311
2 Jan 2020 00:35:17.000,186.738,-82.743,22718.295502
2 Jan 2020 00:35:47.000,182.453,-82.615,22747.159464
2 Jan 2020 00:36:17.000,178.342,-82.456,22783.919239
2 Jan 2020 00:36:47.000,174.428,-82.270,22828.482946
2 Jan 2020 00:37:17.000,170.724,-82.060,22880.744193
2 Jan 2020 00:37:47.000,167.234,-81.829,22940.582748
2 Jan 2020 00:38:17.000,163.960,-81.581,23007.864862
2 Jan 2020 00:38:47.000,160.894,-81.318,23082.444409
2 Jan 2020 00:39:17.000,158.028,-81.044,23164.163343
2 Jan 2020 00:39:47.000,155.350,-80.763,23252.852537
2 Jan 2020 00:40:17.000,152.848,-80.475,23348.332750
2 Jan 2020 00:40:47.000,150.508,-80.184,23450.414838
2 Jan 2020 00:41:17.000,148.318,-79.892,23558.901504
2 Jan 2020 00:41:47.000,146.265,-79.601,23673.587552
2 Jan 2020 00:42:17.000,144.336,-79.312,23794.260873
2 Jan 2020 00:42:47.000,142.522,-79.027,23920.703286
2 Jan 2020 00:43:17.000,140.810,-78.748,24052.691574
2 Jan 2020 00:43:47.000,139.192,-78.474,24189.997391
2 Jan 2020 00:44:17.000,137.658,-78.208,24332.389364
2 Jan 2020 00:44:47.000,136.202,-77.951,24479.632954
2 Jan 2020 00:45:17.000,134.815,-77.702,24631.491383
2 Jan 2020 00:45:47.000,133.491,-77.463,24787.726305
2 Jan 2020 00:46:17.000,132.223,-77.234,24948.098439
2 Jan 2020 00:46:47.000,131.008,-77.015,25112.368161
2 Jan 2020 00:47:17.000,129.839,-76.808,25280.296344
2 Jan 2020 00:47:47.000,128.712,-76.612,25451.643749
2 Jan 2020 00:48:17.000,127.623,-76.428,25626.173165
2 Jan 2020 00:48:47.000,126.568,-76.255,25803.648740
2 Jan 2020 00:49:17.000,125.544,-76.094,25983.836647
2 Jan 2020 00:49:47.000,124.547,-75.946,26166.505443
2 Jan 2020 00:50:17.000,123.576,-75.809,26351.426390
2 Jan 2020 00:50:47.000,122.627,-75.684,26538.373741
2 Jan 2020 00:51:17.000,121.697,-75.571,26727.124994
2 Jan 2020 00:51:47.000,120.785,-75.470,26917.461113
2 Jan 2020 00:52:17.000,119.888,-75.380,27109.166728
2 Jan 2020 00:52:47.000,119.005,-75.303,27302.030298
2 Jan 2020 00:53:17.000,118.133,-75.236,27495.844255
2 Jan 2020 00:53:47.000,117.271,-75.181,27690.405124
2 Jan 2020 00:54:17.000,116.418,-75.137,27885.513623
2 Jan 2020 00:54:47.000,115.571,-75.104,28080.974740
2 Jan 2020 00:55:17.000,114.729,-75.082,28276.597798
2 Jan 2020 00:55:47.000,113.892,-75.070,28472.196501
2 Jan 2020 00:56:07.381,113.324,-75.068,28604.975167
2 Jan 2020 02:01:42.295,268.593,-75.077,28609.536766
2 Jan 2020 02:02:12.000,267.077,-75.078,28505.794838
2 Jan 2020 02:02:42.000,265.528,-75.082,28403.844864
2 Jan 2020 02:03:12.000,263.961,-75.089,28304.845917
2 Jan 2020 02:03:42.000,262.377,-75.098,28208.909381
2 Jan 2020 02:04:12.000,260.774,-75.109,28116.143055
2 Jan 2020 02:04:42.000,259.154,-75.122,28026.650911
2 Jan 2020 02:05:12.000,257.515,-75.137,27940.532850
2 Jan 2020 02:05:42.000,255.858,-75.153,27857.884459
2 Jan 2020 02:06:12.000,254.183,-75.170,27778.796777
2 Jan 2020 02:06:42.000,252.490,-75.188,27703.355922
2 Jan 2020 02:07:12.000,250.781,-75.207,27631.643452
2 Jan 2020 02:07:42.000,249.054,-75.226,27563.735265
2 Jan 2020 02:08:12.000,247.311,-75.245,27499.701992
2 Jan 2020 02:08:42.000,245.551,-75.264,27439.608656
2 Jan 2020 02:09:12.000,243.777,-75.283,27383.514488
2 Jan 2020 02:09:42.000,241.988,-75.302,27331.472766
2 Jan 2020 02:10:12.000,240.185,-75.319,27283.530659
2 Jan 2020 02:10:42.000,238.370,-75.336,27239.728991
2 Jan 2020 02:11:12.000,236.542,-75.352,27200.102545
2 Jan 2020 02:11:42.000,234.704,-75.366,27164.679318
2 Jan 2020 02:12:12.000,232.856,-75.380,27133.480876
2 Jan 2020 02:12:42.000,230.999,-75.391,27106.522183
2 Jan 2020 02:13:12.000,229.134,-75.401,27083.811555
2 Jan 2020 02:13:42.000,227.263,-75.409,27065.350642
2 Jan 2020 02:14:12.000,225.387,-75.415,27051.134372
2 Jan 2020 02:14:42.000,223.507,-75.420,27041.151191
2 Jan 2020 02:15:12.000,221.625,-75.422,27035.382764
2 Jan 2020 02:15:42.000,219.740,-75.423,27033.804266
2 Jan 2020 02:16:12.000,217.856,-75.422,27036.384406
2 Jan 2020 02:16:42.000,215.973,-75.418,27043.085527
2 Jan 2020 02:17:12.000,214.092,-75.413,27053.863721
2 Jan 2020 02:17:42.000,212.214,-75.407,27068.668972
2 Jan 2020 02:18:12.000,210.340,-75.398,27087.445301
2 Jan 2020 02:18:42.000,208.472,-75.388,27110.130967
2 Jan 2020 02:19:12.000,206.611,-75.376,27136.658599
2 Jan 2020 02:19:42.000,204.756,-75.364,27166.955439
2 Jan 2020 02:20:12.000,202.910,-75.349,27200.943541
2 Jan 2020 02:20:42.000,201.073,-75.334,27238.539996
2 Jan 2020 02:21:12.000,199.246,-75.318,27279.657165
2 Jan 2020 02:21:42.000,197.429,-75.301,27324.202922
2 Jan 2020 02:22:12.000,195.622,-75.284,27372.080904
2 Jan 2020 02:22:42.000,193.827,-75.266,27423.190811
2 Jan 2020 02:23:12.000,192.044,-75.248,27477.428494
2 Jan 2020 02:23:42.000,190.272,-75.231,27534.686469
2 Jan 2020 02:24:12.000,188.513,-75.213,27594.854024
2 Jan 2020 02:24:42.000,186.766,-75.195,27657.817519
2 Jan 2020 02:25:12.000,185.031,-75.179,27723.460658
2 Jan 2020 02:25:42.000,183.309,-75.162,27791.664748
2 Jan 2020 02:26:12.000,181.599,-75.147,27862.308965
2 Jan 2020 02:26:42.000,179.901,-75.133,27935.270612
2 Jan 2020 02:27:12.000,178.215,-75.120,28010.425371
2 Jan 2020 02:27:42.000,176.541,-75.108,28087.647556
2 Jan 2020 02:28:12.000,174.878,-75.097,28166.810352
2 Jan 2020 02:28:42.000,173.227,-75.089,28247.786053
2 Jan 2020 02:29:12.000,171.587,-75.081,28330.446295
2 Jan 2020 02:29:42.000,169.956,-75.076,28414.662373
2 Jan 2020 02:30:12.000,168.336,-75.072,28500.305066
2 Jan 2020 02:30:42.000,166.726,-75.071,28587.245426
2 Jan 2020 02:30:49.697,166.314,-75.071,28609.745806
2 Jan 2020 03:35:00.128,317.000,-75.079,28611.828454
2 Jan 2020 03:35:30.000,315.283,-75.080,28581.823468
2 Jan 2020 03:36:00.000,313.555,-75.080,28554.535954
2 Jan 2020 03:36:30.000,311.822,-75.080,28530.163440
2 Jan 2020 03:37:00.000,310.087,-75.081,28508.764662
2 Jan 2020 03:37:30.000,308.348,-75.081,28490.394024
2 Jan 2020 03:38:00.000,306.607,-75.082,28475.101466
2 Jan 2020 03:38:30.000,304.863,-75.082,28462.932330
2 Jan 2020 03:39:00.000,303.118,-75.083,28453.927244
2 Jan 2020 03:39:30.000,301.372,-75.083,28448.122013
2 Jan 2020 03:40:00.000,299.626,-75.083,28445.547524
2 Jan 2020 03:40:30.000,297.880,-75.083,28446.229690
2 Jan 2020 03:41:00.000,296.135,-75.083,28450.189273
2 Jan 2020 03:41:30.000,294.391,-75.082,28457.441977
2 Jan 2020 03:42:00.000,292.649,-75.082,28467.998306
2 Jan 2020 03:42:30.000,290.909,-75.082,28481.863557
2 Jan 2020 03:43:00.000,289.173,-75.081,28499.037801
2 Jan 2020 03:43:30.000,287.440,-75.080,28519.515878
2 Jan 2020 03:44:00.000,285.711,-75.080,28543.287410
2 Jan 2020 03:44:30.000,283.988,-75.079,28570.336821
2 Jan 2020 03:45:00.000,282.269,-75.079,28600.643375
2 Jan 2020 03:45:10.260,281.683,-75.079,28611.750958
2 Jan 2020 04:55:25.185,56.829,-75.073,28609.393434
2 Jan 2020 04:55:55.000,55.641,-75.076,28448.143234
2 Jan 2020 04:56:25.000,54.438,-75.087,28285.935680
2 Jan 2020 04:56:55.000,53.227,-75.105,28123.936227
2 Jan 2020 04:57:25.000,52.004,-75.129,27962.313832
2 Jan 2020 04:57:55.000,50.770,-75.162,27801.240836
2 Jan 2020 04:58:25.000,49.522,-75.201,27640.892854
2 Jan 2020 04:58:55.000,48.259,-75.248,27481.448669
2 Jan 2020 04:59:25.000,46.978,-75.303,27323.090092
2 Jan 2020 04:59:55.000,45.680,-75.365,27166.001816
2 Jan 2020 05:00:25.000,44.360,-75.434,27010.371245
2 Jan 2020 05:00:55.000,43.018,-75.510,26856.388307
2 Jan 2020 05:01:25.000,41.652,-75.593,26704.245245
2 Jan 2020 05:01:55.000,40.259,-75.684,26554.136382
2 Jan 2020 05:02:25.000,38.837,-75.781,26406.257872
2 Jan 2020 05:02:55.000,37.385,-75.885,26260.807417
2 Jan 2020 05:03:25.000,35.899,-75.995,26117.983968
2 Jan 2020 05:03:55.000,34.378,-76.111,25977.987395
2 Jan 2020 05:04:25.000,32.819,-76.233,25841.018138
2 Jan 2020 05:04:55.000,31.220,-76.360,25707.276618
