STKdata/stk_90fov_4leo/Satellite-MEO_Satellite10201-To-Satellite-LEO_Satellite10000 AER.csv

"Time (UTCG)","Azimuth (deg)","Elevation (deg)","Range (km)"
1 Jan 2020 00:00:00.000,54.750,-77.307,24906.098237
1 Jan 2020 00:00:30.000,54.955,-77.596,24709.523903
1 Jan 2020 00:01:00.000,55.184,-77.903,24517.629817
1 Jan 2020 00:01:30.000,55.440,-78.228,24330.713062
1 Jan 2020 00:02:00.000,55.726,-78.572,24149.070561
1 Jan 2020 00:02:30.000,56.045,-78.933,23972.998261
1 Jan 2020 00:03:00.000,56.401,-79.312,23802.789976
1 Jan 2020 00:03:30.000,56.801,-79.709,23638.737526
1 Jan 2020 00:04:00.000,57.249,-80.122,23481.128080
1 Jan 2020 00:04:30.000,57.755,-80.551,23330.244190
1 Jan 2020 00:05:00.000,58.328,-80.997,23186.362404
1 Jan 2020 00:05:30.000,58.980,-81.457,23049.751845
1 Jan 2020 00:06:00.000,59.726,-81.932,22920.674019
1 Jan 2020 00:06:30.000,60.588,-82.420,22799.380064
1 Jan 2020 00:07:00.000,61.591,-82.920,22686.110534
1 Jan 2020 00:07:30.000,62.770,-83.431,22581.093721
1 Jan 2020 00:08:00.000,64.174,-83.952,22484.545126
1 Jan 2020 00:08:30.000,65.869,-84.479,22396.665164
1 Jan 2020 00:09:00.000,67.950,-85.011,22317.638726
1 Jan 2020 00:09:30.000,70.559,-85.545,22247.633750
1 Jan 2020 00:10:00.000,73.905,-86.075,22186.800691
1 Jan 2020 00:10:30.000,78.318,-86.594,22135.270758
1 Jan 2020 00:11:00.000,84.316,-87.093,22093.155605
1 Jan 2020 00:11:30.000,92.712,-87.551,22060.546380
1 Jan 2020 00:12:00.000,104.630,-87.938,22037.513362
1 Jan 2020 00:12:30.000,120.998,-88.202,22024.105067
1 Jan 2020 00:13:00.000,140.800,-88.283,22020.348195
1 Jan 2020 00:13:30.000,160.092,-88.156,22026.247384
1 Jan 2020 00:14:00.000,175.444,-87.859,22041.785127
1 Jan 2020 00:14:30.000,186.474,-87.453,22066.921928
1 Jan 2020 00:15:00.000,194.259,-86.984,22101.596570
1 Jan 2020 00:15:30.000,199.869,-86.480,22145.726616
1 Jan 2020 00:16:00.000,204.038,-85.958,22199.208632
1 Jan 2020 00:16:30.000,207.235,-85.428,22261.919359
1 Jan 2020 00:17:00.000,209.757,-84.896,22333.716221
1 Jan 2020 00:17:30.000,211.795,-84.365,22414.438464
1 Jan 2020 00:18:00.000,213.478,-83.841,22503.907584
1 Jan 2020 00:18:30.000,214.894,-83.324,22601.929270
1 Jan 2020 00:19:00.000,216.104,-82.816,22708.294005
1 Jan 2020 00:19:30.000,217.153,-82.320,22822.778590
1 Jan 2020 00:20:00.000,218.074,-81.836,22945.146617
1 Jan 2020 00:20:30.000,218.892,-81.366,23075.150837
1 Jan 2020 00:21:00.000,219.626,-80.911,23212.533677
1 Jan 2020 00:21:30.000,220.291,-80.470,23357.028660
1 Jan 2020 00:22:00.000,220.899,-80.045,23508.361898
1 Jan 2020 00:22:30.000,221.458,-79.637,23666.252198
1 Jan 2020 00:23:00.000,221.978,-79.246,23830.413808
1 Jan 2020 00:23:30.000,222.463,-78.872,24000.556461
1 Jan 2020 00:24:00.000,222.919,-78.516,24176.386675
1 Jan 2020 00:24:30.000,223.350,-78.177,24357.608739
1 Jan 2020 00:25:00.000,223.761,-77.857,24543.925938
1 Jan 2020 00:25:30.000,224.153,-77.554,24735.040187
1 Jan 2020 00:26:00.000,224.530,-77.270,24930.654643
1 Jan 2020 00:26:30.000,224.895,-77.004,25130.473223
1 Jan 2020 00:27:00.000,225.248,-76.756,25334.201563
1 Jan 2020 00:27:30.000,225.592,-76.526,25541.547608
1 Jan 2020 00:28:00.000,225.928,-76.313,25752.222152
1 Jan 2020 00:28:30.000,226.258,-76.119,25965.939309
1 Jan 2020 00:29:00.000,226.583,-75.942,26182.416932
1 Jan 2020 00:29:30.000,226.904,-75.782,26401.376979
1 Jan 2020 00:30:00.000,227.222,-75.640,26622.545830
1 Jan 2020 00:30:30.000,227.537,-75.514,26845.654909
1 Jan 2020 00:31:00.000,227.852,-75.404,27070.439498
1 Jan 2020 00:31:30.000,228.167,-75.311,27296.641046
1 Jan 2020 00:32:00.000,228.481,-75.234,27524.005910
1 Jan 2020 00:32:30.000,228.797,-75.172,27752.285828
1 Jan 2020 00:33:00.000,229.115,-75.125,27981.238010
1 Jan 2020 00:33:30.000,229.435,-75.093,28210.625204
1 Jan 2020 00:34:00.000,229.758,-75.076,28440.215739
1 Jan 2020 00:34:21.958,229.997,-75.072,28608.257379
1 Jan 2020 01:34:22.380,56.104,-75.077,28611.054864
1 Jan 2020 01:34:52.000,57.075,-75.082,28417.286818
1 Jan 2020 01:35:22.000,58.082,-75.098,28222.512348
1 Jan 2020 01:35:52.000,59.114,-75.123,28029.450840
1 Jan 2020 01:36:22.000,60.174,-75.159,27838.327174
1 Jan 2020 01:36:52.000,61.263,-75.204,27649.368355
1 Jan 2020 01:37:22.000,62.384,-75.259,27462.803237
1 Jan 2020 01:37:52.000,63.537,-75.325,27278.862201
1 Jan 2020 01:38:22.000,64.727,-75.399,27097.776826
1 Jan 2020 01:38:52.000,65.954,-75.483,26919.779505
1 Jan 2020 01:39:22.000,67.221,-75.576,26745.103051
1 Jan 2020 01:39:52.000,68.531,-75.677,26573.980255
1 Jan 2020 01:40:22.000,69.886,-75.787,26406.643133
1 Jan 2020 01:40:52.000,71.289,-75.904,26243.323571
1 Jan 2020 01:41:22.000,72.742,-76.028,26084.251065
1 Jan 2020 01:41:52.000,74.248,-76.159,25929.653312
1 Jan 2020 01:42:22.000,75.809,-76.296,25779.755323
1 Jan 2020 01:42:52.000,77.430,-76.438,25634.778800
1 Jan 2020 01:43:22.000,79.111,-76.585,25494.941486
1 Jan 2020 01:43:52.000,80.856,-76.735,25360.456240
1 Jan 2020 01:44:22.000,82.668,-76.888,25231.531363
1 Jan 2020 01:44:52.000,84.548,-77.042,25108.368338
1 Jan 2020 01:45:22.000,86.500,-77.197,24991.162155
1 Jan 2020 01:45:52.000,88.524,-77.352,24880.100313
1 Jan 2020 01:46:22.000,90.622,-77.504,24775.361917
1 Jan 2020 01:46:52.000,92.796,-77.654,24677.117666
1 Jan 2020 01:47:22.000,95.045,-77.800,24585.528046
1 Jan 2020 01:47:52.000,97.369,-77.940,24500.743369
1 Jan 2020 01:48:22.000,99.768,-78.074,24422.902913
1 Jan 2020 01:48:52.000,102.239,-78.199,24352.134132
1 Jan 2020 01:49:22.000,104.779,-78.315,24288.552632
1 Jan 2020 01:49:52.000,107.384,-78.421,24232.260721
1 Jan 2020 01:50:22.000,110.049,-78.515,24183.347505
1 Jan 2020 01:50:52.000,112.768,-78.596,24141.888195
1 Jan 2020 01:51:22.000,115.533,-78.664,24107.944046
1 Jan 2020 01:51:52.000,118.338,-78.717,24081.561531
1 Jan 2020 01:52:22.000,121.172,-78.756,24062.772435
1 Jan 2020 01:52:52.000,124.026,-78.779,24051.593554
1 Jan 2020 01:53:22.000,126.891,-78.786,24048.026745
1 Jan 2020 01:53:52.000,129.755,-78.778,24052.058674
1 Jan 2020 01:54:22.000,132.610,-78.754,24063.661037
1 Jan 2020 01:54:52.000,135.445,-78.714,24082.790676
1 Jan 2020 01:55:22.000,138.250,-78.661,24109.389750
1 Jan 2020 01:55:52.000,141.019,-78.593,24143.386068
1 Jan 2020 01:56:22.000,143.741,-78.512,24184.693441
1 Jan 2020 01:56:52.000,146.412,-78.419,24233.212103
1 Jan 2020 01:57:22.000,149.026,-78.314,24288.829288
1 Jan 2020 01:57:52.000,151.577,-78.200,24351.419463
1 Jan 2020 01:58:22.000,154.063,-78.077,24420.845367
1 Jan 2020 01:58:52.000,156.481,-77.946,24496.958370
1 Jan 2020 01:59:22.000,158.829,-77.809,24579.599205
1 Jan 2020 01:59:52.000,161.108,-77.667,24668.598807
1 Jan 2020 02:00:22.000,163.316,-77.521,24763.778531
1 Jan 2020 02:00:52.000,165.454,-77.373,24864.951628
1 Jan 2020 02:01:22.000,167.525,-77.223,24971.923509
1 Jan 2020 02:01:52.000,169.529,-77.073,25084.492618
1 Jan 2020 02:02:22.000,171.469,-76.923,25202.451171
1 Jan 2020 02:02:52.000,173.347,-76.775,25325.586077
1 Jan 2020 02:03:22.000,175.166,-76.629,25453.678940
1 Jan 2020 02:03:52.000,176.927,-76.487,25586.507830
1 Jan 2020 02:04:22.000,178.635,-76.349,25723.847263
1 Jan 2020 02:04:52.000,180.291,-76.216,25865.469028
1 Jan 2020 02:05:22.000,181.899,-76.088,26011.142815
1 Jan 2020 02:05:52.000,183.462,-75.966,26160.636818
1 Jan 2020 02:06:22.000,184.981,-75.851,26313.718294
1 Jan 2020 02:06:52.000,186.461,-75.743,26470.154324
1 Jan 2020 02:07:22.000,187.903,-75.642,26629.711425
1 Jan 2020 02:07:52.000,189.310,-75.549,26792.157337
1 Jan 2020 02:08:22.000,190.684,-75.464,26957.260584
1 Jan 2020 02:08:52.000,192.029,-75.386,27124.791083
1 Jan 2020 02:09:22.000,193.346,-75.318,27294.520517
1 Jan 2020 02:09:52.000,194.637,-75.257,27466.222666
1 Jan 2020 02:10:22.000,195.905,-75.206,27639.673714
1 Jan 2020 02:10:52.000,197.152,-75.163,27814.652522
1 Jan 2020 02:11:22.000,198.380,-75.128,27990.940875
1 Jan 2020 02:11:52.000,199.590,-75.103,28168.323703
1 Jan 2020 02:12:22.000,200.785,-75.086,28346.589277
1 Jan 2020 02:12:52.000,201.966,-75.077,28525.529378
1 Jan 2020 02:13:06.364,202.527,-75.076,28611.384833
1 Jan 2020 03:11:58.802,31.701,-75.074,28610.496605
1 Jan 2020 03:12:28.000,33.105,-75.077,28471.267500
1 Jan 2020 03:12:58.000,34.566,-75.085,28330.250271
1 Jan 2020 03:13:28.000,36.048,-75.098,28191.481684
1 Jan 2020 03:13:58.000,37.551,-75.116,28055.150644
1 Jan 2020 03:14:28.000,39.078,-75.139,27921.445573
1 Jan 2020 03:14:58.000,40.628,-75.166,27790.554058
1 Jan 2020 03:15:28.000,42.204,-75.198,27662.662490
1 Jan 2020 03:15:58.000,43.805,-75.233,27537.955674
1 Jan 2020 03:16:28.000,45.433,-75.272,27416.616432
1 Jan 2020 03:16:58.000,47.088,-75.314,27298.825188
1 Jan 2020 03:17:28.000,48.772,-75.359,27184.759374
1 Jan 2020 03:17:58.000,50.485,-75.407,27074.593650
1 Jan 2020 03:18:28.000,52.228,-75.456,26968.498447
1 Jan 2020 03:18:58.000,54.000,-75.507,26866.640182
1 Jan 2020 03:19:28.000,55.802,-75.559,26769.180616
1 Jan 2020 03:19:58.000,57.634,-75.612,26676.276384
1 Jan 2020 03:20:28.000,59.496,-75.666,26588.078519
1 Jan 2020 03:20:58.000,61.388,-75.718,26504.731854
1 Jan 2020 03:21:28.000,63.309,-75.770,26426.375053
1 Jan 2020 03:21:58.000,65.258,-75.821,26353.139392
1 Jan 2020 03:22:28.000,67.235,-75.870,26285.148819
1 Jan 2020 03:22:58.000,69.238,-75.917,26222.519386
1 Jan 2020 03:23:28.000,71.266,-75.961,26165.358835
1 Jan 2020 03:23:58.000,73.318,-76.002,26113.766121
1 Jan 2020 03:24:28.000,75.391,-76.039,26067.831349
1 Jan 2020 03:24:58.000,77.484,-76.073,26027.634953
1 Jan 2020 03:25:28.000,79.594,-76.102,25993.247706
1 Jan 2020 03:25:58.000,81.719,-76.126,25964.730361
1 Jan 2020 03:26:28.000,83.856,-76.146,25942.133399
1 Jan 2020 03:26:58.000,86.003,-76.161,25925.496810
1 Jan 2020 03:27:28.000,88.156,-76.170,25914.850026
1 Jan 2020 03:27:58.000,90.314,-76.175,25910.211632
1 Jan 2020 03:28:28.000,92.472,-76.173,25911.589412
1 Jan 2020 03:28:58.000,94.628,-76.167,25918.980285
1 Jan 2020 03:29:28.000,96.778,-76.155,25932.370335
1 Jan 2020 03:29:58.000,98.921,-76.138,25951.734792
1 Jan 2020 03:30:28.000,101.054,-76.117,25977.038238
1 Jan 2020 03:30:58.000,103.172,-76.090,26008.234691
1 Jan 2020 03:31:28.000,105.275,-76.059,26045.267805
1 Jan 2020 03:31:58.000,107.360,-76.024,26088.071093
1 Jan 2020 03:32:28.000,109.424,-75.985,26136.568275
1 Jan 2020 03:32:58.000,111.466,-75.943,26190.673263
1 Jan 2020 03:33:28.000,113.484,-75.898,26250.290949
1 Jan 2020 03:33:58.000,115.476,-75.850,26315.317271
1 Jan 2020 03:34:28.000,117.442,-75.800,26385.639672
1 Jan 2020 03:34:58.000,119.380,-75.749,26461.137509
1 Jan 2020 03:35:28.000,121.289,-75.697,26541.682605
1 Jan 2020 03:35:58.000,123.168,-75.644,26627.139218
1 Jan 2020 03:36:28.000,125.019,-75.591,26717.365197
1 Jan 2020 03:36:58.000,126.839,-75.539,26812.211994
1 Jan 2020 03:37:28.000,128.629,-75.487,26911.525245
1 Jan 2020 03:37:58.000,130.390,-75.437,27015.145248
1 Jan 2020 03:38:28.000,132.121,-75.388,27122.907436
1 Jan 2020 03:38:58.000,133.823,-75.342,27234.642849
1 Jan 2020 03:39:28.000,135.496,-75.298,27350.178780
1 Jan 2020 03:39:58.000,137.142,-75.258,27469.338521
1 Jan 2020 03:40:28.000,138.761,-75.221,27591.942869
1 Jan 2020 03:40:58.000,140.353,-75.187,27717.809862
1 Jan 2020 03:41:28.000,141.920,-75.158,27846.755379
1 Jan 2020 03:41:58.000,143.463,-75.132,27978.593540
1 Jan 2020 03:42:28.000,144.983,-75.112,28113.137107
1 Jan 2020 03:42:58.000,146.480,-75.096,28250.197852
1 Jan 2020 03:43:28.000,147.957,-75.085,28389.586917
1 Jan 2020 03:43:58.000,149.413,-75.079,28531.115155
1 Jan 2020 03:44:14.566,150.209,-75.079,28610.113556
1 Jan 2020 04:43:00.437,339.221,-75.068,28605.975361
1 Jan 2020 04:43:30.000,340.401,-75.072,28431.847881
1 Jan 2020 04:44:00.000,341.611,-75.085,28255.768986
1 Jan 2020 04:44:30.000,342.836,-75.105,28080.521584
1 Jan 2020 04:45:00.000,344.078,-75.134,27906.314405
1 Jan 2020 04:45:30.000,345.339,-75.172,27733.359448
1 Jan 2020 04:46:00.000,346.619,-75.218,27561.871789
1 Jan 2020 04:46:30.000,347.923,-75.272,27392.069365
1 Jan 2020 04:47:00.000,349.251,-75.334,27224.172736
1 Jan 2020 04:47:30.000,350.606,-75.405,27058.404815
1 Jan 2020 04:48:00.000,351.989,-75.483,26894.990571
1 Jan 2020 04:48:30.000,353.404,-75.569,26734.156706
1 Jan 2020 04:49:00.000,354.853,-75.663,26576.131300
1 Jan 2020 04:49:30.000,356.337,-75.763,26421.143419
1 Jan 2020 04:50:00.000,357.860,-75.870,26269.422704
1 Jan 2020 04:50:30.000,359.424,-75.984,26121.198693
1 Jan 2020 04:51:00.000,1.031,-76.104,25976.701218
1 Jan 2020 04:51:30.000,2.684,-76.228,25836.158564
1 Jan 2020 04:52:00.000,4.387,-76.358,25699.797813
1 Jan 2020 04:52:30.000,6.140,-76.491,25567.844034
1 Jan 2020 04:53:00.000,7.947,-76.628,25440.519684
1 Jan 2020 04:53:30.000,9.811,-76.768,25318.043966
1 Jan 2020 04:54:00.000,11.733,-76.909,25200.632007
1 Jan 2020 04:54:30.000,13.716,-77.050,25088.494849
1 Jan 2020 04:55:00.000,15.761,-77.192,24981.837728
1 Jan 2020 04:55:30.000,17.869,-77.332,24880.860050
1 Jan 2020 04:56:00.000,20.043,-77.470,24785.754491
1 Jan 2020 04:56:30.000,22.283,-77.605,24696.706276
1 Jan 2020 04:57:00.000,24.587,-77.735,24613.892330
1 Jan 2020 04:57:30.000,26.957,-77.859,24537.481043
1 Jan 2020 04:58:00.000,29.390,-77.976,24467.630825
1 Jan 2020 04:58:30.000,31.884,-78.086,24404.489926
1 Jan 2020 04:59:00.000,34.436,-78.186,24348.195647
1 Jan 2020 04:59:30.000,37.041,-78.275,24298.873661
1 Jan 2020 05:00:00.000,39.695,-78.354,24256.637653
1 Jan 2020 05:00:30.000,42.392,-78.420,24221.588428
1 Jan 2020 05:01:00.000,45.125,-78.474,24193.813667
1 Jan 2020 05:01:30.000,47.886,-78.513,24173.387440
1 Jan 2020 05:02:00.000,50.667,-78.539,24160.369843
1 Jan 2020 05:02:30.000,53.459,-78.550,24154.806681
1 Jan 2020 05:03:00.000,56.253,-78.546,24156.729254
1 Jan 2020 05:03:30.000,59.039,-78.528,24166.154205
1 Jan 2020 05:04:00.000,61.809,-78.495,24183.083443
1 Jan 2020 05:04:30.000,64.554,-78.448,24207.504215
1 Jan 2020 05:05:00.000,67.266,-78.388,24239.388884
1 Jan 2020 05:05:30.000,69.936,-78.314,24278.695509
1 Jan 2020 05:06:00.000,72.558,-78.229,24325.367793
1 Jan 2020 05:06:30.000,75.127,-78.132,24379.335445
1 Jan 2020 05:07:00.000,77.636,-78.025,24440.514678
1 Jan 2020 05:07:30.000,80.082,-77.909,24508.808085
1 Jan 2020 05:08:00.000,82.462,-77.785,24584.105920
1 Jan 2020 05:08:30.000,84.773,-77.655,24666.286105
1 Jan 2020 05:09:00.000,87.014,-77.519,24755.214933
1 Jan 2020 05:09:30.000,89.185,-77.379,24850.747865
1 Jan 2020 05:10:00.000,91.285,-77.235,24952.729451
1 Jan 2020 05:10:30.000,93.314,-77.090,25060.995073
1 Jan 2020 05:11:00.000,95.275,-76.944,25175.370929
1 Jan 2020 05:11:30.000,97.168,-76.798,25295.674907
1 Jan 2020 05:12:00.000,98.995,-76.653,25421.717301
1 Jan 2020 05:12:30.000,100.758,-76.511,25553.301754
1 Jan 2020 05:13:00.000,102.459,-76.372,25690.224999
1 Jan 2020 05:13:30.000,104.101,-76.236,25832.278993
1 Jan 2020 05:14:00.000,105.686,-76.106,25979.250648
1 Jan 2020 05:14:30.000,107.216,-75.981,26130.922724
1 Jan 2020 05:15:00.000,108.695,-75.862,26287.074474
1 Jan 2020 05:15:30.000,110.125,-75.750,26447.482261
1 Jan 2020 05:16:00.000,111.507,-75.646,26611.920406
1 Jan 2020 05:16:30.000,112.845,-75.549,26780.160712
1 Jan 2020 05:17:00.000,114.141,-75.460,26951.974550
1 Jan 2020 05:17:30.000,115.398,-75.380,27127.132329
1 Jan 2020 05:18:00.000,116.617,-75.309,27305.404222
1 Jan 2020 05:18:30.000,117.800,-75.247,27486.560607
1 Jan 2020 05:19:00.000,118.950,-75.194,27670.372474
1 Jan 2020 05:19:30.000,120.070,-75.151,27856.611799
1 Jan 2020 05:20:00.000,121.160,-75.117,28045.051897
1 Jan 2020 05:20:30.000,122.222,-75.093,28235.467731
1 Jan 2020 05:21:00.000,123.259,-75.079,28427.636210
1 Jan 2020 05:21:27.415,124.186,-75.075,28604.591505
1 Jan 2020 06:21:26.086,310.633,-75.065,28599.460173
1 Jan 2020 06:21:56.000,311.000,-75.072,28371.565972
1 Jan 2020 06:22:26.000,311.365,-75.093,28143.041871
1 Jan 2020 06:22:56.000,311.728,-75.128,27914.769818
1 Jan 2020 06:23:26.000,312.089,-75.178,27686.981979
1 Jan 2020 06:23:56.000,312.451,-75.243,27459.916068
1 Jan 2020 06:24:26.000,312.812,-75.324,27233.815292
1 Jan 2020 06:24:56.000,313.175,-75.420,27008.928283
1 Jan 2020 06:25:26.000,313.540,-75.533,26785.508999
1 Jan 2020 06:25:56.000,313.909,-75.662,26563.816596
1 Jan 2020 06:26:26.000,314.281,-75.807,26344.115268
1 Jan 2020 06:26:56.000,314.659,-75.970,26126.674049
1 Jan 2020 06:27:26.000,315.044,-76.150,25911.766579
1 Jan 2020 06:27:56.000,315.436,-76.347,25699.670822
1 Jan 2020 06:28:26.000,315.839,-76.561,25490.668743
1 Jan 2020 06:28:56.000,316.253,-76.794,25285.045931
1 Jan 2020 06:29:26.000,316.680,-77.044,25083.090843
1 Jan 2020 06:29:56.000,317.123,-77.312,24885.095634
1 Jan 2020 06:30:26.000,317.584,-77.597,24691.353633
1 Jan 2020 06:30:56.000,318.066,-77.901,24502.160062
1 Jan 2020 06:31:26.000,318.572,-78.222,24317.811033
1 Jan 2020 06:31:56.000,319.107,-78.562,24138.602819
1 Jan 2020 06:32:26.000,319.676,-78.918,23964.830783
1 Jan 2020 06:32:56.000,320.283,-79.292,23796.789596
1 Jan 2020 06:33:26.000,320.935,-79.682,23634.770674
1 Jan 2020 06:33:56.000,321.641,-80.089,23479.062288
1 Jan 2020 06:34:26.000,322.410,-80.511,23329.948238
1 Jan 2020 06:34:56.000,323.254,-80.948,23187.706524
1 Jan 2020 06:35:26.000,324.188,-81.400,23052.609140
1 Jan 2020 06:35:56.000,325.231,-81.865,22924.919457
1 Jan 2020 06:36:26.000,326.407,-82.343,22804.891972
1 Jan 2020 06:36:56.000,327.747,-82.831,22692.770665
1 Jan 2020 06:37:26.000,329.292,-83.328,22588.788442
1 Jan 2020 06:37:56.000,331.096,-83.833,22493.164850
1 Jan 2020 06:38:26.000,333.234,-84.343,22406.105571
1 Jan 2020 06:38:56.000,335.808,-84.854,22327.800938
1 Jan 2020 06:39:26.000,338.962,-85.362,22258.425317
1 Jan 2020 06:39:56.000,342.903,-85.862,22198.135242
1 Jan 2020 06:40:26.000,347.925,-86.345,22147.068979
1 Jan 2020 06:40:56.000,354.444,-86.798,22105.345426
1 Jan 2020 06:41:26.000,2.998,-87.202,22073.063612
1 Jan 2020 06:41:56.000,14.134,-87.528,22050.301591
1 Jan 2020 06:42:26.000,27.989,-87.740,22037.116229
1 Jan 2020 06:42:56.000,43.616,-87.801,22033.542744
1 Jan 2020 06:43:26.000,58.958,-87.699,22039.594443
1 Jan 2020 06:43:56.000,72.157,-87.455,22055.262640
1 Jan 2020 06:44:26.000,82.589,-87.105,22080.516734
1 Jan 2020 06:44:56.000,90.555,-86.686,22115.304503
1 Jan 2020 06:45:26.000,96.623,-86.223,22159.552149
1 Jan 2020 06:45:56.000,101.305,-85.734,22213.165254
1 Jan 2020 06:46:26.000,104.983,-85.230,22276.029141
1 Jan 2020 06:46:56.000,107.927,-84.719,22348.009845
1 Jan 2020 06:47:26.000,110.325,-84.206,22428.954411
1 Jan 2020 06:47:56.000,112.310,-83.696,22518.692707
1 Jan 2020 06:48:26.000,113.975,-83.191,22617.037925
1 Jan 2020 06:48:56.000,115.390,-82.694,22723.788037
1 Jan 2020 06:49:26.000,116.605,-82.206,22838.726186
1 Jan 2020 06:49:56.000,117.657,-81.730,22961.623031
1 Jan 2020 06:50:26.000,118.576,-81.267,23092.237236
1 Jan 2020 06:50:56.000,119.385,-80.816,23230.316882
1 Jan 2020 06:51:26.000,120.100,-80.381,23375.600989
1 Jan 2020 06:51:56.000,120.737,-79.961,23527.819593
1 Jan 2020 06:52:26.000,121.306,-79.556,23686.696608
1 Jan 2020 06:52:56.000,121.816,-79.169,23851.949870
1 Jan 2020 06:53:26.000,122.276,-78.798,24023.292512
1 Jan 2020 06:53:56.000,122.690,-78.445,24200.434008
1 Jan 2020 06:54:26.000,123.065,-78.109,24383.081505
1 Jan 2020 06:54:56.000,123.405,-77.791,24570.939429
1 Jan 2020 06:55:26.000,123.713,-77.491,24763.712325
1 Jan 2020 06:55:56.000,123.992,-77.210,24961.104357
1 Jan 2020 06:56:26.000,124.246,-76.946,25162.820375
1 Jan 2020 06:56:56.000,124.476,-76.700,25368.566583
1 Jan 2020 06:57:26.000,124.684,-76.473,25578.051159
1 Jan 2020 06:57:56.000,124.873,-76.263,25790.984800
1 Jan 2020 06:58:26.000,125.043,-76.072,26007.081215
1 Jan 2020 06:58:56.000,125.196,-75.897,26226.057923
1 Jan 2020 06:59:26.000,125.333,-75.741,26447.635197
1 Jan 2020 06:59:56.000,125.455,-75.601,26671.538543
1 Jan 2020 07:00:26.000,125.562,-75.479,26897.497561
1 Jan 2020 07:00:56.000,125.657,-75.373,27125.246543
1 Jan 2020 07:01:26.000,125.738,-75.284,27354.524674
1 Jan 2020 07:01:56.000,125.807,-75.210,27585.076200
1 Jan 2020 07:02:26.000,125.864,-75.153,27816.650561
1 Jan 2020 07:02:56.000,125.910,-75.110,28049.002495
1 Jan 2020 07:03:26.000,125.945,-75.083,28281.892115
1 Jan 2020 07:03:56.000,125.969,-75.071,28515.084961
1 Jan 2020 07:04:06.618,125.975,-75.070,28597.652540
1 Jan 2020 08:04:05.526,302.807,-75.063,28593.946700
1 Jan 2020 08:04:35.000,302.123,-75.069,28382.348129
1 Jan 2020 08:05:05.000,301.405,-75.087,28167.976640
1 Jan 2020 08:05:35.000,300.663,-75.118,27954.847231
1 Jan 2020 08:06:05.000,299.897,-75.161,27743.194639
1 Jan 2020 08:06:35.000,299.104,-75.217,27533.257193
1 Jan 2020 08:07:05.000,298.282,-75.285,27325.276612
1 Jan 2020 08:07:35.000,297.428,-75.367,27119.497770
1 Jan 2020 08:08:05.000,296.542,-75.460,26916.168437
1 Jan 2020 08:08:35.000,295.620,-75.567,26715.538978
1 Jan 2020 08:09:05.000,294.659,-75.685,26517.862018
1 Jan 2020 08:09:35.000,293.657,-75.816,26323.392071
1 Jan 2020 08:10:05.000,292.610,-75.959,26132.385126
1 Jan 2020 08:10:35.000,291.516,-76.114,25945.097879
1 Jan 2020 08:11:05.000,290.370,-76.280,25761.788511
1 Jan 2020 08:11:35.000,289.169,-76.456,25582.714224
1 Jan 2020 08:12:05.000,287.908,-76.644,25408.131950
1 Jan 2020 08:12:35.000,286.583,-76.841,25238.297395
1 Jan 2020 08:13:05.000,285.189,-77.047,25073.464374
1 Jan 2020 08:13:35.000,283.721,-77.261,24913.883842
1 Jan 2020 08:14:05.000,282.174,-77.483,24759.804172
1 Jan 2020 08:14:35.000,280.541,-77.712,24611.468807
1 Jan 2020 08:15:05.000,278.817,-77.945,24469.116487
1 Jan 2020 08:15:35.000,276.995,-78.183,24332.980125
1 Jan 2020 08:16:05.000,275.068,-78.424,24203.285718
1 Jan 2020 08:16:35.000,273.030,-78.665,24080.252334
1 Jan 2020 08:17:05.000,270.875,-78.906,23964.089854
1 Jan 2020 08:17:35.000,268.596,-79.145,23854.998971
1 Jan 2020 08:18:05.000,266.186,-79.379,23753.170046
1 Jan 2020 08:18:35.000,263.643,-79.607,23658.782024
1 Jan 2020 08:19:05.000,260.960,-79.826,23572.002327
1 Jan 2020 08:19:35.000,258.137,-80.034,23492.984832
1 Jan 2020 08:20:05.000,255.174,-80.229,23421.869861
1 Jan 2020 08:20:35.000,252.071,-80.409,23358.783113
1 Jan 2020 08:21:05.000,248.837,-80.571,23303.835443
1 Jan 2020 08:21:35.000,245.478,-80.712,23257.121503
1 Jan 2020 08:22:05.000,242.008,-80.831,23218.719698
1 Jan 2020 08:22:35.000,238.443,-80.926,23188.691529
1 Jan 2020 08:23:05.000,234.804,-80.996,23167.081497
1 Jan 2020 08:23:35.000,231.111,-81.039,23153.916396
1 Jan 2020 08:24:05.000,227.391,-81.054,23149.205448
1 Jan 2020 08:24:35.000,223.669,-81.042,23152.940142
1 Jan 2020 08:25:05.000,219.970,-81.002,23165.094328
1 Jan 2020 08:25:35.000,216.320,-80.936,23185.624258
1 Jan 2020 08:26:05.000,212.741,-80.845,23214.468914
1 Jan 2020 08:26:35.000,209.253,-80.730,23251.550377
1 Jan 2020 08:27:05.000,205.871,-80.592,23296.774089
1 Jan 2020 08:27:35.000,202.608,-80.435,23350.029628
1 Jan 2020 08:28:05.000,199.472,-80.260,23411.191168
1 Jan 2020 08:28:35.000,196.468,-80.070,23480.118291
1 Jan 2020 08:29:05.000,193.600,-79.867,23556.656367
1 Jan 2020 08:29:35.000,190.866,-79.653,23640.637892
1 Jan 2020 08:30:05.000,188.265,-79.430,23731.882988
1 Jan 2020 08:30:35.000,185.791,-79.202,23830.200375
1 Jan 2020 08:31:05.000,183.441,-78.969,23935.388443
1 Jan 2020 08:31:35.000,181.209,-78.733,24047.235514
1 Jan 2020 08:32:05.000,179.087,-78.497,24165.521754
1 Jan 2020 08:32:35.000,177.069,-78.262,24290.019461
1 Jan 2020 08:33:05.000,175.149,-78.030,24420.494145
1 Jan 2020 08:33:35.000,173.320,-77.801,24556.705427
1 Jan 2020 08:34:05.000,171.576,-77.578,24698.408156
1 Jan 2020 08:34:35.000,169.910,-77.360,24845.352335
1 Jan 2020 08:35:05.000,168.316,-77.149,24997.285317
1 Jan 2020 08:35:35.000,166.789,-76.946,25153.951672
1 Jan 2020 08:36:05.000,165.324,-76.751,25315.094162
1 Jan 2020 08:36:35.000,163.915,-76.566,25480.454435
1 Jan 2020 08:37:05.000,162.558,-76.390,25649.773682
1 Jan 2020 08:37:35.000,161.249,-76.225,25822.793247
1 Jan 2020 08:38:05.000,159.984,-76.069,25999.255461
1 Jan 2020 08:38:35.000,158.759,-75.925,26178.903093
1 Jan 2020 08:39:05.000,157.570,-75.791,26361.481427
1 Jan 2020 08:39:35.000,156.414,-75.669,26546.737631
1 Jan 2020 08:40:05.000,155.288,-75.558,26734.421415
1 Jan 2020 08:40:35.000,154.190,-75.458,26924.285388
1 Jan 2020 08:41:05.000,153.116,-75.370,27116.085363
1 Jan 2020 08:41:35.000,152.065,-75.293,27309.580645
1 Jan 2020 08:42:05.000,151.033,-75.228,27504.534267
1 Jan 2020 08:42:35.000,150.019,-75.174,27700.713210
1 Jan 2020 08:43:05.000,149.021,-75.131,27897.888581
1 Jan 2020 08:43:35.000,148.036,-75.099,28095.835774
1 Jan 2020 08:44:05.000,147.063,-75.078,28294.334595
1 Jan 2020 08:44:35.000,146.100,-75.067,28493.169376
1 Jan 2020 08:44:50.085,145.618,-75.066,28593.210492
1 Jan 2020 09:44:20.050,315.853,-75.065,28592.795819
1 Jan 2020 09:44:50.000,314.479,-75.068,28440.228626
1 Jan 2020 09:45:20.000,313.081,-75.077,28289.544998
1 Jan 2020 09:45:50.000,311.660,-75.092,28141.196960
1 Jan 2020 09:46:20.000,310.215,-75.112,27995.378941
1 Jan 2020 09:46:50.000,308.745,-75.138,27852.284913
1 Jan 2020 09:47:20.000,307.248,-75.169,27712.108034
1 Jan 2020 09:47:50.000,305.723,-75.206,27575.040272
1 Jan 2020 09:48:20.000,304.170,-75.246,27441.272009
1 Jan 2020 09:48:50.000,302.587,-75.291,27310.991631
1 Jan 2020 09:49:20.000,300.973,-75.340,27184.385094
1 Jan 2020 09:49:50.000,299.328,-75.392,27061.635289
1 Jan 2020 09:50:20.000,297.650,-75.448,26942.922370
1 Jan 2020 09:50:50.000,295.938,-75.505,26828.422086
1 Jan 2020 09:51:20.000,294.194,-75.565,26718.306106
1 Jan 2020 09:51:50.000,292.415,-75.627,26612.741323
1 Jan 2020 09:52:20.000,290.601,-75.689,26511.889362
1 Jan 2020 09:52:50.000,288.754,-75.752,26415.906080
1 Jan 2020 09:53:20.000,286.871,-75.815,26324.940921
1 Jan 2020 09:53:50.000,284.955,-75.877,26239.137028
1 Jan 2020 09:54:20.000,283.006,-75.938,26158.629835
1 Jan 2020 09:54:50.000,281.024,-75.998,26083.547213
1 Jan 2020 09:55:20.000,279.011,-76.055,26014.008853
1 Jan 2020 09:55:50.000,276.968,-76.109,25950.125821
1 Jan 2020 09:56:20.000,274.896,-76.160,25892.000038
1 Jan 2020 09:56:50.000,272.798,-76.207,25839.724296
1 Jan 2020 09:57:20.000,270.675,-76.249,25793.381264
1 Jan 2020 09:57:50.000,268.530,-76.287,25753.043578
1 Jan 2020 09:58:20.000,266.365,-76.320,25718.773442
1 Jan 2020 09:58:50.000,264.185,-76.347,25690.622317
1 Jan 2020 09:59:20.000,261.990,-76.369,25668.630904
1 Jan 2020 09:59:50.000,259.785,-76.384,25652.828665
1 Jan 2020 10:00:20.000,257.573,-76.394,25643.233907
1 Jan 2020 10:00:50.000,255.358,-76.397,25639.853646
1 Jan 2020 10:01:20.000,253.142,-76.394,25642.683577
1 Jan 2020 10:01:50.000,250.929,-76.385,25651.708104
1 Jan 2020 10:02:20.000,248.722,-76.370,25666.900366
1 Jan 2020 10:02:50.000,246.525,-76.349,25688.222385
1 Jan 2020 10:03:20.000,244.341,-76.322,25715.625212
1 Jan 2020 10:03:50.000,242.172,-76.290,25749.049174
1 Jan 2020 10:04:20.000,240.022,-76.253,25788.423959
1 Jan 2020 10:04:50.000,237.893,-76.211,25833.669132
1 Jan 2020 10:05:20.000,235.787,-76.165,25884.694309
1 Jan 2020 10:05:50.000,233.707,-76.115,25941.399559
1 Jan 2020 10:06:20.000,231.653,-76.062,26003.675785
1 Jan 2020 10:06:50.000,229.628,-76.006,26071.405247
1 Jan 2020 10:07:20.000,227.633,-75.948,26144.461608
1 Jan 2020 10:07:50.000,225.668,-75.888,26222.710971
1 Jan 2020 10:08:20.000,223.735,-75.827,26306.011979
1 Jan 2020 10:08:50.000,221.834,-75.765,26394.216402
1 Jan 2020 10:09:20.000,219.964,-75.703,26487.169628
1 Jan 2020 10:09:50.000,218.127,-75.642,26584.711175
1 Jan 2020 10:10:20.000,216.322,-75.582,26686.675337
1 Jan 2020 10:10:50.000,214.549,-75.523,26792.891107
1 Jan 2020 10:11:20.000,212.807,-75.465,26903.183544
1 Jan 2020 10:11:50.000,211.095,-75.411,27017.373697
1 Jan 2020 10:12:20.000,209.413,-75.358,27135.279225
1 Jan 2020 10:12:50.000,207.760,-75.310,27256.714870
1 Jan 2020 10:13:20.000,206.136,-75.264,27381.492919
1 Jan 2020 10:13:50.000,204.538,-75.223,27509.423640
1 Jan 2020 10:14:20.000,202.966,-75.186,27640.315714
1 Jan 2020 10:14:50.000,201.419,-75.153,27773.976641
1 Jan 2020 10:15:20.000,199.895,-75.125,27910.213322
1 Jan 2020 10:15:50.000,198.394,-75.102,28048.831659
1 Jan 2020 10:16:20.000,196.914,-75.084,28189.638059
1 Jan 2020 10:16:50.000,195.454,-75.071,28332.438999
1 Jan 2020 10:17:20.000,194.012,-75.064,28477.041525
1 Jan 2020 10:17:43.832,192.879,-75.062,28593.069954
1 Jan 2020 11:15:50.757,5.174,-75.071,28596.344984
1 Jan 2020 11:16:20.000,3.863,-75.074,28441.620996
1 Jan 2020 11:16:50.000,2.503,-75.083,28283.995418
1 Jan 2020 11:17:20.000,1.126,-75.100,28127.682801
1 Jan 2020 11:17:50.000,359.730,-75.123,27972.884253
1 Jan 2020 11:18:20.000,358.314,-75.152,27819.802796
1 Jan 2020 11:18:50.000,356.876,-75.188,27668.643113
1 Jan 2020 11:19:20.000,355.414,-75.229,27519.611259
1 Jan 2020 11:19:50.000,353.927,-75.277,27372.914361
1 Jan 2020 11:20:20.000,352.414,-75.330,27228.760282
1 Jan 2020 11:20:50.000,350.872,-75.389,27087.357273
1 Jan 2020 11:21:20.000,349.300,-75.453,26948.913589
1 Jan 2020 11:21:50.000,347.696,-75.522,26813.637088
1 Jan 2020 11:22:20.000,346.059,-75.595,26681.734801
1 Jan 2020 11:22:50.000,344.387,-75.672,26553.412296
1 Jan 2020 11:23:20.000,342.680,-75.753,26428.873957
1 Jan 2020 11:23:50.000,340.935,-75.836,26308.321342
1 Jan 2020 11:24:20.000,339.151,-75.922,26191.953438
1 Jan 2020 11:24:50.000,337.327,-76.010,26079.965930
1 Jan 2020 11:25:20.000,335.463,-76.100,25972.550648
1 Jan 2020 11:25:50.000,333.558,-76.190,25869.894999
1 Jan 2020 11:26:20.000,331.610,-76.280,25772.181262
1 Jan 2020 11:26:50.000,329.621,-76.369,25679.586531
1 Jan 2020 11:27:20.000,327.589,-76.457,25592.281318
1 Jan 2020 11:27:50.000,325.515,-76.542,25510.429506
1 Jan 2020 11:28:20.000,323.400,-76.625,25434.187628
1 Jan 2020 11:28:50.000,321.246,-76.704,25363.704288
1 Jan 2020 11:29:20.000,319.052,-76.779,25299.119509
1 Jan 2020 11:29:50.000,316.823,-76.848,25240.564527
1 Jan 2020 11:30:20.000,314.558,-76.912,25188.160742
1 Jan 2020 11:30:50.000,312.263,-76.969,25142.019576
1 Jan 2020 11:31:20.000,309.939,-77.020,25102.241916
1 Jan 2020 11:31:50.000,307.590,-77.063,25068.917656
1 Jan 2020 11:32:20.000,305.220,-77.098,25042.125424
1 Jan 2020 11:32:50.000,302.834,-77.125,25021.932050
1 Jan 2020 11:33:20.000,300.436,-77.142,25008.392401
1 Jan 2020 11:33:50.000,298.031,-77.151,25001.549106
1 Jan 2020 11:34:20.000,295.623,-77.152,25001.432389
1 Jan 2020 11:34:50.000,293.219,-77.143,25008.059840
1 Jan 2020 11:35:20.000,290.822,-77.125,25021.436468
1 Jan 2020 11:35:50.000,288.438,-77.098,25041.554608
1 Jan 2020 11:36:20.000,286.071,-77.063,25068.393978
1 Jan 2020 11:36:50.000,283.726,-77.019,25101.921857
1 Jan 2020 11:37:20.000,281.407,-76.968,25142.092937
1 Jan 2020 11:37:50.000,279.118,-76.909,25188.849978
1 Jan 2020 11:38:20.000,276.862,-76.844,25242.123782
1 Jan 2020 11:38:50.000,274.643,-76.773,25301.833582
1 Jan 2020 11:39:20.000,272.463,-76.697,25367.887519
1 Jan 2020 11:39:50.000,270.324,-76.616,25440.182561
1 Jan 2020 11:40:20.000,268.228,-76.531,25518.605658
1 Jan 2020 11:40:50.000,266.176,-76.442,25603.033744
1 Jan 2020 11:41:20.000,264.170,-76.352,25693.334359
1 Jan 2020 11:41:50.000,262.210,-76.260,25789.366172
1 Jan 2020 11:42:20.000,260.296,-76.167,25890.979714
1 Jan 2020 11:42:50.000,258.428,-76.074,25998.017193
1 Jan 2020 11:43:20.000,256.607,-75.982,26110.314170
1 Jan 2020 11:43:50.000,254.830,-75.891,26227.699409
1 Jan 2020 11:44:20.000,253.098,-75.802,26349.995629
1 Jan 2020 11:44:50.000,251.410,-75.716,26477.020079
1 Jan 2020 11:45:20.000,249.764,-75.633,26608.585109
1 Jan 2020 11:45:50.000,248.160,-75.554,26744.498954
1 Jan 2020 11:46:20.000,246.595,-75.480,26884.565374
1 Jan 2020 11:46:50.000,245.069,-75.410,27028.585536
1 Jan 2020 11:47:20.000,243.580,-75.346,27176.357632
1 Jan 2020 11:47:50.000,242.127,-75.287,27327.677599
1 Jan 2020 11:48:20.000,240.708,-75.235,27482.339588
1 Jan 2020 11:48:50.000,239.321,-75.189,27640.136418
1 Jan 2020 11:49:20.000,237.965,-75.150,27800.860006
1 Jan 2020 11:49:50.000,236.638,-75.118,27964.301772
1 Jan 2020 11:50:20.000,235.339,-75.093,28130.253018
1 Jan 2020 11:50:50.000,234.067,-75.076,28298.505289
1 Jan 2020 11:51:20.000,232.818,-75.066,28468.850967
1 Jan 2020 11:51:42.406,231.901,-75.064,28597.319696
1 Jan 2020 12:51:35.171,43.197,-75.075,28602.455883
1 Jan 2020 12:52:05.000,42.517,-75.081,28387.130317
1 Jan 2020 12:52:35.000,41.830,-75.100,28170.612520
1 Jan 2020 12:53:05.000,41.137,-75.131,27954.355203
1 Jan 2020 12:53:35.000,40.438,-75.176,27738.584279
1 Jan 2020 12:54:05.000,39.731,-75.235,27523.530876
1 Jan 2020 12:54:35.000,39.013,-75.307,27309.431270
1 Jan 2020 12:55:05.000,38.284,-75.393,27096.526791
1 Jan 2020 12:55:35.000,37.542,-75.493,26885.063698
1 Jan 2020 12:56:05.000,36.783,-75.608,26675.293035
1 Jan 2020 12:56:35.000,36.007,-75.737,26467.470447
1 Jan 2020 12:57:05.000,35.211,-75.880,26261.855965
1 Jan 2020 12:57:35.000,34.391,-76.039,26058.713752
1 Jan 2020 12:58:05.000,33.546,-76.212,25858.311809
1 Jan 2020 12:58:35.000,32.672,-76.400,25660.921638
1 Jan 2020 12:59:05.000,31.765,-76.603,25466.817861
1 Jan 2020 12:59:35.000,30.822,-76.820,25276.277488
1 Jan 2020 13:00:05.000,29.837,-77.052,25089.580616
1 Jan 2020 13:00:35.000,28.807,-77.298,24907.008114
1 Jan 2020 13:01:05.000,27.726,-77.558,24728.842220
1 Jan 2020 13:01:35.000,26.587,-77.832,24555.365593
1 Jan 2020 13:02:05.000,25.384,-78.118,24386.860605
1 Jan 2020 13:02:35.000,24.108,-78.417,24223.608345
1 Jan 2020 13:03:05.000,22.750,-78.728,24065.888744
1 Jan 2020 13:03:35.000,21.301,-79.050,23913.978269
1 Jan 2020 13:04:05.000,19.749,-79.381,23768.149959
1 Jan 2020 13:04:35.000,18.080,-79.721,23628.672207
1 Jan 2020 13:05:05.000,16.279,-80.068,23495.807543
1 Jan 2020 13:05:35.000,14.330,-80.421,23369.812390
1 Jan 2020 13:06:05.000,12.213,-80.777,23250.934744
1 Jan 2020 13:06:35.000,9.907,-81.134,23139.413899
1 Jan 2020 13:07:05.000,7.386,-81.490,23035.478981
1 Jan 2020 13:07:35.000,4.626,-81.842,22939.348397
1 Jan 2020 13:08:05.000,1.598,-82.186,22851.227846
1 Jan 2020 13:08:35.000,358.274,-82.519,22771.309830
1 Jan 2020 13:09:05.000,354.625,-82.835,22699.772347
1 Jan 2020 13:09:35.000,350.628,-83.131,22636.778297
1 Jan 2020 13:10:05.000,346.267,-83.400,22582.473899
1 Jan 2020 13:10:35.000,341.537,-83.637,22536.988259
1 Jan 2020 13:11:05.000,336.454,-83.835,22500.432435
1 Jan 2020 13:11:35.000,331.056,-83.990,22472.898929
1 Jan 2020 13:12:05.000,325.405,-84.097,22454.460814
1 Jan 2020 13:12:35.000,319.590,-84.152,22445.171485
1 Jan 2020 13:13:05.000,313.718,-84.152,22445.064293
1 Jan 2020 13:13:35.000,307.903,-84.098,22454.152252
1 Jan 2020 13:14:05.000,302.251,-83.992,22472.428065
1 Jan 2020 13:14:35.000,296.852,-83.837,22499.864134
1 Jan 2020 13:15:05.000,291.772,-83.638,22536.412852
1 Jan 2020 13:15:35.000,287.050,-83.400,22582.006574
1 Jan 2020 13:16:05.000,282.702,-83.130,22636.558562
1 Jan 2020 13:16:35.000,278.725,-82.832,22699.963235
1 Jan 2020 13:17:05.000,275.103,-82.513,22772.097059
1 Jan 2020 13:17:35.000,271.814,-82.178,22852.818733
1 Jan 2020 13:18:05.000,268.830,-81.830,22941.970903
1 Jan 2020 13:18:35.000,266.122,-81.474,23039.380530
1 Jan 2020 13:19:05.000,263.662,-81.113,23144.860213
1 Jan 2020 13:19:35.000,261.424,-80.751,23258.208468
1 Jan 2020 13:20:05.000,259.383,-80.390,23379.211919
1 Jan 2020 13:20:35.000,257.518,-80.033,23507.645663
1 Jan 2020 13:21:05.000,255.810,-79.681,23643.274559
1 Jan 2020 13:21:35.000,254.241,-79.336,23785.854605
1 Jan 2020 13:22:05.000,252.797,-79.000,23935.132947
1 Jan 2020 13:22:35.000,251.463,-78.674,24090.850564
1 Jan 2020 13:23:05.000,250.230,-78.359,24252.742253
1 Jan 2020 13:23:35.000,249.085,-78.056,24420.537895
1 Jan 2020 13:24:05.000,248.021,-77.765,24593.963422
1 Jan 2020 13:24:35.000,247.029,-77.488,24772.742056
1 Jan 2020 13:25:05.000,246.103,-77.225,24956.593901
1 Jan 2020 13:25:35.000,245.236,-76.977,25145.238656
1 Jan 2020 13:26:05.000,244.424,-76.743,25338.395114
1 Jan 2020 13:26:35.000,243.661,-76.524,25535.782180
1 Jan 2020 13:27:05.000,242.943,-76.321,25737.119511
1 Jan 2020 13:27:35.000,242.266,-76.133,25942.128111
1 Jan 2020 13:28:05.000,241.627,-75.960,26150.530863
1 Jan 2020 13:28:35.000,241.023,-75.803,26362.053014
1 Jan 2020 13:29:05.000,240.451,-75.662,26576.422955
1 Jan 2020 13:29:35.000,239.909,-75.536,26793.371214
1 Jan 2020 13:30:05.000,239.395,-75.426,27012.632876
1 Jan 2020 13:30:35.000,238.906,-75.330,27233.946493
1 Jan 2020 13:31:05.000,238.441,-75.250,27457.054686
1 Jan 2020 13:31:35.000,237.998,-75.185,27681.704366
1 Jan 2020 13:32:05.000,237.576,-75.134,27907.646911
1 Jan 2020 13:32:35.000,237.173,-75.098,28134.638326
1 Jan 2020 13:33:05.000,236.789,-75.076,28362.439361
1 Jan 2020 13:33:35.000,236.421,-75.069,28590.815615
1 Jan 2020 13:33:36.767,236.400,-75.069,28604.281706
1 Jan 2020 14:33:36.984,56.420,-75.077,28608.725767
1 Jan 2020 14:34:06.000,56.778,-75.084,28387.904703
1 Jan 2020 14:34:36.000,57.166,-75.104,28160.147485
1 Jan 2020 14:35:06.000,57.572,-75.139,27933.184081
1 Jan 2020 14:35:36.000,57.997,-75.188,27707.253577
1 Jan 2020 14:36:06.000,58.443,-75.252,27482.599805
1 Jan 2020 14:36:36.000,58.911,-75.331,27259.471219
1 Jan 2020 14:37:06.000,59.403,-75.425,27038.120743
1 Jan 2020 14:37:36.000,59.921,-75.534,26818.805590
1 Jan 2020 14:38:06.000,60.466,-75.658,26601.787042
1 Jan 2020 14:38:36.000,61.041,-75.798,26387.330195
1 Jan 2020 14:39:06.000,61.648,-75.953,26175.703669
1 Jan 2020 14:39:36.000,62.290,-76.124,25967.179268
1 Jan 2020 14:40:06.000,62.969,-76.310,25762.031598
1 Jan 2020 14:40:36.000,63.691,-76.512,25560.537303
1 Jan 2020 14:41:06.000,64.457,-76.729,25362.975929
1 Jan 2020 14:41:36.000,65.272,-76.961,25169.627364
1 Jan 2020 14:42:06.000,66.141,-77.207,24980.772609
1 Jan 2020 14:42:36.000,67.070,-77.469,24796.692793
1 Jan 2020 14:43:06.000,68.064,-77.744,24617.668475
1 Jan 2020 14:43:36.000,69.130,-78.032,24443.978611
1 Jan 2020 14:44:06.000,70.276,-78.334,24275.900866
1 Jan 2020 14:44:36.000,71.511,-78.647,24113.709055
1 Jan 2020 14:45:06.000,72.845,-78.971,23957.673366
1 Jan 2020 14:45:36.000,74.290,-79.305,23808.059111
1 Jan 2020 14:46:06.000,75.858,-79.648,23665.125478
1 Jan 2020 14:46:36.000,77.564,-79.998,23529.125487
1 Jan 2020 14:47:06.000,79.426,-80.354,23400.303403
1 Jan 2020 14:47:36.000,81.462,-80.713,23278.894668
1 Jan 2020 14:48:06.000,83.694,-81.073,23165.124355
1 Jan 2020 14:48:36.000,86.145,-81.432,23059.206810
1 Jan 2020 14:49:06.000,88.841,-81.786,22961.343417
1 Jan 2020 14:49:36.000,91.810,-82.132,22871.722300
1 Jan 2020 14:50:06.000,95.079,-82.467,22790.516936
1 Jan 2020 14:50:36.000,98.675,-82.785,22717.885770
1 Jan 2020 14:51:06.000,102.622,-83.081,22653.970362
1 Jan 2020 14:51:36.000,106.933,-83.351,22598.895154
1 Jan 2020 14:52:06.000,111.613,-83.589,22552.766452
1 Jan 2020 14:52:36.000,116.647,-83.789,22515.672135
1 Jan 2020 14:53:06.000,121.995,-83.945,22487.680482
1 Jan 2020 14:53:36.000,127.596,-84.053,22468.840147
1 Jan 2020 14:54:06.000,133.362,-84.110,22459.179691
1 Jan 2020 14:54:36.000,139.190,-84.112,22458.707511
1 Jan 2020 14:55:06.000,144.968,-84.061,22467.411561
1 Jan 2020 14:55:36.000,150.592,-83.958,22485.259579
1 Jan 2020 14:56:06.000,155.973,-83.807,22512.199290
1 Jan 2020 14:56:36.000,161.048,-83.613,22548.158576
1 Jan 2020 14:57:06.000,165.778,-83.380,22593.046138
1 Jan 2020 14:57:36.000,170.145,-83.115,22646.751950
1 Jan 2020 14:58:06.000,174.153,-82.823,22709.148065
1 Jan 2020 14:58:36.000,177.817,-82.510,22780.088995
1 Jan 2020 14:59:06.000,181.157,-82.180,22859.413150
1 Jan 2020 14:59:36.000,184.203,-81.838,22946.943415
1 Jan 2020 15:00:06.000,186.981,-81.489,23042.488380
1 Jan 2020 15:00:36.000,189.518,-81.135,23145.842812
1 Jan 2020 15:01:06.000,191.842,-80.779,23256.789596
1 Jan 2020 15:01:36.000,193.975,-80.424,23375.100285
1 Jan 2020 15:02:06.000,195.940,-80.073,23500.536353
1 Jan 2020 15:02:36.000,197.755,-79.727,23632.850546
1 Jan 2020 15:03:06.000,199.438,-79.388,23771.787080
1 Jan 2020 15:03:36.000,201.003,-79.057,23917.084066
1 Jan 2020 15:04:06.000,202.465,-78.736,24068.473688
1 Jan 2020 15:04:36.000,203.834,-78.426,24225.683436
1 Jan 2020 15:05:06.000,205.120,-78.127,24388.437082
1 Jan 2020 15:05:36.000,206.334,-77.841,24556.455888
1 Jan 2020 15:06:06.000,207.483,-77.567,24729.458377
1 Jan 2020 15:06:36.000,208.573,-77.307,24907.162799
1 Jan 2020 15:07:06.000,209.611,-77.061,25089.286810
1 Jan 2020 15:07:36.000,210.604,-76.829,25275.548450
1 Jan 2020 15:08:06.000,211.554,-76.611,25465.666794
1 Jan 2020 15:08:36.000,212.468,-76.408,25659.362552
1 Jan 2020 15:09:06.000,213.349,-76.219,25856.358601
1 Jan 2020 15:09:36.000,214.201,-76.046,26056.380480
1 Jan 2020 15:10:06.000,215.026,-75.887,26259.157128
1 Jan 2020 15:10:36.000,215.828,-75.743,26464.420039
1 Jan 2020 15:11:06.000,216.610,-75.613,26671.905448
1 Jan 2020 15:11:36.000,217.373,-75.498,26881.353396
1 Jan 2020 15:12:06.000,218.121,-75.397,27092.508298
1 Jan 2020 15:12:36.000,218.854,-75.310,27305.119153
1 Jan 2020 15:13:06.000,219.576,-75.237,27518.939734
1 Jan 2020 15:13:36.000,220.288,-75.178,27733.728732
1 Jan 2020 15:14:06.000,220.991,-75.132,27949.249884
1 Jan 2020 15:14:36.000,221.687,-75.100,28165.272063
1 Jan 2020 15:15:06.000,222.378,-75.080,28381.569354
1 Jan 2020 15:15:36.000,223.065,-75.073,28597.921102
1 Jan 2020 15:15:37.654,223.103,-75.073,28609.847413
1 Jan 2020 16:15:31.029,51.823,-75.077,28611.481552
1 Jan 2020 16:16:01.000,53.055,-75.081,28440.104219
1 Jan 2020 16:16:31.000,54.312,-75.093,28270.499273
1 Jan 2020 16:17:01.000,55.594,-75.112,28103.042958
1 Jan 2020 16:17:31.000,56.903,-75.139,27937.943356
1 Jan 2020 16:18:01.000,58.240,-75.172,27775.409028
1 Jan 2020 16:18:31.000,59.606,-75.213,27615.648678
1 Jan 2020 16:19:01.000,61.004,-75.261,27458.870783
1 Jan 2020 16:19:31.000,62.434,-75.314,27305.283207
1 Jan 2020 16:20:01.000,63.899,-75.374,27155.092785
1 Jan 2020 16:20:31.000,65.400,-75.440,27008.504891
1 Jan 2020 16:21:01.000,66.938,-75.511,26865.722747
1 Jan 2020 16:21:31.000,68.515,-75.586,26726.947873
1 Jan 2020 16:22:01.000,70.133,-75.666,26592.378181
1 Jan 2020 16:22:31.000,71.792,-75.749,26462.208401
1 Jan 2020 16:23:01.000,73.494,-75.836,26336.629307
1 Jan 2020 16:23:31.000,75.239,-75.925,26215.827167
1 Jan 2020 16:24:01.000,77.029,-76.016,26099.983181
1 Jan 2020 16:24:31.000,78.865,-76.108,25989.272718
1 Jan 2020 16:25:01.000,80.746,-76.200,25883.865530
1 Jan 2020 16:25:31.000,82.674,-76.292,25783.923977
1 Jan 2020 16:26:01.000,84.648,-76.384,25689.603260
1 Jan 2020 16:26:31.000,86.667,-76.473,25601.050648
1 Jan 2020 16:27:01.000,88.731,-76.560,25518.404929
1 Jan 2020 16:27:31.000,90.840,-76.644,25441.795716
1 Jan 2020 16:28:01.000,92.990,-76.723,25371.343530
1 Jan 2020 16:28:31.000,95.182,-76.798,25307.158391
1 Jan 2020 16:29:01.000,97.411,-76.867,25249.339979
1 Jan 2020 16:29:31.000,99.676,-76.930,25197.977041
1 Jan 2020 16:30:01.000,101.973,-76.986,25153.146921
1 Jan 2020 16:30:31.000,104.299,-77.034,25114.915566
1 Jan 2020 16:31:01.000,106.649,-77.075,25083.336680
1 Jan 2020 16:31:31.000,109.020,-77.108,25058.451853
1 Jan 2020 16:32:01.000,111.407,-77.132,25040.290269
1 Jan 2020 16:32:31.000,113.806,-77.147,25028.868529
1 Jan 2020 16:33:01.000,116.210,-77.153,25024.190721
1 Jan 2020 16:33:31.000,118.616,-77.151,25026.248154
1 Jan 2020 16:34:01.000,121.018,-77.139,25035.019567
1 Jan 2020 16:34:31.000,123.411,-77.119,25050.471172
1 Jan 2020 16:35:01.000,125.791,-77.089,25072.556828
1 Jan 2020 16:35:31.000,128.154,-77.052,25101.218175
1 Jan 2020 16:36:01.000,130.495,-77.007,25136.384982
1 Jan 2020 16:36:31.000,132.809,-76.955,25177.975414
1 Jan 2020 16:37:01.000,135.095,-76.895,25225.896392
1 Jan 2020 16:37:31.000,137.348,-76.830,25280.044069
1 Jan 2020 16:38:01.000,139.567,-76.759,25340.304004
1 Jan 2020 16:38:31.000,141.748,-76.683,25406.552019
1 Jan 2020 16:39:01.000,143.890,-76.603,25478.654465
1 Jan 2020 16:39:31.000,145.992,-76.520,25556.468809
1 Jan 2020 16:40:01.000,148.053,-76.434,25639.844190
1 Jan 2020 16:40:31.000,150.072,-76.346,25728.622119
1 Jan 2020 16:41:01.000,152.049,-76.257,25822.636547
1 Jan 2020 16:41:31.000,153.984,-76.167,25921.715209
1 Jan 2020 16:42:01.000,155.877,-76.077,26025.679717
1 Jan 2020 16:42:31.000,157.729,-75.988,26134.346273
1 Jan 2020 16:43:01.000,159.541,-75.901,26247.526254
1 Jan 2020 16:43:31.000,161.313,-75.816,26365.026781
1 Jan 2020 16:44:01.000,163.048,-75.733,26486.651456
1 Jan 2020 16:44:31.000,164.745,-75.654,26612.200238
1 Jan 2020 16:45:01.000,166.406,-75.578,26741.470968
1 Jan 2020 16:45:31.000,168.034,-75.507,26874.259223
1 Jan 2020 16:46:01.000,169.628,-75.439,27010.358973
1 Jan 2020 16:46:31.000,171.192,-75.377,27149.563042
1 Jan 2020 16:47:01.000,172.726,-75.320,27291.663562
1 Jan 2020 16:47:31.000,174.232,-75.269,27436.452384
1 Jan 2020 16:48:01.000,175.712,-75.223,27583.721482
1 Jan 2020 16:48:31.000,177.167,-75.183,27733.263322
1 Jan 2020 16:49:01.000,178.599,-75.149,27884.871210
1 Jan 2020 16:49:31.000,180.010,-75.122,28038.339611
1 Jan 2020 16:50:01.000,181.401,-75.101,28193.464456
1 Jan 2020 16:50:31.000,182.773,-75.087,28350.043630
1 Jan 2020 16:51:01.000,184.129,-75.079,28507.876352
1 Jan 2020 16:51:20.566,185.005,-75.077,28611.397966
1 Jan 2020 17:49:28.985,12.696,-75.072,28609.200745
1 Jan 2020 17:49:58.000,14.076,-75.075,28467.991410
1 Jan 2020 17:50:28.000,15.521,-75.083,28323.601976
1 Jan 2020 17:50:58.000,16.984,-75.097,28181.042164
1 Jan 2020 17:51:28.000,18.468,-75.116,28040.505149
1 Jan 2020 17:51:58.000,19.972,-75.140,27902.184644
1 Jan 2020 17:52:28.000,21.500,-75.169,27766.274589
1 Jan 2020 17:52:58.000,23.051,-75.203,27632.968814
1 Jan 2020 17:53:28.000,24.627,-75.241,27502.460687
1 Jan 2020 17:53:58.000,26.229,-75.283,27374.942739
1 Jan 2020 17:54:28.000,27.858,-75.330,27250.606274
1 Jan 2020 17:54:58.000,29.516,-75.379,27129.640952
1 Jan 2020 17:55:28.000,31.203,-75.432,27012.234204
1 Jan 2020 17:55:58.000,32.920,-75.488,26898.571431
1 Jan 2020 17:56:28.000,34.668,-75.545,26788.834563
1 Jan 2020 17:56:58.000,36.447,-75.605,26683.202245
1 Jan 2020 17:57:28.000,38.258,-75.666,26581.849183
1 Jan 2020 17:57:58.000,40.101,-75.728,26484.945649
1 Jan 2020 17:58:28.000,41.976,-75.790,26392.656979
1 Jan 2020 17:58:58.000,43.883,-75.852,26305.142950
1 Jan 2020 17:59:28.000,45.823,-75.913,26222.557747
1 Jan 2020 17:59:58.000,47.794,-75.973,26145.048736
1 Jan 2020 18:00:28.000,49.795,-76.031,26072.756457
1 Jan 2020 18:00:58.000,51.826,-76.087,26005.814003
1 Jan 2020 18:01:28.000,53.886,-76.140,25944.346551
1 Jan 2020 18:01:58.000,55.973,-76.190,25888.470828
1 Jan 2020 18:02:28.000,58.084,-76.235,25838.294960
1 Jan 2020 18:02:58.000,60.219,-76.277,25793.917614
1 Jan 2020 18:03:28.000,62.374,-76.313,25755.427916
1 Jan 2020 18:03:58.000,64.547,-76.345,25722.905016
1 Jan 2020 18:04:28.000,66.736,-76.371,25696.417771
1 Jan 2020 18:04:58.000,68.937,-76.391,25676.024444
1 Jan 2020 18:05:28.000,71.147,-76.405,25661.772540
1 Jan 2020 18:05:58.000,73.364,-76.414,25653.698478
1 Jan 2020 18:06:28.000,75.582,-76.416,25651.827537
1 Jan 2020 18:06:58.000,77.800,-76.411,25656.173720
1 Jan 2020 18:07:28.000,80.014,-76.401,25666.739732
1 Jan 2020 18:07:58.000,82.220,-76.384,25683.516849
1 Jan 2020 18:08:28.000,84.415,-76.362,25706.485121
1 Jan 2020 18:08:58.000,86.596,-76.334,25735.613360
1 Jan 2020 18:09:28.000,88.760,-76.300,25770.859294
1 Jan 2020 18:09:58.000,90.904,-76.261,25812.169825
1 Jan 2020 18:10:28.000,93.026,-76.218,25859.480958
1 Jan 2020 18:10:58.000,95.122,-76.170,25912.718489
1 Jan 2020 18:11:28.000,97.192,-76.118,25971.798037
1 Jan 2020 18:11:58.000,99.233,-76.064,26036.625446
1 Jan 2020 18:12:28.000,101.243,-76.006,26107.097157
1 Jan 2020 18:12:58.000,103.222,-75.946,26183.100746
1 Jan 2020 18:13:28.000,105.168,-75.885,26264.514811
1 Jan 2020 18:13:58.000,107.080,-75.822,26351.210214
1 Jan 2020 18:14:28.000,108.958,-75.759,26443.050021
1 Jan 2020 18:14:58.000,110.802,-75.696,26539.890114
1 Jan 2020 18:15:28.000,112.612,-75.633,26641.579676
1 Jan 2020 18:15:58.000,114.386,-75.572,26747.961690
1 Jan 2020 18:16:28.000,116.127,-75.512,26858.873621
1 Jan 2020 18:16:58.000,117.834,-75.454,26974.147179
1 Jan 2020 18:17:28.000,119.508,-75.399,27093.609913
1 Jan 2020 18:17:58.000,121.149,-75.347,27217.084972
1 Jan 2020 18:18:28.000,122.759,-75.299,27344.391773
1 Jan 2020 18:18:58.000,124.338,-75.254,27475.346466
1 Jan 2020 18:19:28.000,125.887,-75.214,27609.762396
1 Jan 2020 18:19:58.000,127.407,-75.178,27747.450546
1 Jan 2020 18:20:28.000,128.900,-75.148,27888.219966
1 Jan 2020 18:20:58.000,130.367,-75.122,28031.878183
1 Jan 2020 18:21:28.000,131.808,-75.102,28178.231824
1 Jan 2020 18:21:58.000,133.226,-75.088,28327.086076
1 Jan 2020 18:22:28.000,134.621,-75.080,28478.246408
1 Jan 2020 18:22:53.524,135.791,-75.078,28608.524397
1 Jan 2020 19:22:24.822,325.547,-75.067,28603.752813
1 Jan 2020 19:22:54.000,326.477,-75.072,28410.179741
1 Jan 2020 19:23:24.000,327.442,-75.087,28211.371202
1 Jan 2020 19:23:54.000,328.419,-75.114,28012.997282
1 Jan 2020 19:24:24.000,329.407,-75.151,27815.275607
1 Jan 2020 19:24:54.000,330.410,-75.199,27618.428291
1 Jan 2020 19:25:24.000,331.430,-75.259,27422.681818
1 Jan 2020 19:25:54.000,332.468,-75.330,27228.266897
1 Jan 2020 19:26:24.000,333.527,-75.412,27035.418301
1 Jan 2020 19:26:54.000,334.609,-75.506,26844.374666
1 Jan 2020 19:27:24.000,335.717,-75.611,26655.378268
1 Jan 2020 19:27:54.000,336.854,-75.728,26468.674760
1 Jan 2020 19:28:24.000,338.022,-75.856,26284.512885
1 Jan 2020 19:28:54.000,339.225,-75.995,26103.144140
1 Jan 2020 19:29:24.000,340.466,-76.145,25924.822408
1 Jan 2020 19:29:54.000,341.748,-76.305,25749.803549
1 Jan 2020 19:30:24.000,343.076,-76.476,25578.344683
1 Jan 2020 19:30:54.000,344.454,-76.657,25410.704749
1 Jan 2020 19:31:24.000,345.886,-76.847,25247.142373
1 Jan 2020 19:31:54.000,347.376,-77.046,25087.916350
1 Jan 2020 19:32:24.000,348.931,-77.253,24933.284744
1 Jan 2020 19:32:54.000,350.555,-77.468,24783.504213
1 Jan 2020 19:33:24.000,352.254,-77.689,24638.829287
1 Jan 2020 19:33:54.000,354.034,-77.916,24499.511393
1 Jan 2020 19:34:24.000,355.902,-78.147,24365.798940
1 Jan 2020 19:34:54.000,357.865,-78.381,24237.935138
1 Jan 2020 19:35:24.000,359.928,-78.618,24116.158037
1 Jan 2020 19:35:54.000,2.098,-78.854,24000.699408
1 Jan 2020 19:36:24.000,4.383,-79.090,23891.783676
1 Jan 2020 19:36:54.000,6.789,-79.322,23789.627608
1 Jan 2020 19:37:24.000,9.320,-79.549,23694.438442
1 Jan 2020 19:37:54.000,11.983,-79.768,23606.413591
1 Jan 2020 19:38:24.000,14.780,-79.978,23525.739559
1 Jan 2020 19:38:54.000,17.712,-80.177,23452.590940
1 Jan 2020 19:39:24.000,20.780,-80.361,23387.129977
1 Jan 2020 19:39:54.000,23.979,-80.529,23329.505059
1 Jan 2020 19:40:24.000,27.303,-80.678,23279.850401
1 Jan 2020 19:40:54.000,30.742,-80.806,23238.285168
1 Jan 2020 19:41:24.000,34.281,-80.912,23204.912988
1 Jan 2020 19:41:54.000,37.903,-80.992,23179.821097
1 Jan 2020 19:42:24.000,41.586,-81.047,23163.080049
1 Jan 2020 19:42:54.000,45.308,-81.074,23154.743276
1 Jan 2020 19:43:24.000,49.042,-81.074,23154.846740
1 Jan 2020 19:43:54.000,52.762,-81.046,23163.408776
1 Jan 2020 19:44:24.000,56.443,-80.991,23180.429981
1 Jan 2020 19:44:54.000,60.060,-80.910,23205.893290
1 Jan 2020 19:45:24.000,63.593,-80.803,23239.763824
1 Jan 2020 19:45:54.000,67.021,-80.673,23281.989486
1 Jan 2020 19:46:24.000,70.332,-80.522,23332.501038
1 Jan 2020 19:46:54.000,73.513,-80.351,23391.212698
1 Jan 2020 19:47:24.000,76.558,-80.164,23458.022150
1 Jan 2020 19:47:54.000,79.462,-79.962,23532.811839
1 Jan 2020 19:48:24.000,82.225,-79.748,23615.449173
1 Jan 2020 19:48:54.000,84.847,-79.524,23705.787516
1 Jan 2020 19:49:24.000,87.331,-79.292,23803.666325
1 Jan 2020 19:49:54.000,89.682,-79.055,23908.912927
1 Jan 2020 19:50:24.000,91.905,-78.814,24021.342759
1 Jan 2020 19:50:54.000,94.007,-78.572,24140.760407
1 Jan 2020 19:51:24.000,95.994,-78.331,24266.960757
1 Jan 2020 19:51:54.000,97.872,-78.091,24399.728949
1 Jan 2020 19:52:24.000,99.649,-77.854,24538.842715
1 Jan 2020 19:52:54.000,101.330,-77.622,24684.072348
1 Jan 2020 19:53:24.000,102.922,-77.396,24835.181822
1 Jan 2020 19:53:54.000,104.432,-77.177,24991.929666
1 Jan 2020 19:54:24.000,105.864,-76.966,25154.070094
1 Jan 2020 19:54:54.000,107.225,-76.763,25321.352652
1 Jan 2020 19:55:24.000,108.518,-76.570,25493.524731
1 Jan 2020 19:55:54.000,109.750,-76.387,25670.331151
1 Jan 2020 19:56:24.000,110.924,-76.215,25851.515142
1 Jan 2020 19:56:54.000,112.045,-76.054,26036.818999
1 Jan 2020 19:57:24.000,113.116,-75.904,26225.984684
1 Jan 2020 19:57:54.000,114.140,-75.766,26418.754398
1 Jan 2020 19:58:24.000,115.122,-75.641,26614.871410
1 Jan 2020 19:58:54.000,116.063,-75.528,26814.079292
1 Jan 2020 19:59:24.000,116.967,-75.427,27016.124216
1 Jan 2020 19:59:54.000,117.837,-75.339,27220.754112
1 Jan 2020 20:00:24.000,118.674,-75.263,27427.719332
1 Jan 2020 20:00:54.000,119.481,-75.200,27636.772972
1 Jan 2020 20:01:24.000,120.260,-75.150,27847.671151
1 Jan 2020 20:01:54.000,121.014,-75.113,28060.173264
1 Jan 2020 20:02:24.000,121.743,-75.088,28274.042200
1 Jan 2020 20:02:54.000,122.449,-75.075,28489.044531
1 Jan 2020 20:03:09.714,122.811,-75.074,28602.040114
1 Jan 2020 21:03:08.864,305.957,-75.064,28597.131264
1 Jan 2020 21:03:38.000,305.935,-75.071,28370.641459
1 Jan 2020 21:04:08.000,305.903,-75.092,28137.654357
1 Jan 2020 21:04:38.000,305.859,-75.128,27905.115443
1 Jan 2020 21:05:08.000,305.804,-75.180,27673.262173
1 Jan 2020 21:05:38.000,305.737,-75.247,27442.337395
1 Jan 2020 21:06:08.000,305.659,-75.330,27212.589286
1 Jan 2020 21:06:38.000,305.567,-75.430,26984.271258
1 Jan 2020 21:07:08.000,305.462,-75.546,26757.641838
1 Jan 2020 21:07:38.000,305.344,-75.679,26532.964518
1 Jan 2020 21:08:08.000,305.210,-75.829,26310.507563
1 Jan 2020 21:08:38.000,305.061,-75.996,26090.543790
1 Jan 2020 21:09:08.000,304.895,-76.181,25873.350300
1 Jan 2020 21:09:38.000,304.711,-76.383,25659.208162
1 Jan 2020 21:10:08.000,304.507,-76.604,25448.402056
1 Jan 2020 21:10:38.000,304.282,-76.842,25241.219525
1 Jan 2020 21:11:08.000,304.035,-77.099,25037.951851
1 Jan 2020 21:11:38.000,303.762,-77.373,24838.891501
1 Jan 2020 21:12:08.000,303.462,-77.666,24644.332901
1 Jan 2020 21:12:38.000,303.131,-77.977,24454.571442
1 Jan 2020 21:13:08.000,302.766,-78.305,24269.902774
1 Jan 2020 21:13:38.000,302.363,-78.652,24090.621735
1 Jan 2020 21:14:08.000,301.917,-79.015,23917.022664
1 Jan 2020 21:14:38.000,301.422,-79.396,23749.396757
1 Jan 2020 21:15:08.000,300.871,-79.794,23588.032261
1 Jan 2020 21:15:38.000,300.256,-80.207,23433.213160
1 Jan 2020 21:16:08.000,299.566,-80.637,23285.217837
1 Jan 2020 21:16:38.000,298.788,-81.081,23144.318972
1 Jan 2020 21:17:08.000,297.906,-81.539,23010.780815
1 Jan 2020 21:17:38.000,296.900,-82.010,22884.859037
1 Jan 2020 21:18:08.000,295.743,-82.493,22766.799048
1 Jan 2020 21:18:38.000,294.400,-82.986,22656.835530
1 Jan 2020 21:19:08.000,292.828,-83.487,22555.190038
1 Jan 2020 21:19:38.000,290.964,-83.995,22462.070571
1 Jan 2020 21:20:08.000,288.726,-84.506,22377.670039
1 Jan 2020 21:20:38.000,285.998,-85.017,22302.165729
1 Jan 2020 21:21:08.000,282.618,-85.524,22235.717287
1 Jan 2020 21:21:38.000,278.352,-86.018,22178.466354
1 Jan 2020 21:22:08.000,272.870,-86.492,22130.535399
1 Jan 2020 21:22:38.000,265.719,-86.929,22092.027284
1 Jan 2020 21:23:08.000,256.348,-87.307,22063.023989
1 Jan 2020 21:23:38.000,244.309,-87.596,22043.586454
1 Jan 2020 21:24:08.000,229.788,-87.756,22033.754034
1 Jan 2020 21:24:38.000,214.165,-87.760,22033.544310
1 Jan 2020 21:25:08.000,199.549,-87.607,22042.952802
1 Jan 2020 21:25:38.000,187.375,-87.324,22061.953120
1 Jan 2020 21:26:08.000,177.872,-86.949,22090.497161
1 Jan 2020 21:26:38.000,170.608,-86.515,22128.515225
1 Jan 2020 21:27:08.000,165.030,-86.044,22175.916781
1 Jan 2020 21:27:38.000,160.680,-85.551,22232.590893
1 Jan 2020 21:28:08.000,157.221,-85.047,22298.407121
1 Jan 2020 21:28:38.000,154.417,-84.537,22373.215879
1 Jan 2020 21:29:08.000,152.103,-84.027,22456.850091
1 Jan 2020 21:29:38.000,150.161,-83.521,22549.125774
1 Jan 2020 21:30:08.000,148.507,-83.021,22649.843423
1 Jan 2020 21:30:38.000,147.079,-82.530,22758.788490
1 Jan 2020 21:31:08.000,145.831,-82.048,22875.733595
1 Jan 2020 21:31:38.000,144.728,-81.579,23000.439101
1 Jan 2020 21:32:08.000,143.744,-81.122,23132.654715
1 Jan 2020 21:32:38.000,142.858,-80.679,23272.119917
1 Jan 2020 21:33:08.000,142.054,-80.251,23418.566385
1 Jan 2020 21:33:38.000,141.317,-79.838,23571.718401
1 Jan 2020 21:34:08.000,140.638,-79.442,23731.294215
1 Jan 2020 21:34:38.000,140.009,-79.062,23897.007424
1 Jan 2020 21:35:08.000,139.420,-78.699,24068.566986
1 Jan 2020 21:35:38.000,138.868,-78.353,24245.679806
1 Jan 2020 21:36:08.000,138.346,-78.025,24428.050652
1 Jan 2020 21:36:38.000,137.850,-77.715,24615.383300
1 Jan 2020 21:37:08.000,137.377,-77.422,24807.381358
1 Jan 2020 21:37:38.000,136.923,-77.147,25003.749033
1 Jan 2020 21:38:08.000,136.486,-76.890,25204.192141
1 Jan 2020 21:38:38.000,136.064,-76.651,25408.417461
1 Jan 2020 21:39:08.000,135.654,-76.430,25616.135217
1 Jan 2020 21:39:38.000,135.254,-76.226,25827.058317
1 Jan 2020 21:40:08.000,134.864,-76.040,26040.903119
1 Jan 2020 21:40:38.000,134.480,-75.871,26257.389832
1 Jan 2020 21:41:08.000,134.103,-75.719,26476.242859
1 Jan 2020 21:41:38.000,133.730,-75.584,26697.191095
1 Jan 2020 21:42:08.000,133.361,-75.465,26919.968183
1 Jan 2020 21:42:38.000,132.995,-75.362,27144.312727
1 Jan 2020 21:43:08.000,132.630,-75.276,27369.968464
1 Jan 2020 21:43:38.000,132.266,-75.205,27596.684409
1 Jan 2020 21:44:08.000,131.903,-75.149,27824.214964
1 Jan 2020 21:44:38.000,131.538,-75.108,28052.320000
1 Jan 2020 21:45:08.000,131.172,-75.082,28280.764917
1 Jan 2020 21:45:38.000,130.803,-75.070,28509.320675
1 Jan 2020 21:45:49.327,130.663,-75.069,28595.595261
1 Jan 2020 22:45:47.513,304.194,-75.063,28592.912369
1 Jan 2020 22:46:17.000,303.196,-75.068,28402.809409
1 Jan 2020 22:46:47.000,302.156,-75.082,28210.934787
1 Jan 2020 22:47:17.000,301.090,-75.107,28020.830542
1 Jan 2020 22:47:47.000,299.998,-75.141,27832.719512
1 Jan 2020 22:48:17.000,298.875,-75.185,27646.826448
1 Jan 2020 22:48:47.000,297.722,-75.238,27463.377724
1 Jan 2020 22:49:17.000,296.535,-75.301,27282.601017
1 Jan 2020 22:49:47.000,295.313,-75.372,27104.724963
1 Jan 2020 22:50:17.000,294.053,-75.453,26929.978773
1 Jan 2020 22:50:47.000,292.754,-75.542,26758.591833
1 Jan 2020 22:51:17.000,291.412,-75.639,26590.793257
1 Jan 2020 22:51:47.000,290.026,-75.744,26426.811135
1 Jan 2020 22:52:17.000,288.593,-75.856,26266.873171
1 Jan 2020 22:52:47.000,287.110,-75.975,26111.204433
1 Jan 2020 22:53:17.000,285.576,-76.100,25960.027940
1 Jan 2020 22:53:47.000,283.987,-76.230,25813.563782
1 Jan 2020 22:54:17.000,282.341,-76.365,25672.028506
1 Jan 2020 22:54:47.000,280.636,-76.504,25535.634259
1 Jan 2020 22:55:17.000,278.869,-76.646,25404.588991
1 Jan 2020 22:55:47.000,277.038,-76.791,25279.094469
1 Jan 2020 22:56:17.000,275.142,-76.936,25159.346460
1 Jan 2020 22:56:47.000,273.178,-77.082,25045.533808
1 Jan 2020 22:57:17.000,271.145,-77.227,24937.837553
1 Jan 2020 22:57:47.000,269.041,-77.369,24836.430935
1 Jan 2020 22:58:17.000,266.868,-77.509,24741.477612
1 Jan 2020 22:58:47.000,264.624,-77.644,24653.131704
1 Jan 2020 22:59:17.000,262.311,-77.774,24571.536942
1 Jan 2020 22:59:47.000,259.929,-77.897,24496.825880
1 Jan 2020 23:00:17.000,257.482,-78.012,24429.119872
1 Jan 2020 23:00:47.000,254.972,-78.118,24368.527607
1 Jan 2020 23:01:17.000,252.404,-78.213,24315.145187
1 Jan 2020 23:01:47.000,249.783,-78.298,24269.055503
1 Jan 2020 23:02:17.000,247.114,-78.370,24230.327724
1 Jan 2020 23:02:47.000,244.405,-78.429,24199.017315
1 Jan 2020 23:03:17.000,241.663,-78.475,24175.165167
1 Jan 2020 23:03:47.000,238.896,-78.507,24158.797783
1 Jan 2020 23:04:17.000,236.114,-78.524,24149.926992
1 Jan 2020 23:04:47.000,233.325,-78.527,24148.550012
1 Jan 2020 23:05:17.000,230.539,-78.515,24154.649245
1 Jan 2020 23:05:47.000,227.764,-78.489,24168.192509
1 Jan 2020 23:06:17.000,225.009,-78.449,24189.133152
1 Jan 2020 23:06:47.000,222.283,-78.395,24217.410321
1 Jan 2020 23:07:17.000,219.593,-78.328,24252.949141
1 Jan 2020 23:07:47.000,216.946,-78.249,24295.661242
1 Jan 2020 23:08:17.000,214.348,-78.159,24345.445095
1 Jan 2020 23:08:47.000,211.803,-78.059,24402.186525
1 Jan 2020 23:09:17.000,209.316,-77.949,24465.759338
1 Jan 2020 23:09:47.000,206.890,-77.832,24536.025560
1 Jan 2020 23:10:17.000,204.528,-77.708,24612.836566
