STKdata/stk_90fov_4leo/Satellite-MEO_Satellite10206-To-Satellite-LEO_Satellite10000 AER.csv

"Time (UTCG)","Azimuth (deg)","Elevation (deg)","Range (km)"
1 Jan 2020 00:34:23.322,309.961,-75.064,28592.617158
1 Jan 2020 00:34:53.000,308.692,-75.067,28428.900401
1 Jan 2020 00:35:23.000,307.386,-75.078,28265.417728
1 Jan 2020 00:35:53.000,306.056,-75.096,28104.160267
1 Jan 2020 00:36:23.000,304.700,-75.120,27945.331521
1 Jan 2020 00:36:53.000,303.317,-75.151,27789.135123
1 Jan 2020 00:37:23.000,301.905,-75.188,27635.774489
1 Jan 2020 00:37:53.000,300.463,-75.232,27485.452443
1 Jan 2020 00:38:23.000,298.989,-75.281,27338.370833
1 Jan 2020 00:38:53.000,297.483,-75.335,27194.730107
1 Jan 2020 00:39:23.000,295.941,-75.395,27054.728885
1 Jan 2020 00:39:53.000,294.365,-75.459,26918.563279
1 Jan 2020 00:40:23.000,292.751,-75.527,26786.427313
1 Jan 2020 00:40:53.000,291.100,-75.599,26658.511080
1 Jan 2020 00:41:23.000,289.409,-75.674,26535.001145
1 Jan 2020 00:41:53.000,287.679,-75.751,26416.079792
1 Jan 2020 00:42:23.000,285.908,-75.831,26301.924494
1 Jan 2020 00:42:53.000,284.096,-75.912,26192.707375
1 Jan 2020 00:43:23.000,282.242,-75.993,26088.594478
1 Jan 2020 00:43:53.000,280.347,-76.074,25989.745963
1 Jan 2020 00:44:23.000,278.410,-76.155,25896.314435
1 Jan 2020 00:44:53.000,276.432,-76.235,25808.445165
1 Jan 2020 00:45:23.000,274.413,-76.312,25726.275370
1 Jan 2020 00:45:53.000,272.354,-76.387,25649.933694
1 Jan 2020 00:46:23.000,270.258,-76.458,25579.539583
1 Jan 2020 00:46:53.000,268.125,-76.526,25515.203349
1 Jan 2020 00:47:23.000,265.957,-76.588,25457.024901
1 Jan 2020 00:47:53.000,263.757,-76.645,25405.093888
1 Jan 2020 00:48:23.000,261.528,-76.697,25359.489177
1 Jan 2020 00:48:53.000,259.273,-76.742,25320.278443
1 Jan 2020 00:49:23.000,256.995,-76.780,25287.518172
1 Jan 2020 00:49:53.000,254.698,-76.811,25261.252942
1 Jan 2020 00:50:23.000,252.386,-76.835,25241.515546
1 Jan 2020 00:50:53.000,250.062,-76.851,25228.326758
1 Jan 2020 00:51:23.000,247.732,-76.859,25221.695209
1 Jan 2020 00:51:53.000,245.399,-76.859,25221.617454
1 Jan 2020 00:52:23.000,243.068,-76.851,25228.077806
1 Jan 2020 00:52:53.000,240.743,-76.835,25241.048531
1 Jan 2020 00:53:23.000,238.429,-76.812,25260.489932
1 Jan 2020 00:53:53.000,236.128,-76.781,25286.350551
1 Jan 2020 00:54:23.000,233.846,-76.744,25318.567293
1 Jan 2020 00:54:53.000,231.585,-76.699,25357.065831
1 Jan 2020 00:55:23.000,229.350,-76.649,25401.760846
1 Jan 2020 00:55:53.000,227.141,-76.593,25452.556408
1 Jan 2020 00:56:23.000,224.963,-76.531,25509.346439
1 Jan 2020 00:56:53.000,222.818,-76.466,25572.014881
1 Jan 2020 00:57:23.000,220.706,-76.396,25640.436554
1 Jan 2020 00:57:53.000,218.631,-76.323,25714.477395
1 Jan 2020 00:58:23.000,216.592,-76.247,25793.995028
1 Jan 2020 00:58:53.000,214.590,-76.170,25878.839302
1 Jan 2020 00:59:23.000,212.626,-76.091,25968.852955
1 Jan 2020 00:59:53.000,210.701,-76.012,26063.871676
1 Jan 2020 01:00:23.000,208.813,-75.933,26163.725393
1 Jan 2020 01:00:53.000,206.964,-75.854,26268.238351
1 Jan 2020 01:01:23.000,205.151,-75.777,26377.229787
1 Jan 2020 01:01:53.000,203.375,-75.701,26490.514482
1 Jan 2020 01:02:23.000,201.635,-75.628,26607.903298
1 Jan 2020 01:02:53.000,199.929,-75.557,26729.203708
1 Jan 2020 01:03:23.000,198.257,-75.490,26854.220496
1 Jan 2020 01:03:53.000,196.617,-75.427,26982.755519
1 Jan 2020 01:04:23.000,195.008,-75.367,27114.609280
1 Jan 2020 01:04:53.000,193.429,-75.313,27249.580665
1 Jan 2020 01:05:23.000,191.878,-75.262,27387.467557
1 Jan 2020 01:05:53.000,190.353,-75.217,27528.067258
1 Jan 2020 01:06:23.000,188.855,-75.178,27671.176880
1 Jan 2020 01:06:53.000,187.379,-75.144,27816.593717
1 Jan 2020 01:07:23.000,185.927,-75.115,27964.115591
1 Jan 2020 01:07:53.000,184.495,-75.093,28113.541183
1 Jan 2020 01:08:23.000,183.083,-75.077,28264.670331
1 Jan 2020 01:08:53.000,181.688,-75.067,28417.304315
1 Jan 2020 01:09:23.000,180.310,-75.063,28571.246112
1 Jan 2020 01:09:27.166,180.120,-75.063,28592.716498
1 Jan 2020 02:07:28.784,352.612,-75.069,28595.254025
1 Jan 2020 02:07:58.000,351.239,-75.072,28450.205002
1 Jan 2020 02:08:28.000,349.812,-75.081,28302.734954
1 Jan 2020 02:08:58.000,348.366,-75.095,28156.950633
1 Jan 2020 02:09:28.000,346.901,-75.114,28013.047521
1 Jan 2020 02:09:58.000,345.415,-75.140,27871.222012
1 Jan 2020 02:10:28.000,343.906,-75.170,27731.671112
1 Jan 2020 02:10:58.000,342.374,-75.206,27594.592116
1 Jan 2020 02:11:28.000,340.817,-75.246,27460.182266
1 Jan 2020 02:11:58.000,339.233,-75.291,27328.638388
1 Jan 2020 02:12:28.000,337.622,-75.340,27200.156505
1 Jan 2020 02:12:58.000,335.982,-75.392,27074.931435
1 Jan 2020 02:13:28.000,334.313,-75.449,26953.156365
1 Jan 2020 02:13:58.000,332.612,-75.508,26835.022235
1 Jan 2020 02:14:28.000,330.880,-75.570,26720.717974
1 Jan 2020 02:14:58.000,329.115,-75.634,26610.428972
1 Jan 2020 02:15:28.000,327.318,-75.700,26504.337292
1 Jan 2020 02:15:58.000,325.486,-75.768,26402.620993
1 Jan 2020 02:16:28.000,323.620,-75.836,26305.453615
1 Jan 2020 02:16:58.000,321.721,-75.904,26213.003659
1 Jan 2020 02:17:28.000,319.787,-75.971,26125.433947
1 Jan 2020 02:17:58.000,317.819,-76.038,26042.901565
1 Jan 2020 02:18:28.000,315.818,-76.103,25965.556626
1 Jan 2020 02:18:58.000,313.784,-76.165,25893.542235
1 Jan 2020 02:19:28.000,311.719,-76.225,25826.993860
1 Jan 2020 02:19:58.000,309.624,-76.282,25766.038836
1 Jan 2020 02:20:28.000,307.501,-76.335,25710.795825
1 Jan 2020 02:20:58.000,305.351,-76.383,25661.374638
1 Jan 2020 02:21:28.000,303.177,-76.427,25617.875374
1 Jan 2020 02:21:58.000,300.981,-76.465,25580.388318
1 Jan 2020 02:22:28.000,298.767,-76.498,25548.993502
1 Jan 2020 02:22:58.000,296.537,-76.524,25523.760353
1 Jan 2020 02:23:28.000,294.295,-76.544,25504.747489
1 Jan 2020 02:23:58.000,292.043,-76.558,25492.002337
1 Jan 2020 02:24:28.000,289.787,-76.565,25485.561031
1 Jan 2020 02:24:58.000,287.529,-76.565,25485.448234
1 Jan 2020 02:25:28.000,285.273,-76.558,25491.677061
1 Jan 2020 02:25:58.000,283.022,-76.544,25504.248923
1 Jan 2020 02:26:28.000,280.781,-76.524,25523.153663
1 Jan 2020 02:26:58.000,278.553,-76.497,25548.369523
1 Jan 2020 02:27:28.000,276.342,-76.464,25579.863256
1 Jan 2020 02:27:58.000,274.150,-76.426,25617.590350
1 Jan 2020 02:28:28.000,271.980,-76.382,25661.494933
1 Jan 2020 02:28:58.000,269.836,-76.332,25711.510430
1 Jan 2020 02:29:28.000,267.720,-76.279,25767.559574
1 Jan 2020 02:29:58.000,265.634,-76.221,25829.554797
1 Jan 2020 02:30:28.000,263.579,-76.159,25897.398584
1 Jan 2020 02:30:58.000,261.558,-76.095,25970.984006
1 Jan 2020 02:31:28.000,259.572,-76.029,26050.194587
1 Jan 2020 02:31:58.000,257.621,-75.961,26134.905568
1 Jan 2020 02:32:28.000,255.706,-75.891,26224.983835
1 Jan 2020 02:32:58.000,253.829,-75.821,26320.288543
1 Jan 2020 02:33:28.000,251.988,-75.752,26420.671604
1 Jan 2020 02:33:58.000,250.185,-75.683,26525.978369
1 Jan 2020 02:34:28.000,248.418,-75.615,26636.047482
1 Jan 2020 02:34:58.000,246.688,-75.549,26750.712370
1 Jan 2020 02:35:28.000,244.994,-75.486,26869.801117
1 Jan 2020 02:35:58.000,243.334,-75.425,26993.137131
1 Jan 2020 02:36:28.000,241.710,-75.368,27120.539650
1 Jan 2020 02:36:58.000,240.118,-75.314,27251.824236
1 Jan 2020 02:37:28.000,238.559,-75.265,27386.803255
1 Jan 2020 02:37:58.000,237.032,-75.221,27525.286558
1 Jan 2020 02:38:28.000,235.534,-75.181,27667.081089
1 Jan 2020 02:38:58.000,234.065,-75.146,27811.992580
1 Jan 2020 02:39:28.000,232.624,-75.118,27959.825133
1 Jan 2020 02:39:58.000,231.210,-75.095,28110.381826
1 Jan 2020 02:40:28.000,229.820,-75.078,28263.465088
1 Jan 2020 02:40:58.000,228.454,-75.067,28418.877059
1 Jan 2020 02:41:28.000,227.111,-75.063,28576.419925
1 Jan 2020 02:41:31.702,226.946,-75.063,28595.997021
1 Jan 2020 03:41:11.382,37.333,-75.074,28600.937148
1 Jan 2020 03:41:41.000,36.462,-75.079,28398.935350
1 Jan 2020 03:42:11.000,35.572,-75.096,28194.478033
1 Jan 2020 03:42:41.000,34.672,-75.124,27990.389333
1 Jan 2020 03:43:11.000,33.762,-75.164,27786.889729
1 Jan 2020 03:43:41.000,32.839,-75.216,27584.204442
1 Jan 2020 03:44:11.000,31.900,-75.279,27382.563330
1 Jan 2020 03:44:41.000,30.945,-75.355,27182.200763
1 Jan 2020 03:45:11.000,29.971,-75.443,26983.355471
1 Jan 2020 03:45:41.000,28.975,-75.543,26786.270361
1 Jan 2020 03:46:11.000,27.955,-75.656,26591.192306
1 Jan 2020 03:46:41.000,26.907,-75.781,26398.371897
1 Jan 2020 03:47:11.000,25.830,-75.919,26208.063164
1 Jan 2020 03:47:41.000,24.720,-76.068,26020.523253
1 Jan 2020 03:48:11.000,23.574,-76.230,25836.012069
1 Jan 2020 03:48:41.000,22.387,-76.403,25654.791870
1 Jan 2020 03:49:11.000,21.156,-76.589,25477.126550
1 Jan 2020 03:49:41.000,19.876,-76.785,25303.282234
1 Jan 2020 03:50:11.000,18.543,-76.993,25133.525092
1 Jan 2020 03:50:41.000,17.150,-77.210,24968.121854
1 Jan 2020 03:51:11.000,15.694,-77.438,24807.338890
1 Jan 2020 03:51:41.000,14.166,-77.674,24651.441526
1 Jan 2020 03:52:11.000,12.562,-77.919,24500.693308
1 Jan 2020 03:52:41.000,10.872,-78.170,24355.354984
1 Jan 2020 03:53:11.000,9.091,-78.428,24215.684634
1 Jan 2020 03:53:41.000,7.209,-78.691,24081.935356
1 Jan 2020 03:54:11.000,5.217,-78.958,23954.355337
1 Jan 2020 03:54:41.000,3.107,-79.226,23833.186676
1 Jan 2020 03:55:11.000,0.869,-79.494,23718.664255
1 Jan 2020 03:55:41.000,358.493,-79.761,23611.015432
1 Jan 2020 03:56:11.000,355.970,-80.023,23510.458030
1 Jan 2020 03:56:41.000,353.291,-80.280,23417.200039
1 Jan 2020 03:57:11.000,350.449,-80.527,23331.438449
1 Jan 2020 03:57:41.000,347.436,-80.763,23253.358170
1 Jan 2020 03:58:11.000,344.251,-80.985,23183.131584
1 Jan 2020 03:58:41.000,340.892,-81.189,23120.916875
1 Jan 2020 03:59:11.000,337.363,-81.373,23066.857709
1 Jan 2020 03:59:41.000,333.674,-81.534,23021.082252
1 Jan 2020 04:00:11.000,329.839,-81.669,22983.702662
1 Jan 2020 04:00:41.000,325.879,-81.776,22954.814110
1 Jan 2020 04:01:11.000,321.821,-81.853,22934.494464
1 Jan 2020 04:01:41.000,317.696,-81.897,22922.803782
1 Jan 2020 04:02:11.000,313.540,-81.908,22919.783942
1 Jan 2020 04:02:41.000,309.391,-81.887,22925.458398
1 Jan 2020 04:03:11.000,305.285,-81.832,22939.832069
1 Jan 2020 04:03:41.000,301.257,-81.745,22962.891373
1 Jan 2020 04:04:11.000,297.339,-81.629,22994.604076
1 Jan 2020 04:04:41.000,293.556,-81.484,23034.919858
1 Jan 2020 04:05:11.000,289.927,-81.313,23083.770405
1 Jan 2020 04:05:41.000,286.467,-81.120,23141.070011
1 Jan 2020 04:06:11.000,283.184,-80.907,23206.715613
1 Jan 2020 04:06:41.000,280.080,-80.677,23280.588105
1 Jan 2020 04:07:11.000,277.155,-80.433,23362.552577
1 Jan 2020 04:07:41.000,274.406,-80.179,23452.459353
1 Jan 2020 04:08:11.000,271.825,-79.915,23550.144159
1 Jan 2020 04:08:41.000,269.404,-79.646,23655.429969
1 Jan 2020 04:09:11.000,267.135,-79.373,23768.127290
1 Jan 2020 04:09:41.000,265.009,-79.099,23888.035259
1 Jan 2020 04:10:11.000,263.015,-78.826,24014.942861
1 Jan 2020 04:10:41.000,261.145,-78.555,24148.628909
1 Jan 2020 04:11:11.000,259.389,-78.288,24288.864493
1 Jan 2020 04:11:41.000,257.740,-78.026,24435.412971
1 Jan 2020 04:12:11.000,256.187,-77.771,24588.031160
1 Jan 2020 04:12:41.000,254.725,-77.524,24746.470257
1 Jan 2020 04:13:11.000,253.346,-77.286,24910.477044
1 Jan 2020 04:13:41.000,252.043,-77.057,25079.793521
1 Jan 2020 04:14:11.000,250.812,-76.839,25254.159550
1 Jan 2020 04:14:41.000,249.645,-76.632,25433.312426
1 Jan 2020 04:15:11.000,248.538,-76.437,25616.987912
1 Jan 2020 04:15:41.000,247.487,-76.254,25804.920921
1 Jan 2020 04:16:11.000,246.488,-76.083,25996.846157
1 Jan 2020 04:16:41.000,245.535,-75.926,26192.498708
1 Jan 2020 04:17:11.000,244.627,-75.781,26391.614916
1 Jan 2020 04:17:41.000,243.760,-75.649,26593.931564
1 Jan 2020 04:18:11.000,242.930,-75.531,26799.188290
1 Jan 2020 04:18:41.000,242.135,-75.426,27007.126689
1 Jan 2020 04:19:11.000,241.373,-75.335,27217.491008
1 Jan 2020 04:19:41.000,240.641,-75.257,27430.028469
1 Jan 2020 04:20:11.000,239.938,-75.193,27644.489558
1 Jan 2020 04:20:41.000,239.260,-75.142,27860.628279
1 Jan 2020 04:21:11.000,238.607,-75.105,28078.202370
1 Jan 2020 04:21:41.000,237.976,-75.080,28296.973497
1 Jan 2020 04:22:11.000,237.367,-75.069,28516.707411
1 Jan 2020 04:22:22.710,237.134,-75.068,28602.689628
1 Jan 2020 05:22:23.054,54.908,-75.077,28607.489897
1 Jan 2020 05:22:53.000,55.033,-75.084,28375.232588
1 Jan 2020 05:23:23.000,55.172,-75.106,28142.863426
1 Jan 2020 05:23:53.000,55.323,-75.142,27911.037221
1 Jan 2020 05:24:23.000,55.489,-75.194,27679.992839
1 Jan 2020 05:24:53.000,55.669,-75.262,27449.974410
1 Jan 2020 05:25:23.000,55.864,-75.345,27221.231249
1 Jan 2020 05:25:53.000,56.076,-75.444,26994.017743
1 Jan 2020 05:26:23.000,56.305,-75.560,26768.593220
1 Jan 2020 05:26:53.000,56.553,-75.692,26545.221774
1 Jan 2020 05:27:23.000,56.820,-75.841,26324.172059
1 Jan 2020 05:27:53.000,57.108,-76.007,26105.717047
1 Jan 2020 05:28:23.000,57.419,-76.190,25890.133736
1 Jan 2020 05:28:53.000,57.755,-76.390,25677.702821
1 Jan 2020 05:29:23.000,58.117,-76.608,25468.708305
1 Jan 2020 05:29:53.000,58.509,-76.844,25263.436722
1 Jan 2020 05:30:23.000,58.933,-77.096,25062.178046
1 Jan 2020 05:30:53.000,59.392,-77.367,24865.223030
1 Jan 2020 05:31:23.000,59.890,-77.654,24672.864014
1 Jan 2020 05:31:53.000,60.432,-77.959,24485.393903
1 Jan 2020 05:32:23.000,61.022,-78.281,24303.105433
1 Jan 2020 05:32:53.000,61.665,-78.619,24126.290089
1 Jan 2020 05:33:23.000,62.370,-78.973,23955.238409
1 Jan 2020 05:33:53.000,63.145,-79.344,23790.237310
1 Jan 2020 05:34:23.000,63.998,-79.729,23631.570292
1 Jan 2020 05:34:53.000,64.942,-80.129,23479.516108
1 Jan 2020 05:35:23.000,65.991,-80.542,23334.347427
1 Jan 2020 05:35:53.000,67.162,-80.967,23196.330740
1 Jan 2020 05:36:23.000,68.477,-81.404,23065.723635
1 Jan 2020 05:36:53.000,69.960,-81.851,22942.774668
1 Jan 2020 05:37:23.000,71.645,-82.306,22827.721699
1 Jan 2020 05:37:53.000,73.573,-82.766,22720.791448
1 Jan 2020 05:38:23.000,75.794,-83.229,22622.197131
1 Jan 2020 05:38:53.000,78.373,-83.693,22532.138069
1 Jan 2020 05:39:23.000,81.392,-84.152,22450.798201
1 Jan 2020 05:39:53.000,84.954,-84.602,22378.345586
1 Jan 2020 05:40:23.000,89.187,-85.036,22314.930458
1 Jan 2020 05:40:53.000,94.241,-85.446,22260.684905
1 Jan 2020 05:41:23.000,100.281,-85.820,22215.721778
1 Jan 2020 05:41:53.000,107.453,-86.145,22180.134298
1 Jan 2020 05:42:23.000,115.827,-86.404,22153.994872
1 Jan 2020 05:42:53.000,125.296,-86.580,22137.354986
1 Jan 2020 05:43:23.000,135.504,-86.658,22130.244736
1 Jan 2020 05:43:53.000,145.872,-86.631,22132.672690
1 Jan 2020 05:44:23.000,155.764,-86.501,22144.625677
1 Jan 2020 05:44:53.000,164.704,-86.281,22166.068986
1 Jan 2020 05:45:23.000,172.472,-85.987,22196.946625
1 Jan 2020 05:45:53.000,179.066,-85.636,22237.181474
1 Jan 2020 05:46:23.000,184.605,-85.243,22286.676102
1 Jan 2020 05:46:53.000,189.250,-84.821,22345.313221
1 Jan 2020 05:47:23.000,193.162,-84.380,22412.956616
1 Jan 2020 05:47:53.000,196.479,-83.927,22489.451532
1 Jan 2020 05:48:23.000,199.316,-83.467,22574.626328
1 Jan 2020 05:48:53.000,201.765,-83.006,22668.293073
1 Jan 2020 05:49:23.000,203.897,-82.546,22770.248931
1 Jan 2020 05:49:53.000,205.771,-82.091,22880.276638
1 Jan 2020 05:50:23.000,207.432,-81.643,22998.146689
1 Jan 2020 05:50:53.000,208.915,-81.204,23123.617897
1 Jan 2020 05:51:23.000,210.250,-80.776,23256.438771
1 Jan 2020 05:51:53.000,211.461,-80.359,23396.348987
1 Jan 2020 05:52:23.000,212.565,-79.955,23543.079560
1 Jan 2020 05:52:53.000,213.580,-79.565,23696.355520
1 Jan 2020 05:53:23.000,214.518,-79.190,23855.896053
1 Jan 2020 05:53:53.000,215.389,-78.830,24021.415824
1 Jan 2020 05:54:23.000,216.202,-78.486,24192.626017
1 Jan 2020 05:54:53.000,216.966,-78.158,24369.235620
1 Jan 2020 05:55:23.000,217.687,-77.847,24550.951121
1 Jan 2020 05:55:53.000,218.370,-77.552,24737.479185
1 Jan 2020 05:56:23.000,219.020,-77.275,24928.526244
1 Jan 2020 05:56:53.000,219.641,-77.014,25123.799529
1 Jan 2020 05:57:23.000,220.237,-76.770,25323.007731
1 Jan 2020 05:57:53.000,220.811,-76.544,25525.861613
1 Jan 2020 05:58:23.000,221.366,-76.334,25732.074550
1 Jan 2020 05:58:53.000,221.905,-76.142,25941.363017
1 Jan 2020 05:59:23.000,222.429,-75.966,26153.447357
1 Jan 2020 05:59:53.000,222.940,-75.806,26368.050820
1 Jan 2020 06:00:23.000,223.441,-75.664,26584.901894
1 Jan 2020 06:00:53.000,223.933,-75.537,26803.733258
1 Jan 2020 06:01:23.000,224.418,-75.426,27024.282355
1 Jan 2020 06:01:53.000,224.896,-75.331,27246.291597
1 Jan 2020 06:02:23.000,225.370,-75.252,27469.508525
1 Jan 2020 06:02:53.000,225.840,-75.187,27693.685943
1 Jan 2020 06:03:23.000,226.308,-75.137,27918.582026
1 Jan 2020 06:03:53.000,226.774,-75.101,28143.960391
1 Jan 2020 06:04:23.000,227.240,-75.080,28369.590154
1 Jan 2020 06:04:53.000,227.706,-75.072,28595.245957
1 Jan 2020 06:04:54.819,227.734,-75.072,28608.927348
1 Jan 2020 07:04:53.942,54.946,-75.077,28611.268121
1 Jan 2020 07:05:23.000,55.998,-75.082,28430.080879
1 Jan 2020 07:05:53.000,57.109,-75.095,28244.666762
1 Jan 2020 07:06:23.000,58.245,-75.118,28061.143396
1 Jan 2020 07:06:53.000,59.409,-75.150,27879.729702
1 Jan 2020 07:07:23.000,60.601,-75.191,27700.646082
1 Jan 2020 07:07:53.000,61.825,-75.240,27524.114112
1 Jan 2020 07:08:23.000,63.082,-75.298,27350.356205
1 Jan 2020 07:08:53.000,64.374,-75.364,27179.595249
1 Jan 2020 07:09:23.000,65.703,-75.438,27012.054209
1 Jan 2020 07:09:53.000,67.071,-75.520,26847.955713
1 Jan 2020 07:10:23.000,68.480,-75.609,26687.521596
1 Jan 2020 07:10:53.000,69.932,-75.704,26530.972148
1 Jan 2020 07:11:23.000,71.430,-75.806,26378.526718
1 Jan 2020 07:11:53.000,72.975,-75.914,26230.401504
1 Jan 2020 07:12:23.000,74.569,-76.026,26086.810117
1 Jan 2020 07:12:53.000,76.216,-76.143,25947.962715
1 Jan 2020 07:13:23.000,77.915,-76.264,25814.065400
1 Jan 2020 07:13:53.000,79.670,-76.388,25685.319389
1 Jan 2020 07:14:23.000,81.482,-76.514,25561.921193
1 Jan 2020 07:14:53.000,83.353,-76.641,25444.060725
1 Jan 2020 07:15:23.000,85.283,-76.768,25331.921475
1 Jan 2020 07:15:53.000,87.274,-76.895,25225.679632
1 Jan 2020 07:16:23.000,89.327,-77.020,25125.503258
1 Jan 2020 07:16:53.000,91.440,-77.143,25031.552292
1 Jan 2020 07:17:23.000,93.615,-77.262,24943.976900
1 Jan 2020 07:17:53.000,95.851,-77.377,24862.917524
1 Jan 2020 07:18:23.000,98.144,-77.485,24788.504107
1 Jan 2020 07:18:53.000,100.495,-77.587,24720.855387
1 Jan 2020 07:19:23.000,102.899,-77.681,24660.078884
1 Jan 2020 07:19:53.000,105.353,-77.767,24606.269596
1 Jan 2020 07:20:23.000,107.853,-77.843,24559.510094
1 Jan 2020 07:20:53.000,110.394,-77.909,24519.869982
1 Jan 2020 07:21:23.000,112.970,-77.963,24487.405478
1 Jan 2020 07:21:53.000,115.575,-78.006,24462.159445
1 Jan 2020 07:22:23.000,118.202,-78.037,24444.160682
1 Jan 2020 07:22:53.000,120.845,-78.056,24433.424112
1 Jan 2020 07:23:23.000,123.495,-78.062,24429.950612
1 Jan 2020 07:23:53.000,126.145,-78.055,24433.726987
1 Jan 2020 07:24:23.000,128.788,-78.036,24444.726089
1 Jan 2020 07:24:53.000,131.416,-78.005,24462.906836
1 Jan 2020 07:25:23.000,134.023,-77.962,24488.214494
1 Jan 2020 07:25:53.000,136.603,-77.907,24520.580912
1 Jan 2020 07:26:23.000,139.148,-77.842,24559.924903
1 Jan 2020 07:26:53.000,141.654,-77.767,24606.152435
1 Jan 2020 07:27:23.000,144.117,-77.683,24659.157340
1 Jan 2020 07:27:53.000,146.533,-77.590,24718.821635
1 Jan 2020 07:28:23.000,148.897,-77.490,24785.016098
1 Jan 2020 07:28:53.000,151.209,-77.384,24857.600936
1 Jan 2020 07:29:23.000,153.466,-77.273,24936.426012
1 Jan 2020 07:29:53.000,155.667,-77.157,25021.332034
1 Jan 2020 07:30:23.000,157.811,-77.037,25112.150850
1 Jan 2020 07:30:53.000,159.900,-76.916,25208.706201
1 Jan 2020 07:31:23.000,161.932,-76.793,25310.814403
1 Jan 2020 07:31:53.000,163.909,-76.669,25418.285186
1 Jan 2020 07:32:23.000,165.831,-76.546,25530.921745
1 Jan 2020 07:32:53.000,167.702,-76.424,25648.522348
1 Jan 2020 07:33:23.000,169.521,-76.304,25770.880383
1 Jan 2020 07:33:53.000,171.292,-76.187,25897.785162
1 Jan 2020 07:34:23.000,173.015,-76.074,26029.022549
1 Jan 2020 07:34:53.000,174.693,-75.964,26164.375571
1 Jan 2020 07:35:23.000,176.328,-75.859,26303.625000
1 Jan 2020 07:35:53.000,177.923,-75.759,26446.550136
1 Jan 2020 07:36:23.000,179.479,-75.665,26592.928477
1 Jan 2020 07:36:53.000,180.999,-75.577,26742.537502
1 Jan 2020 07:37:23.000,182.484,-75.495,26895.154303
1 Jan 2020 07:37:53.000,183.938,-75.420,27050.556237
1 Jan 2020 07:38:23.000,185.361,-75.352,27208.521344
1 Jan 2020 07:38:53.000,186.757,-75.291,27368.828732
1 Jan 2020 07:39:23.000,188.127,-75.238,27531.258934
1 Jan 2020 07:39:53.000,189.473,-75.192,27695.594236
1 Jan 2020 07:40:23.000,190.797,-75.153,27861.618978
1 Jan 2020 07:40:53.000,192.101,-75.123,28029.119827
1 Jan 2020 07:41:23.000,193.386,-75.100,28197.886024
1 Jan 2020 07:41:53.000,194.655,-75.085,28367.709610
1 Jan 2020 07:42:23.000,195.910,-75.077,28538.385624
1 Jan 2020 07:42:35.804,196.441,-75.077,28611.441815
1 Jan 2020 08:41:09.038,25.025,-75.073,28610.080388
1 Jan 2020 08:41:39.000,26.471,-75.076,28467.847647
1 Jan 2020 08:42:09.000,27.937,-75.084,28327.374523
1 Jan 2020 08:42:39.000,29.423,-75.097,28189.033523
1 Jan 2020 08:43:09.000,30.930,-75.115,28053.014110
1 Jan 2020 08:43:39.000,32.459,-75.138,27919.505525
1 Jan 2020 08:44:09.000,34.011,-75.166,27788.696445
1 Jan 2020 08:44:39.000,35.588,-75.197,27660.774625
1 Jan 2020 08:45:09.000,37.190,-75.233,27535.926524
1 Jan 2020 08:45:39.000,38.818,-75.272,27414.336909
1 Jan 2020 08:46:09.000,40.474,-75.314,27296.188449
1 Jan 2020 08:46:39.000,42.157,-75.359,27181.661134
1 Jan 2020 08:47:09.000,43.869,-75.407,27070.932465
1 Jan 2020 08:47:39.000,45.610,-75.457,26964.176052
1 Jan 2020 08:48:09.000,47.381,-75.509,26861.561793
1 Jan 2020 08:48:39.000,49.181,-75.562,26763.255246
1 Jan 2020 08:49:09.000,51.011,-75.615,26669.417149
1 Jan 2020 08:49:39.000,52.872,-75.669,26580.202945
1 Jan 2020 08:50:09.000,54.762,-75.723,26495.762187
1 Jan 2020 08:50:39.000,56.681,-75.776,26416.238530
1 Jan 2020 08:51:09.000,58.629,-75.828,26341.768545
1 Jan 2020 08:51:39.000,60.605,-75.878,26272.481736
1 Jan 2020 08:52:09.000,62.607,-75.926,26208.499973
1 Jan 2020 08:52:39.000,64.635,-75.972,26149.937053
1 Jan 2020 08:53:09.000,66.687,-76.014,26096.898214
1 Jan 2020 08:53:39.000,68.761,-76.053,26049.480038
1 Jan 2020 08:54:09.000,70.855,-76.088,26007.769625
1 Jan 2020 08:54:39.000,72.967,-76.119,25971.844572
1 Jan 2020 08:55:09.000,75.095,-76.145,25941.772583
1 Jan 2020 08:55:39.000,77.236,-76.167,25917.611204
1 Jan 2020 08:56:09.000,79.387,-76.183,25899.407566
1 Jan 2020 08:56:39.000,81.546,-76.194,25887.198285
1 Jan 2020 08:57:09.000,83.709,-76.200,25881.009164
1 Jan 2020 08:57:39.000,85.874,-76.200,25880.855194
1 Jan 2020 08:58:09.000,88.037,-76.195,25886.740461
1 Jan 2020 08:58:39.000,90.195,-76.184,25898.658159
1 Jan 2020 08:59:09.000,92.347,-76.168,25916.590520
1 Jan 2020 08:59:39.000,94.488,-76.147,25940.509022
1 Jan 2020 09:00:09.000,96.616,-76.121,25970.374422
1 Jan 2020 09:00:39.000,98.728,-76.091,26006.136941
1 Jan 2020 09:01:09.000,100.822,-76.056,26047.736463
1 Jan 2020 09:01:39.000,102.896,-76.017,26095.102865
1 Jan 2020 09:02:09.000,104.947,-75.975,26148.155956
1 Jan 2020 09:02:39.000,106.974,-75.930,26206.806288
1 Jan 2020 09:03:09.000,108.976,-75.882,26270.955176
1 Jan 2020 09:03:39.000,110.950,-75.831,26340.495149
1 Jan 2020 09:04:09.000,112.896,-75.779,26415.310353
1 Jan 2020 09:04:39.000,114.813,-75.726,26495.277091
1 Jan 2020 09:05:09.000,116.699,-75.672,26580.263767
1 Jan 2020 09:05:39.000,118.556,-75.618,26670.132069
1 Jan 2020 09:06:09.000,120.381,-75.564,26764.736955
1 Jan 2020 09:06:39.000,122.176,-75.511,26863.927237
1 Jan 2020 09:07:09.000,123.941,-75.459,26967.546060
1 Jan 2020 09:07:39.000,125.675,-75.409,27075.431377
1 Jan 2020 09:08:09.000,127.379,-75.361,27187.416590
1 Jan 2020 09:08:39.000,129.053,-75.315,27303.330370
1 Jan 2020 09:09:09.000,130.699,-75.273,27422.998086
1 Jan 2020 09:09:39.000,132.316,-75.233,27546.241625
1 Jan 2020 09:10:09.000,133.906,-75.198,27672.879994
1 Jan 2020 09:10:39.000,135.470,-75.167,27802.729750
1 Jan 2020 09:11:09.000,137.008,-75.140,27935.605420
1 Jan 2020 09:11:39.000,138.522,-75.117,28071.319900
1 Jan 2020 09:12:09.000,140.013,-75.100,28209.684848
1 Jan 2020 09:12:39.000,141.481,-75.087,28350.511042
1 Jan 2020 09:13:09.000,142.929,-75.080,28493.608742
1 Jan 2020 09:13:33.000,144.072,-75.078,28609.593219
1 Jan 2020 10:12:37.860,333.576,-75.068,28605.172030
1 Jan 2020 10:13:07.000,334.660,-75.072,28425.373845
1 Jan 2020 10:13:37.000,335.788,-75.085,28240.717744
1 Jan 2020 10:14:07.000,336.929,-75.108,28056.720157
1 Jan 2020 10:14:37.000,338.085,-75.140,27873.593117
1 Jan 2020 10:15:07.000,339.259,-75.181,27691.552431
1 Jan 2020 10:15:37.000,340.452,-75.232,27510.817512
1 Jan 2020 10:16:07.000,341.667,-75.292,27331.611202
1 Jan 2020 10:16:37.000,342.905,-75.362,27154.159551
1 Jan 2020 10:17:07.000,344.170,-75.441,26978.691583
1 Jan 2020 10:17:37.000,345.462,-75.529,26805.439028
1 Jan 2020 10:18:07.000,346.786,-75.626,26634.636018
1 Jan 2020 10:18:37.000,348.143,-75.731,26466.518755
1 Jan 2020 10:19:07.000,349.536,-75.846,26301.325151
1 Jan 2020 10:19:37.000,350.968,-75.968,26139.294421
1 Jan 2020 10:20:07.000,352.443,-76.099,25980.666427
1 Jan 2020 10:20:37.000,353.963,-76.236,25825.682099
1 Jan 2020 10:21:07.000,355.531,-76.381,25674.581574
1 Jan 2020 10:21:37.000,357.151,-76.532,25527.604557
1 Jan 2020 10:22:07.000,358.826,-76.689,25384.989510
1 Jan 2020 10:22:37.000,0.560,-76.850,25246.973029
1 Jan 2020 10:23:07.000,2.357,-77.016,25113.789197
1 Jan 2020 10:23:37.000,4.219,-77.185,24985.668713
1 Jan 2020 10:24:07.000,6.150,-77.356,24862.838928
1 Jan 2020 10:24:37.000,8.153,-77.528,24745.521965
1 Jan 2020 10:25:07.000,10.232,-77.701,24633.934729
1 Jan 2020 10:25:37.000,12.389,-77.872,24528.287927
1 Jan 2020 10:26:07.000,14.626,-78.041,24428.785160
1 Jan 2020 10:26:37.000,16.945,-78.205,24335.622621
1 Jan 2020 10:27:07.000,19.348,-78.365,24248.987530
1 Jan 2020 10:27:37.000,21.834,-78.518,24169.057861
1 Jan 2020 10:28:07.000,24.402,-78.663,24096.001429
1 Jan 2020 10:28:37.000,27.051,-78.798,24029.975051
1 Jan 2020 10:29:07.000,29.777,-78.922,23971.124156
1 Jan 2020 10:29:37.000,32.576,-79.034,23919.581560
1 Jan 2020 10:30:07.000,35.441,-79.131,23875.467183
1 Jan 2020 10:30:37.000,38.364,-79.214,23838.887357
1 Jan 2020 10:31:07.000,41.337,-79.280,23809.934263
1 Jan 2020 10:31:37.000,44.349,-79.330,23788.685557
1 Jan 2020 10:32:07.000,47.389,-79.361,23775.203802
1 Jan 2020 10:32:37.000,50.444,-79.375,23769.536260
1 Jan 2020 10:33:07.000,53.502,-79.370,23771.714649
1 Jan 2020 10:33:37.000,56.549,-79.346,23781.754863
1 Jan 2020 10:34:07.000,59.574,-79.305,23799.657047
1 Jan 2020 10:34:37.000,62.562,-79.246,23825.405521
1 Jan 2020 10:35:07.000,65.505,-79.170,23858.968970
1 Jan 2020 10:35:37.000,68.390,-79.078,23900.300320
1 Jan 2020 10:36:07.000,71.210,-78.971,23949.337441
1 Jan 2020 10:36:37.000,73.957,-78.850,24006.003208
1 Jan 2020 10:37:07.000,76.625,-78.717,24070.206104
1 Jan 2020 10:37:37.000,79.210,-78.574,24141.840228
1 Jan 2020 10:38:07.000,81.708,-78.421,24220.786537
1 Jan 2020 10:38:37.000,84.118,-78.260,24306.912996
1 Jan 2020 10:39:07.000,86.439,-78.094,24400.075338
1 Jan 2020 10:39:37.000,88.672,-77.922,24500.117952
1 Jan 2020 10:40:07.000,90.816,-77.747,24606.873820
1 Jan 2020 10:40:37.000,92.876,-77.570,24720.166433
1 Jan 2020 10:41:07.000,94.851,-77.393,24839.809789
1 Jan 2020 10:41:37.000,96.747,-77.216,24965.609364
1 Jan 2020 10:42:07.000,98.564,-77.041,25097.363106
1 Jan 2020 10:42:37.000,100.307,-76.869,25234.861352
1 Jan 2020 10:43:07.000,101.979,-76.701,25377.888883
1 Jan 2020 10:43:37.000,103.584,-76.538,25526.224830
1 Jan 2020 10:44:07.000,105.124,-76.380,25679.643625
1 Jan 2020 10:44:37.000,106.603,-76.230,25837.915707
1 Jan 2020 10:45:07.000,108.025,-76.086,26000.808220
1 Jan 2020 10:45:37.000,109.393,-75.951,26168.085953
1 Jan 2020 10:46:07.000,110.709,-75.823,26339.510814
1 Jan 2020 10:46:37.000,111.977,-75.705,26514.844148
1 Jan 2020 10:47:07.000,113.200,-75.596,26693.846153
1 Jan 2020 10:47:37.000,114.380,-75.497,26876.276684
1 Jan 2020 10:48:07.000,115.520,-75.408,27061.895744
1 Jan 2020 10:48:37.000,116.623,-75.329,27250.463933
1 Jan 2020 10:49:07.000,117.690,-75.260,27441.742866
1 Jan 2020 10:49:37.000,118.725,-75.202,27635.495556
1 Jan 2020 10:50:07.000,119.729,-75.155,27831.486764
1 Jan 2020 10:50:37.000,120.704,-75.119,28029.483312
1 Jan 2020 10:51:07.000,121.652,-75.093,28229.254373
1 Jan 2020 10:51:37.000,122.575,-75.078,28430.571728
1 Jan 2020 10:52:02.637,123.346,-75.075,28603.664986
1 Jan 2020 11:52:01.899,308.614,-75.065,28598.561677
1 Jan 2020 11:52:31.000,308.831,-75.071,28373.978622
1 Jan 2020 11:53:01.000,309.050,-75.092,28142.522177
1 Jan 2020 11:53:31.000,309.262,-75.128,27911.361449
1 Jan 2020 11:54:01.000,309.470,-75.179,27680.730856
1 Jan 2020 11:54:31.000,309.674,-75.245,27450.870374
1 Jan 2020 11:55:01.000,309.873,-75.328,27222.025490
1 Jan 2020 11:55:31.000,310.068,-75.426,26994.447127
1 Jan 2020 11:56:01.000,310.260,-75.541,26768.391546
1 Jan 2020 11:56:31.000,310.448,-75.673,26544.120216
1 Jan 2020 11:57:01.000,310.634,-75.822,26321.899649
1 Jan 2020 11:57:31.000,310.817,-75.989,26102.001202
1 Jan 2020 11:58:01.000,310.999,-76.173,25884.700832
1 Jan 2020 11:58:31.000,311.179,-76.374,25670.278816
1 Jan 2020 11:59:01.000,311.358,-76.594,25459.019418
1 Jan 2020 11:59:31.000,311.536,-76.832,25251.210504
1 Jan 2020 12:00:01.000,311.715,-77.089,25047.142760
1 Jan 2020 12:00:31.000,311.895,-77.364,24847.110587
1 Jan 2020 12:01:01.000,312.076,-77.658,24651.409453
1 Jan 2020 12:01:31.000,312.259,-77.970,24460.336677
1 Jan 2020 12:02:01.000,312.446,-78.300,24274.190394
1 Jan 2020 12:02:31.000,312.638,-78.650,24093.268809
1 Jan 2020 12:03:01.000,312.835,-79.017,23917.869100
1 Jan 2020 12:03:31.000,313.039,-79.403,23748.287664
1 Jan 2020 12:04:01.000,313.253,-79.806,23584.817469
1 Jan 2020 12:04:31.000,313.478,-80.227,23427.748191
1 Jan 2020 12:05:01.000,313.717,-80.665,23277.364857
1 Jan 2020 12:05:31.000,313.974,-81.120,23133.946482
1 Jan 2020 12:06:01.000,314.253,-81.591,22997.765891
1 Jan 2020 12:06:31.000,314.559,-82.078,22869.087012
1 Jan 2020 12:07:01.000,314.901,-82.580,22748.164656
1 Jan 2020 12:07:31.000,315.286,-83.095,22635.242827
1 Jan 2020 12:08:01.000,315.730,-83.624,22530.554187
1 Jan 2020 12:08:31.000,316.249,-84.166,22434.317700
1 Jan 2020 12:09:01.000,316.872,-84.718,22346.738152
1 Jan 2020 12:09:31.000,317.637,-85.281,22268.004633
1 Jan 2020 12:10:01.000,318.608,-85.852,22198.289944
1 Jan 2020 12:10:31.000,319.889,-86.431,22137.748681
1 Jan 2020 12:11:01.000,321.667,-87.015,22086.516827
1 Jan 2020 12:11:31.000,324.314,-87.600,22044.710642
1 Jan 2020 12:12:01.000,328.668,-88.183,22012.426185
1 Jan 2020 12:12:31.000,337.048,-88.748,21989.738193
1 Jan 2020 12:13:01.000,357.724,-89.249,21976.699897
1 Jan 2020 12:13:31.000,51.017,-89.448,21973.342575
1 Jan 2020 12:14:01.000,93.660,-89.111,21979.675325
1 Jan 2020 12:14:31.000,108.898,-88.580,21995.684983
1 Jan 2020 12:15:01.000,115.607,-88.007,22021.336248
1 Jan 2020 12:15:31.000,119.279,-87.422,22056.571994
1 Jan 2020 12:16:01.000,121.575,-86.837,22101.313373
1 Jan 2020 12:16:31.000,123.140,-86.254,22155.460773
1 Jan 2020 12:17:01.000,124.270,-85.677,22218.894232
1 Jan 2020 12:17:31.000,125.121,-85.108,22291.474443
1 Jan 2020 12:18:01.000,125.783,-84.548,22373.043093
1 Jan 2020 12:18:31.000,126.309,-83.998,22463.424698
1 Jan 2020 12:19:01.000,126.735,-83.460,22562.427148
1 Jan 2020 12:19:31.000,127.084,-82.935,22669.843187
1 Jan 2020 12:20:01.000,127.374,-82.423,22785.450847
1 Jan 2020 12:20:31.000,127.616,-81.925,22909.015805
1 Jan 2020 12:21:01.000,127.818,-81.443,23040.291904
1 Jan 2020 12:21:31.000,127.988,-80.976,23179.022588
1 Jan 2020 12:22:01.000,128.130,-80.526,23324.942435
1 Jan 2020 12:22:31.000,128.249,-80.092,23477.777266
1 Jan 2020 12:23:01.000,128.347,-79.676,23637.247000
1 Jan 2020 12:23:31.000,128.427,-79.278,23803.065720
1 Jan 2020 12:24:01.000,128.491,-78.897,23974.943051
1 Jan 2020 12:24:31.000,128.540,-78.535,24152.585212
1 Jan 2020 12:25:01.000,128.576,-78.191,24335.696342
1 Jan 2020 12:25:31.000,128.601,-77.866,24523.978124
1 Jan 2020 12:26:01.000,128.614,-77.560,24717.132601
1 Jan 2020 12:26:31.000,128.617,-77.272,24914.861684
1 Jan 2020 12:27:01.000,128.610,-77.002,25116.868213
1 Jan 2020 12:27:31.000,128.594,-76.751,25322.856620
1 Jan 2020 12:28:01.000,128.570,-76.519,25532.533538
1 Jan 2020 12:28:31.000,128.537,-76.305,25745.608340
1 Jan 2020 12:29:01.000,128.495,-76.109,25961.793624
1 Jan 2020 12:29:31.000,128.446,-75.931,26180.805995
1 Jan 2020 12:30:01.000,128.389,-75.770,26402.365022
1 Jan 2020 12:30:31.000,128.325,-75.627,26626.195675
1 Jan 2020 12:31:01.000,128.253,-75.501,26852.027197
1 Jan 2020 12:31:31.000,128.174,-75.392,27079.593689
1 Jan 2020 12:32:01.000,128.087,-75.299,27308.634298
1 Jan 2020 12:32:31.000,127.993,-75.223,27538.893382
1 Jan 2020 12:33:01.000,127.892,-75.162,27770.120626
1 Jan 2020 12:33:31.000,127.783,-75.117,28002.071144
1 Jan 2020 12:34:01.000,127.667,-75.087,28234.505547
1 Jan 2020 12:34:31.000,127.543,-75.072,28467.189983
1 Jan 2020 12:34:47.712,127.471,-75.070,28596.835986
1 Jan 2020 13:34:46.708,303.011,-75.063,28593.470144
1 Jan 2020 13:35:16.000,302.206,-75.068,28390.524327
1 Jan 2020 13:35:46.000,301.359,-75.085,28183.875743
1 Jan 2020 13:36:16.000,300.488,-75.114,27978.670003
1 Jan 2020 13:36:46.000,299.590,-75.153,27775.138252
1 Jan 2020 13:37:16.000,298.664,-75.205,27573.514628
1 Jan 2020 13:37:46.000,297.708,-75.268,27374.036025
1 Jan 2020 13:38:16.000,296.719,-75.342,27176.941824
1 Jan 2020 13:38:46.000,295.695,-75.428,26982.473594
1 Jan 2020 13:39:16.000,294.633,-75.525,26790.874764
1 Jan 2020 13:39:46.000,293.532,-75.632,26602.390252
1 Jan 2020 13:40:16.000,292.388,-75.751,26417.266068
1 Jan 2020 13:40:46.000,291.198,-75.879,26235.748580
1 Jan 2020 13:41:16.000,289.960,-76.018,26058.085196
1 Jan 2020 13:41:46.000,288.669,-76.166,25884.522107
1 Jan 2020 13:42:16.000,287.323,-76.323,25715.304896
1 Jan 2020 13:42:46.000,285.918,-76.489,25550.677650
1 Jan 2020 13:43:16.000,284.449,-76.662,25390.882334
1 Jan 2020 13:43:46.000,282.914,-76.843,25236.158118
1 Jan 2020 13:44:16.000,281.307,-77.029,25086.740402
1 Jan 2020 13:44:46.000,279.625,-77.221,24942.861199
1 Jan 2020 13:45:16.000,277.864,-77.416,24804.746684
1 Jan 2020 13:45:46.000,276.018,-77.615,24672.617538
1 Jan 2020 13:46:16.000,274.084,-77.815,24546.687862
1 Jan 2020 13:46:46.000,272.058,-78.016,24427.164151
1 Jan 2020 13:47:16.000,269.935,-78.216,24314.245286
1 Jan 2020 13:47:46.000,267.713,-78.413,24208.120453
1 Jan 2020 13:48:16.000,265.389,-78.606,24108.969161
1 Jan 2020 13:48:46.000,262.960,-78.794,24016.960215
1 Jan 2020 13:49:16.000,260.427,-78.973,23932.250756
1 Jan 2020 13:49:46.000,257.788,-79.143,23854.986190
1 Jan 2020 13:50:16.000,255.047,-79.302,23785.298404
1 Jan 2020 13:50:46.000,252.207,-79.449,23723.305808
1 Jan 2020 13:51:16.000,249.273,-79.580,23669.112427
1 Jan 2020 13:51:46.000,246.252,-79.695,23622.807754
1 Jan 2020 13:52:16.000,243.155,-79.793,23584.465621
1 Jan 2020 13:52:46.000,239.992,-79.871,23554.144218
1 Jan 2020 13:53:16.000,236.778,-79.929,23531.885600
1 Jan 2020 13:53:46.000,233.526,-79.967,23517.715656
1 Jan 2020 13:54:16.000,230.253,-79.983,23511.643605
1 Jan 2020 13:54:46.000,226.976,-79.978,23513.662178
1 Jan 2020 13:55:16.000,223.710,-79.951,23523.747581
1 Jan 2020 13:55:46.000,220.473,-79.903,23541.859631
1 Jan 2020 13:56:16.000,217.279,-79.836,23567.941933
1 Jan 2020 13:56:46.000,214.142,-79.748,23601.922222
1 Jan 2020 13:57:16.000,211.074,-79.643,23643.712787
1 Jan 2020 13:57:46.000,208.084,-79.522,23693.210750
1 Jan 2020 13:58:16.000,205.182,-79.385,23750.298875
1 Jan 2020 13:58:46.000,202.372,-79.235,23814.846011
1 Jan 2020 13:59:16.000,199.658,-79.073,23886.707797
1 Jan 2020 13:59:46.000,197.043,-78.902,23965.727507
1 Jan 2020 14:00:16.000,194.528,-78.723,24051.736322
1 Jan 2020 14:00:46.000,192.111,-78.537,24144.554842
1 Jan 2020 14:01:16.000,189.791,-78.346,24243.993442
1 Jan 2020 14:01:46.000,187.566,-78.153,24349.853226
1 Jan 2020 14:02:16.000,185.431,-77.958,24461.927037
1 Jan 2020 14:02:46.000,183.383,-77.762,24579.999663
1 Jan 2020 14:03:16.000,181.419,-77.568,24703.849636
1 Jan 2020 14:03:46.000,179.533,-77.376,24833.249435
1 Jan 2020 14:04:16.000,177.722,-77.187,24967.966458
1 Jan 2020 14:04:46.000,175.981,-77.003,25107.763816
1 Jan 2020 14:05:16.000,174.306,-76.824,25252.401302
1 Jan 2020 14:05:46.000,172.692,-76.652,25401.635301
1 Jan 2020 14:06:16.000,171.135,-76.486,25555.220716
1 Jan 2020 14:06:46.000,169.632,-76.327,25712.910823
1 Jan 2020 14:07:16.000,168.178,-76.177,25874.458094
1 Jan 2020 14:07:46.000,166.770,-76.035,26039.614786
1 Jan 2020 14:08:16.000,165.405,-75.902,26208.133483
1 Jan 2020 14:08:46.000,164.078,-75.778,26379.767606
1 Jan 2020 14:09:16.000,162.788,-75.664,26554.271879
1 Jan 2020 14:09:46.000,161.531,-75.559,26731.402754
1 Jan 2020 14:10:16.000,160.304,-75.464,26910.919070
1 Jan 2020 14:10:46.000,159.105,-75.380,27092.581345
1 Jan 2020 14:11:16.000,157.931,-75.305,27276.153678
1 Jan 2020 14:11:46.000,156.780,-75.241,27461.402983
1 Jan 2020 14:12:16.000,155.650,-75.186,27648.099501
1 Jan 2020 14:12:46.000,154.538,-75.142,27836.017027
1 Jan 2020 14:13:16.000,153.442,-75.108,28024.933102
1 Jan 2020 14:13:46.000,152.361,-75.084,28214.629186
1 Jan 2020 14:14:16.000,151.292,-75.070,28404.890796
1 Jan 2020 14:14:45.597,150.248,-75.065,28592.942753
1 Jan 2020 15:14:00.551,320.541,-75.065,28593.041816
1 Jan 2020 15:14:30.000,319.153,-75.068,28448.439464
1 Jan 2020 15:15:00.000,317.719,-75.076,28303.255623
1 Jan 2020 15:15:30.000,316.263,-75.090,28160.405359
1 Jan 2020 15:16:00.000,314.784,-75.109,28020.079532
1 Jan 2020 15:16:30.000,313.281,-75.133,27882.468408
1 Jan 2020 15:17:00.000,311.752,-75.162,27747.761309
1 Jan 2020 15:17:30.000,310.197,-75.195,27616.146232
1 Jan 2020 15:18:00.000,308.615,-75.232,27487.809463
1 Jan 2020 15:18:30.000,307.005,-75.273,27362.935166
1 Jan 2020 15:19:00.000,305.366,-75.318,27241.704962
1 Jan 2020 15:19:30.000,303.697,-75.366,27124.297309
1 Jan 2020 15:20:00.000,301.997,-75.416,27010.887784
1 Jan 2020 15:20:30.000,300.267,-75.468,26901.647515
1 Jan 2020 15:21:00.000,298.504,-75.523,26796.743454
1 Jan 2020 15:21:30.000,296.711,-75.578,26696.337716
1 Jan 2020 15:22:00.000,294.885,-75.635,26600.587096
1 Jan 2020 15:22:30.000,293.028,-75.691,26509.642589
1 Jan 2020 15:23:00.000,291.139,-75.747,26423.648773
1 Jan 2020 15:23:30.000,289.219,-75.803,26342.743889
1 Jan 2020 15:24:00.000,287.269,-75.857,26267.058530
1 Jan 2020 15:24:30.000,285.290,-75.910,26196.715760
1 Jan 2020 15:25:00.000,283.283,-75.960,26131.830526
1 Jan 2020 15:25:30.000,281.248,-76.007,26072.509239
1 Jan 2020 15:26:00.000,279.189,-76.051,26018.849292
1 Jan 2020 15:26:30.000,277.106,-76.091,25970.939035
1 Jan 2020 15:27:00.000,275.003,-76.128,25928.856897
1 Jan 2020 15:27:30.000,272.880,-76.159,25892.671436
1 Jan 2020 15:28:00.000,270.741,-76.186,25862.440980
1 Jan 2020 15:28:30.000,268.589,-76.208,25838.213379
1 Jan 2020 15:29:00.000,266.426,-76.225,25820.025781
1 Jan 2020 15:29:30.000,264.255,-76.236,25807.904622
1 Jan 2020 15:30:00.000,262.079,-76.242,25801.865280
1 Jan 2020 15:30:30.000,259.901,-76.241,25801.912177
1 Jan 2020 15:31:00.000,257.725,-76.236,25808.038712
1 Jan 2020 15:31:30.000,255.554,-76.224,25820.227310
1 Jan 2020 15:32:00.000,253.390,-76.208,25838.449436
1 Jan 2020 15:32:30.000,251.237,-76.186,25862.665778
1 Jan 2020 15:33:00.000,249.097,-76.159,25892.826378
1 Jan 2020 15:33:30.000,246.973,-76.127,25928.870837
1 Jan 2020 15:34:00.000,244.867,-76.091,25970.728565
1 Jan 2020 15:34:30.000,242.782,-76.051,26018.319131
1 Jan 2020 15:35:00.000,240.720,-76.007,26071.552297
1 Jan 2020 15:35:30.000,238.682,-75.960,26130.328784
1 Jan 2020 15:36:00.000,236.670,-75.910,26194.540383
1 Jan 2020 15:36:30.000,234.685,-75.858,26264.070422
1 Jan 2020 15:37:00.000,232.729,-75.804,26338.794193
1 Jan 2020 15:37:30.000,230.802,-75.749,26418.579513
1 Jan 2020 15:38:00.000,228.904,-75.693,26503.286737
1 Jan 2020 15:38:30.000,227.037,-75.637,26592.769885
1 Jan 2020 15:39:00.000,225.201,-75.582,26686.876695
1 Jan 2020 15:39:30.000,223.394,-75.527,26785.449214
1 Jan 2020 15:40:00.000,221.618,-75.473,26888.324277
1 Jan 2020 15:40:30.000,219.872,-75.421,26995.334002
1 Jan 2020 15:41:00.000,218.155,-75.371,27106.306261
1 Jan 2020 15:41:30.000,216.467,-75.324,27221.065335
1 Jan 2020 15:42:00.000,214.808,-75.279,27339.431682
1 Jan 2020 15:42:30.000,213.175,-75.238,27461.223425
1 Jan 2020 15:43:00.000,211.570,-75.200,27586.256104
1 Jan 2020 15:43:30.000,209.989,-75.167,27714.343278
1 Jan 2020 15:44:00.000,208.433,-75.137,27845.296933
1 Jan 2020 15:44:30.000,206.901,-75.113,27978.927872
1 Jan 2020 15:45:00.000,205.390,-75.092,28115.046095
1 Jan 2020 15:45:30.000,203.901,-75.077,28253.461154
1 Jan 2020 15:46:00.000,202.432,-75.067,28393.982493
1 Jan 2020 15:46:30.000,200.981,-75.062,28536.419765
1 Jan 2020 15:46:41.893,200.411,-75.062,28593.373688
1 Jan 2020 16:45:02.272,12.210,-75.071,28597.031377
1 Jan 2020 16:45:32.000,10.932,-75.075,28432.568722
1 Jan 2020 16:46:02.000,9.627,-75.086,28267.494634
1 Jan 2020 16:46:32.000,8.307,-75.104,28103.519426
1 Jan 2020 16:47:02.000,6.968,-75.129,27940.847657
1 Jan 2020 16:47:32.000,5.609,-75.162,27779.686398
1 Jan 2020 16:48:02.000,4.229,-75.201,27620.245002
1 Jan 2020 16:48:32.000,2.825,-75.248,27462.734844
1 Jan 2020 16:49:02.000,1.397,-75.301,27307.369044
1 Jan 2020 16:49:32.000,359.941,-75.362,27154.362163
1 Jan 2020 16:50:02.000,358.456,-75.428,27003.929867
1 Jan 2020 16:50:32.000,356.941,-75.501,26856.288570
1 Jan 2020 16:51:02.000,355.393,-75.579,26711.655049
1 Jan 2020 16:51:32.000,353.810,-75.663,26570.246027
1 Jan 2020 16:52:02.000,352.191,-75.752,26432.277547
1 Jan 2020 16:52:32.000,350.534,-75.845,26297.965264
1 Jan 2020 16:53:02.000,348.836,-75.943,26167.522797
1 Jan 2020 16:53:32.000,347.096,-76.044,26041.161980
1 Jan 2020 16:54:02.000,345.313,-76.148,25919.092128
1 Jan 2020 16:54:32.000,343.484,-76.254,25801.519464
1 Jan 2020 16:55:02.000,341.609,-76.362,25688.646538
1 Jan 2020 16:55:32.000,339.686,-76.470,25580.671467
1 Jan 2020 16:56:02.000,337.714,-76.579,25477.787911
1 Jan 2020 16:56:32.000,335.692,-76.687,25380.183543
1 Jan 2020 16:57:02.000,333.621,-76.794,25288.040015
1 Jan 2020 16:57:32.000,331.500,-76.898,25201.532161
1 Jan 2020 16:58:02.000,329.330,-76.999,25120.827358
1 Jan 2020 16:58:32.000,327.111,-77.095,25046.084791
1 Jan 2020 16:59:02.000,324.845,-77.187,24977.455231
1 Jan 2020 16:59:32.000,322.533,-77.273,24915.079809
1 Jan 2020 17:00:02.000,320.179,-77.352,24859.089855
1 Jan 2020 17:00:32.000,317.785,-77.423,24809.606230
1 Jan 2020 17:01:02.000,315.355,-77.486,24766.738764
1 Jan 2020 17:01:32.000,312.893,-77.540,24730.585940
1 Jan 2020 17:02:02.000,310.405,-77.585,24701.234176
1 Jan 2020 17:02:32.000,307.894,-77.619,24678.757628
1 Jan 2020 17:03:02.000,305.367,-77.643,24663.217793
1 Jan 2020 17:03:32.000,302.830,-77.657,24654.663244
1 Jan 2020 17:04:02.000,300.289,-77.659,24653.129350
1 Jan 2020 17:04:32.000,297.750,-77.650,24658.638172
1 Jan 2020 17:05:02.000,295.219,-77.630,24671.198335
1 Jan 2020 17:05:32.000,292.703,-77.600,24690.805001
1 Jan 2020 17:06:02.000,290.208,-77.559,24717.439969
1 Jan 2020 17:06:32.000,287.739,-77.508,24751.071491
1 Jan 2020 17:07:02.000,285.301,-77.448,24791.654835
1 Jan 2020 17:07:32.000,282.899,-77.379,24839.132253
1 Jan 2020 17:08:02.000,280.538,-77.301,24893.433314
1 Jan 2020 17:08:32.000,278.221,-77.216,24954.475373
1 Jan 2020 17:09:02.000,275.952,-77.125,25022.163459
1 Jan 2020 17:09:32.000,273.732,-77.027,25096.391437
1 Jan 2020 17:10:02.000,271.563,-76.925,25177.042015
1 Jan 2020 17:10:32.000,269.448,-76.819,25263.987366
1 Jan 2020 17:11:02.000,267.387,-76.710,25357.089844
1 Jan 2020 17:11:32.000,265.381,-76.599,25456.201912
1 Jan 2020 17:12:02.000,263.428,-76.487,25561.167686
1 Jan 2020 17:12:32.000,261.530,-76.375,25671.822920
1 Jan 2020 17:13:02.000,259.686,-76.263,25787.995784
1 Jan 2020 17:13:32.000,257.894,-76.152,25909.507483
1 Jan 2020 17:14:02.000,256.154,-76.044,26036.173107
1 Jan 2020 17:14:32.000,254.464,-75.938,26167.801392
1 Jan 2020 17:15:02.000,252.822,-75.836,26304.196610
1 Jan 2020 17:15:32.000,251.228,-75.738,26445.158337
1 Jan 2020 17:16:02.000,249.678,-75.645,26590.482240
1 Jan 2020 17:16:32.000,248.172,-75.558,26739.960657
1 Jan 2020 17:17:02.000,246.708,-75.476,26893.383148
1 Jan 2020 17:17:32.000,245.284,-75.401,27050.537018
1 Jan 2020 17:18:02.000,243.898,-75.333,27211.208090
1 Jan 2020 17:18:32.000,242.548,-75.271,27375.180148
1 Jan 2020 17:19:02.000,241.232,-75.218,27542.236937
1 Jan 2020 17:19:32.000,239.948,-75.172,27712.161565
1 Jan 2020 17:20:02.000,238.696,-75.133,27884.737167
1 Jan 2020 17:20:32.000,237.472,-75.104,28059.747271
1 Jan 2020 17:21:02.000,236.276,-75.082,28236.976154
1 Jan 2020 17:21:32.000,235.105,-75.069,28416.209164
1 Jan 2020 17:22:02.000,233.958,-75.065,28597.233015
1 Jan 2020 17:22:02.156,233.952,-75.065,28598.178604
1 Jan 2020 18:21:59.072,46.101,-75.075,28603.379688
1 Jan 2020 18:22:29.000,45.549,-75.082,28381.426902
1 Jan 2020 18:22:59.000,44.994,-75.102,28158.950736
1 Jan 2020 18:23:29.000,44.438,-75.135,27936.711095
1 Jan 2020 18:23:59.000,43.877,-75.183,27714.936944
1 Jan 2020 18:24:29.000,43.312,-75.245,27493.862662
1 Jan 2020 18:24:59.000,42.741,-75.321,27273.727981
1 Jan 2020 18:25:29.000,42.162,-75.412,27054.777906
1 Jan 2020 18:25:59.000,41.574,-75.519,26837.262608
1 Jan 2020 18:26:29.000,40.976,-75.640,26621.437285
1 Jan 2020 18:26:59.000,40.364,-75.778,26407.561997
1 Jan 2020 18:27:29.000,39.738,-75.931,26195.901456
1 Jan 2020 18:27:59.000,39.095,-76.100,25986.724790
1 Jan 2020 18:28:29.000,38.432,-76.285,25780.305252
1 Jan 2020 18:28:59.000,37.748,-76.487,25576.919894
1 Jan 2020 18:29:29.000,37.039,-76.704,25376.849189
1 Jan 2020 18:29:59.000,36.301,-76.938,25180.376293
1 Jan 2020 18:30:29.000,35.531,-77.188,24987.787800
1 Jan 2020 18:30:59.000,34.725,-77.454,24799.371340
1 Jan 2020 18:31:29.000,33.878,-77.737,24615.416228
1 Jan 2020 18:31:59.000,32.983,-78.034,24436.212494
1 Jan 2020 18:32:29.000,32.035,-78.347,24262.050165
1 Jan 2020 18:32:59.000,31.027,-78.675,24093.218231
1 Jan 2020 18:33:29.000,29.949,-79.017,23930.004818
1 Jan 2020 18:33:59.000,28.791,-79.373,23772.694754
1 Jan 2020 18:34:29.000,27.542,-79.742,23621.569645
1 Jan 2020 18:34:59.000,26.189,-80.123,23476.906599
1 Jan 2020 18:35:29.000,24.713,-80.514,23338.976951
1 Jan 2020 18:35:59.000,23.096,-80.915,23208.046041
1 Jan 2020 18:36:29.000,21.315,-81.324,23084.370737
1 Jan 2020 18:36:59.000,19.341,-81.738,22968.199180
1 Jan 2020 18:37:29.000,17.141,-82.157,22859.769214
1 Jan 2020 18:37:59.000,14.675,-82.576,22759.307835
1 Jan 2020 18:38:29.000,11.896,-82.992,22667.029049
1 Jan 2020 18:38:59.000,8.748,-83.402,22583.133368
1 Jan 2020 18:39:29.000,5.167,-83.801,22507.806409
1 Jan 2020 18:39:59.000,1.082,-84.182,22441.218279
1 Jan 2020 18:40:29.000,356.420,-84.540,22383.521851
1 Jan 2020 18:40:59.000,351.114,-84.864,22334.852314
1 Jan 2020 18:41:29.000,345.118,-85.147,22295.326155
1 Jan 2020 18:41:59.000,338.435,-85.376,22265.040639
1 Jan 2020 18:42:29.000,331.137,-85.543,22244.072816
1 Jan 2020 18:42:59.000,323.386,-85.639,22232.479283
1 Jan 2020 18:43:29.000,315.426,-85.657,22230.295756
1 Jan 2020 18:43:59.000,307.545,-85.596,22237.536788
1 Jan 2020 18:44:29.000,300.016,-85.461,22254.195734
1 Jan 2020 18:44:59.000,293.043,-85.258,22280.244782
1 Jan 2020 18:45:29.000,286.739,-84.998,22315.635247
1 Jan 2020 18:45:59.000,281.138,-84.690,22360.297562
1 Jan 2020 18:46:29.000,276.212,-84.345,22414.142233
1 Jan 2020 18:46:59.000,271.903,-83.971,22477.060131
1 Jan 2020 18:47:29.000,268.140,-83.577,22548.923426
1 Jan 2020 18:47:59.000,264.849,-83.169,22629.585818
1 Jan 2020 18:48:29.000,261.963,-82.751,22718.884304
1 Jan 2020 18:48:59.000,259.422,-82.330,22816.639610
1 Jan 2020 18:49:29.000,257.176,-81.907,22922.657579
1 Jan 2020 18:49:59.000,255.179,-81.487,23036.729504
1 Jan 2020 18:50:29.000,253.398,-81.072,23158.634405
1 Jan 2020 18:50:59.000,251.800,-80.663,23288.139452
1 Jan 2020 18:51:29.000,250.361,-80.263,23425.001318
1 Jan 2020 18:51:59.000,249.060,-79.874,23568.967638
1 Jan 2020 18:52:29.000,247.878,-79.496,23719.777045
1 Jan 2020 18:52:59.000,246.801,-79.130,23877.161962
1 Jan 2020 18:53:29.000,245.816,-78.779,24040.848610
1 Jan 2020 18:53:59.000,244.912,-78.441,24210.558338
1 Jan 2020 18:54:29.000,244.081,-78.118,24386.008635
1 Jan 2020 18:54:59.000,243.314,-77.811,24566.914420
1 Jan 2020 18:55:29.000,242.604,-77.520,24752.987638
1 Jan 2020 18:55:59.000,241.946,-77.244,24943.940055
1 Jan 2020 18:56:29.000,241.336,-76.986,25139.482757
1 Jan 2020 18:56:59.000,240.767,-76.743,25339.327193
1 Jan 2020 18:57:29.000,240.237,-76.518,25543.185839
1 Jan 2020 18:57:59.000,239.742,-76.309,25750.772807
1 Jan 2020 18:58:29.000,239.279,-76.117,25961.804390
1 Jan 2020 18:58:59.000,238.846,-75.942,26175.999551
1 Jan 2020 18:59:29.000,238.440,-75.783,26393.080724
1 Jan 2020 18:59:59.000,238.060,-75.641,26612.772766
1 Jan 2020 19:00:29.000,237.702,-75.515,26834.805433
1 Jan 2020 19:00:59.000,237.367,-75.405,27058.912256
1 Jan 2020 19:01:29.000,237.052,-75.312,27284.831144
1 Jan 2020 19:01:59.000,236.756,-75.234,27512.304597
1 Jan 2020 19:02:29.000,236.477,-75.171,27741.079880
1 Jan 2020 19:02:59.000,236.216,-75.124,27970.909173
1 Jan 2020 19:03:29.000,235.970,-75.091,28201.549681
1 Jan 2020 19:03:59.000,235.740,-75.073,28432.763727
1 Jan 2020 19:04:21.344,235.577,-75.069,28605.207292
1 Jan 2020 20:04:21.676,56.948,-75.077,28609.379887
1 Jan 2020 20:04:51.000,57.450,-75.084,28390.707146
1 Jan 2020 20:05:21.000,57.983,-75.104,28167.732496
1 Jan 2020 20:05:51.000,58.536,-75.137,27945.735508
1 Jan 2020 20:06:21.000,59.112,-75.184,27724.954315
1 Jan 2020 20:06:51.000,59.711,-75.245,27505.631365
1 Jan 2020 20:07:21.000,60.336,-75.320,27288.013260
1 Jan 2020 20:07:51.000,60.989,-75.409,27072.350575
1 Jan 2020 20:08:21.000,61.671,-75.513,26858.897640
1 Jan 2020 20:08:51.000,62.385,-75.631,26647.912286
1 Jan 2020 20:09:21.000,63.133,-75.763,26439.655558
1 Jan 2020 20:09:51.000,63.919,-75.909,26234.391383
1 Jan 2020 20:10:21.000,64.744,-76.069,26032.386203
1 Jan 2020 20:10:51.000,65.613,-76.244,25833.908560
1 Jan 2020 20:11:21.000,66.530,-76.432,25639.228285
1 Jan 2020 20:11:51.000,67.497,-76.633,25448.617381
1 Jan 2020 20:12:21.000,68.521,-76.848,25262.347368
1 Jan 2020 20:12:51.000,69.605,-77.075,25080.690079
1 Jan 2020 20:13:21.000,70.755,-77.315,24903.916640
1 Jan 2020 20:13:51.000,71.978,-77.566,24732.296768
1 Jan 2020 20:14:21.000,73.280,-77.828,24566.097725
1 Jan 2020 20:14:51.000,74.668,-78.100,24405.584621
1 Jan 2020 20:15:21.000,76.151,-78.382,24251.017884
1 Jan 2020 20:15:51.000,77.738,-78.671,24102.653482
1 Jan 2020 20:16:21.000,79.439,-78.966,23960.741708
1 Jan 2020 20:16:51.000,81.264,-79.267,23825.525966
1 Jan 2020 20:17:21.000,83.225,-79.571,23697.242743
1 Jan 2020 20:17:51.000,85.336,-79.876,23576.119131
1 Jan 2020 20:18:21.000,87.609,-80.181,23462.372786
1 Jan 2020 20:18:51.000,90.057,-80.483,23356.210478
1 Jan 2020 20:19:21.000,92.696,-80.780,23257.827778
1 Jan 2020 20:19:51.000,95.537,-81.068,23167.406985
1 Jan 2020 20:20:21.000,98.593,-81.344,23085.116887
1 Jan 2020 20:20:51.000,101.873,-81.605,23011.111513
1 Jan 2020 20:21:21.000,105.383,-81.848,22945.529817
1 Jan 2020 20:21:51.000,109.123,-82.068,22888.494021
1 Jan 2020 20:22:21.000,113.086,-82.262,22840.109469
1 Jan 2020 20:22:51.000,117.257,-82.427,22800.463751
1 Jan 2020 20:23:21.000,121.611,-82.559,22769.626505
1 Jan 2020 20:23:51.000,126.113,-82.655,22747.648437
1 Jan 2020 20:24:21.000,130.718,-82.712,22734.561363
1 Jan 2020 20:24:51.000,135.376,-82.731,22730.377888
1 Jan 2020 20:25:21.000,140.033,-82.710,22735.091400
1 Jan 2020 20:25:51.000,144.634,-82.650,22748.675940
1 Jan 2020 20:26:21.000,149.130,-82.552,22771.086480
1 Jan 2020 20:26:51.000,153.479,-82.419,22802.259197
1 Jan 2020 20:27:21.000,157.646,-82.253,22842.111708
1 Jan 2020 20:27:51.000,161.608,-82.059,22890.543774
1 Jan 2020 20:28:21.000,165.352,-81.840,22947.437773
1 Jan 2020 20:28:51.000,168.871,-81.598,23012.659521
1 Jan 2020 20:29:21.000,172.168,-81.339,23086.058659
1 Jan 2020 20:29:51.000,175.247,-81.066,23167.470059
1 Jan 2020 20:30:21.000,178.120,-80.782,23256.714375
1 Jan 2020 20:30:51.000,180.798,-80.490,23353.599233
1 Jan 2020 20:31:21.000,183.295,-80.192,23457.919672
1 Jan 2020 20:31:51.000,185.624,-79.892,23569.459983
1 Jan 2020 20:32:21.000,187.800,-79.592,23687.994216
1 Jan 2020 20:32:51.000,189.836,-79.293,23813.287359
1 Jan 2020 20:33:21.000,191.743,-78.998,23945.096584
1 Jan 2020 20:33:51.000,193.535,-78.708,24083.171434
1 Jan 2020 20:34:21.000,195.221,-78.425,24227.256069
1 Jan 2020 20:34:51.000,196.812,-78.149,24377.089420
1 Jan 2020 20:35:21.000,198.317,-77.882,24532.406327
1 Jan 2020 20:35:51.000,199.743,-77.625,24692.938433
1 Jan 2020 20:36:21.000,201.098,-77.378,24858.415292
1 Jan 2020 20:36:51.000,202.390,-77.142,25028.564159
1 Jan 2020 20:37:21.000,203.624,-76.918,25203.112245
1 Jan 2020 20:37:51.000,204.805,-76.706,25381.786425
1 Jan 2020 20:38:21.000,205.939,-76.506,25564.314133
1 Jan 2020 20:38:51.000,207.031,-76.320,25750.423955
1 Jan 2020 20:39:21.000,208.084,-76.146,25939.846180
1 Jan 2020 20:39:51.000,209.102,-75.985,26132.313288
1 Jan 2020 20:40:21.000,210.089,-75.838,26327.560400
1 Jan 2020 20:40:51.000,211.049,-75.704,26525.325679
1 Jan 2020 20:41:21.000,211.983,-75.583,26725.350978
1 Jan 2020 20:41:51.000,212.894,-75.475,26927.380969
1 Jan 2020 20:42:21.000,213.786,-75.381,27131.165194
1 Jan 2020 20:42:51.000,214.660,-75.299,27336.457114
1 Jan 2020 20:43:21.000,215.518,-75.231,27543.014616
1 Jan 2020 20:43:51.000,216.364,-75.175,27750.600175
1 Jan 2020 20:44:21.000,217.197,-75.131,27958.981000
1 Jan 2020 20:44:51.000,218.021,-75.100,28167.929148
1 Jan 2020 20:45:21.000,218.837,-75.081,28377.221614
1 Jan 2020 20:45:51.000,219.647,-75.074,28586.640404
1 Jan 2020 20:45:54.393,219.738,-75.074,28610.326333
1 Jan 2020 21:45:41.032,49.083,-75.077,28611.459537
1 Jan 2020 21:46:11.000,50.386,-75.080,28448.773233
1 Jan 2020 21:46:41.000,51.712,-75.091,28287.965429
1 Jan 2020 21:47:11.000,53.063,-75.108,28129.413599
1 Jan 2020 21:47:41.000,54.439,-75.132,27973.319472
1 Jan 2020 21:48:11.000,55.843,-75.162,27819.884775
1 Jan 2020 21:48:41.000,57.275,-75.198,27669.310887
1 Jan 2020 21:49:11.000,58.736,-75.240,27521.798457
1 Jan 2020 21:49:41.000,60.229,-75.288,27377.547017
1 Jan 2020 21:50:11.000,61.754,-75.341,27236.754561
1 Jan 2020 21:50:41.000,63.313,-75.398,27099.617110
1 Jan 2020 21:51:11.000,64.907,-75.460,26966.328039
1 Jan 2020 21:51:41.000,66.536,-75.525,26837.078484
1 Jan 2020 21:52:11.000,68.203,-75.594,26712.055524
1 Jan 2020 21:52:41.000,69.908,-75.666,26591.442568
1 Jan 2020 21:53:11.000,71.651,-75.740,26475.418615
1 Jan 2020 21:53:41.000,73.434,-75.816,26364.157730
1 Jan 2020 21:54:11.000,75.257,-75.893,26257.828508
1 Jan 2020 21:54:41.000,77.120,-75.970,26156.593365
1 Jan 2020 21:55:11.000,79.022,-76.048,26060.608712
1 Jan 2020 21:55:41.000,80.965,-76.124,25970.023340
1 Jan 2020 21:56:11.000,82.947,-76.199,25884.978623
1 Jan 2020 21:56:41.000,84.968,-76.272,25805.607820
1 Jan 2020 21:57:11.000,87.026,-76.342,25732.035572
1 Jan 2020 21:57:41.000,89.120,-76.409,25664.377298
1 Jan 2020 21:58:11.000,91.248,-76.471,25602.739250
1 Jan 2020 21:58:41.000,93.409,-76.529,25547.217301
1 Jan 2020 21:59:11.000,95.599,-76.582,25497.897082
1 Jan 2020 21:59:41.000,97.817,-76.629,25454.853481
1 Jan 2020 22:00:11.000,100.058,-76.670,25418.150264
1 Jan 2020 22:00:41.000,102.320,-76.704,25387.840064
1 Jan 2020 22:01:11.000,104.599,-76.731,25363.963727
1 Jan 2020 22:01:41.000,106.891,-76.752,25346.550422
1 Jan 2020 22:02:11.000,109.192,-76.764,25335.617431
1 Jan 2020 22:02:41.000,111.499,-76.770,25331.170050
1 Jan 2020 22:03:11.000,113.806,-76.767,25333.201649
1 Jan 2020 22:03:41.000,116.111,-76.757,25341.693549
1 Jan 2020 22:04:11.000,118.408,-76.740,25356.615213
1 Jan 2020 22:04:41.000,120.694,-76.716,25377.924346
1 Jan 2020 22:05:11.000,122.966,-76.684,25405.567105
1 Jan 2020 22:05:41.000,125.219,-76.646,25439.478222
1 Jan 2020 22:06:11.000,127.451,-76.602,25479.581435
1 Jan 2020 22:06:41.000,129.658,-76.552,25525.789719
1 Jan 2020 22:07:11.000,131.838,-76.497,25578.005666
1 Jan 2020 22:07:41.000,133.989,-76.438,25636.121961
1 Jan 2020 22:08:11.000,136.108,-76.374,25700.021533
1 Jan 2020 22:08:41.000,138.193,-76.307,25769.578424
1 Jan 2020 22:09:11.000,140.245,-76.236,25844.658016
1 Jan 2020 22:09:41.000,142.260,-76.164,25925.117600
1 Jan 2020 22:10:11.000,144.240,-76.090,26010.806900
1 Jan 2020 22:10:41.000,146.183,-76.015,26101.568735
1 Jan 2020 22:11:11.000,148.089,-75.940,26197.239069
1 Jan 2020 22:11:41.000,149.958,-75.864,26297.648289
1 Jan 2020 22:12:11.000,151.791,-75.790,26402.621273
1 Jan 2020 22:12:41.000,153.588,-75.717,26511.978053
1 Jan 2020 22:13:11.000,155.350,-75.646,26625.534356
1 Jan 2020 22:13:41.000,157.078,-75.578,26743.102127
1 Jan 2020 22:14:11.000,158.773,-75.512,26864.490054
1 Jan 2020 22:14:41.000,160.435,-75.450,26989.504242
1 Jan 2020 22:15:11.000,162.067,-75.391,27117.947988
1 Jan 2020 22:15:41.000,163.668,-75.337,27249.623314
1 Jan 2020 22:16:11.000,165.241,-75.287,27384.330710
1 Jan 2020 22:16:41.000,166.787,-75.241,27521.869735
1 Jan 2020 22:17:11.000,168.307,-75.201,27662.039427
1 Jan 2020 22:17:41.000,169.803,-75.167,27804.638685
1 Jan 2020 22:18:11.000,171.276,-75.137,27949.466631
1 Jan 2020 22:18:41.000,172.727,-75.114,28096.322951
1 Jan 2020 22:19:11.000,174.159,-75.096,28245.008213
1 Jan 2020 22:19:41.000,175.572,-75.084,28395.324163
1 Jan 2020 22:20:11.000,176.967,-75.078,28547.073998
1 Jan 2020 22:20:23.619,177.550,-75.078,28611.284786
1 Jan 2020 23:18:26.182,5.017,-75.071,28608.620834
1 Jan 2020 23:18:56.000,6.409,-75.074,28459.076847
1 Jan 2020 23:19:26.000,7.825,-75.083,28310.039537
1 Jan 2020 23:19:56.000,9.260,-75.098,28162.622482
1 Jan 2020 23:20:26.000,10.714,-75.118,28017.022002
1 Jan 2020 23:20:56.000,12.189,-75.145,27873.435519
1 Jan 2020 23:21:26.000,13.687,-75.176,27732.061259
1 Jan 2020 23:21:56.000,15.208,-75.213,27593.097941
1 Jan 2020 23:22:26.000,16.754,-75.255,27456.744440
1 Jan 2020 23:22:56.000,18.327,-75.301,27323.199427
1 Jan 2020 23:23:26.000,19.928,-75.352,27192.660994
1 Jan 2020 23:23:56.000,21.557,-75.406,27065.326249
1 Jan 2020 23:24:26.000,23.217,-75.465,26941.390894
1 Jan 2020 23:24:56.000,24.907,-75.527,26821.048617
1 Jan 2020 23:25:26.000,26.631,-75.591,26704.491321
1 Jan 2020 23:25:56.000,28.387,-75.658,26591.907602
1 Jan 2020 23:26:26.000,30.177,-75.727,26483.482956
1 Jan 2020 23:26:56.000,32.002,-75.798,26379.399099
1 Jan 2020 23:27:26.000,33.861,-75.869,26279.833446
1 Jan 2020 23:27:56.000,35.757,-75.940,26184.958587
1 Jan 2020 23:28:26.000,37.687,-76.012,26094.941633
1 Jan 2020 23:28:56.000,39.653,-76.082,26009.944163
1 Jan 2020 23:29:26.000,41.653,-76.151,25930.120955
1 Jan 2020 23:29:56.000,43.687,-76.218,25855.619950
1 Jan 2020 23:30:26.000,45.755,-76.282,25786.581604
1 Jan 2020 23:30:56.000,47.854,-76.342,25723.138377
1 Jan 2020 23:31:26.000,49.984,-76.399,25665.414169
1 Jan 2020 23:31:56.000,52.142,-76.452,25613.524131
1 Jan 2020 23:32:26.000,54.326,-76.500,25567.573771
1 Jan 2020 23:32:56.000,56.533,-76.542,25527.658836
1 Jan 2020 23:33:26.000,58.761,-76.578,25493.864846
1 Jan 2020 23:33:56.000,61.007,-76.608,25466.266720
1 Jan 2020 23:34:26.000,63.266,-76.632,25444.928551
1 Jan 2020 23:34:56.000,65.537,-76.649,25429.903187
1 Jan 2020 23:35:26.000,67.814,-76.658,25421.232115
1 Jan 2020 23:35:56.000,70.094,-76.661,25418.945249
1 Jan 2020 23:36:26.000,72.374,-76.657,25423.060835
1 Jan 2020 23:36:56.000,74.649,-76.645,25433.585275
1 Jan 2020 23:37:26.000,76.916,-76.626,25450.513227
1 Jan 2020 23:37:56.000,79.170,-76.601,25473.827563
1 Jan 2020 23:38:26.000,81.408,-76.569,25503.499457
1 Jan 2020 23:38:56.000,83.627,-76.531,25539.488588
1 Jan 2020 23:39:26.000,85.823,-76.486,25581.743037
1 Jan 2020 23:39:56.000,87.994,-76.437,25630.199922
1 Jan 2020 23:40:26.000,90.137,-76.382,25684.785402
1 Jan 2020 23:40:56.000,92.249,-76.323,25745.415056
1 Jan 2020 23:41:26.000,94.329,-76.260,25811.994227
1 Jan 2020 23:41:56.000,96.375,-76.194,25884.418560
