STKdata/stk_90fov_4leo/Satellite-MEO_Satellite10106-To-Satellite-LEO_Satellite10000 AER.csv

"Time (UTCG)","Azimuth (deg)","Elevation (deg)","Range (km)"
1 Jan 2020 02:14:00.392,310.528,-75.067,28593.983867
1 Jan 2020 02:14:30.000,311.852,-75.070,28453.335664
1 Jan 2020 02:15:00.000,313.202,-75.078,28311.053979
1 Jan 2020 02:15:30.000,314.562,-75.091,28169.158296
1 Jan 2020 02:16:00.000,315.934,-75.110,28027.807157
1 Jan 2020 02:16:30.000,317.318,-75.134,27887.161784
1 Jan 2020 02:17:00.000,318.717,-75.164,27747.385950
1 Jan 2020 02:17:30.000,320.130,-75.199,27608.645836
1 Jan 2020 02:18:00.000,321.561,-75.240,27471.109868
1 Jan 2020 02:18:30.000,323.009,-75.286,27334.948542
1 Jan 2020 02:19:00.000,324.477,-75.337,27200.334237
1 Jan 2020 02:19:30.000,325.967,-75.393,27067.440998
1 Jan 2020 02:20:00.000,327.478,-75.454,26936.444314
1 Jan 2020 02:20:30.000,329.014,-75.520,26807.520871
1 Jan 2020 02:21:00.000,330.576,-75.590,26680.848291
1 Jan 2020 02:21:30.000,332.164,-75.664,26556.604841
1 Jan 2020 02:22:00.000,333.781,-75.743,26434.969142
1 Jan 2020 02:22:30.000,335.429,-75.825,26316.119837
1 Jan 2020 02:23:00.000,337.107,-75.910,26200.235106
1 Jan 2020 02:23:30.000,338.819,-75.998,26087.492914
1 Jan 2020 02:24:00.000,340.564,-76.089,25978.069712
1 Jan 2020 02:24:30.000,342.346,-76.181,25872.140660
1 Jan 2020 02:25:00.000,344.163,-76.275,25769.879062
1 Jan 2020 02:25:30.000,346.019,-76.370,25671.455936
1 Jan 2020 02:26:00.000,347.913,-76.465,25577.039577
1 Jan 2020 02:26:30.000,349.846,-76.561,25486.795099
1 Jan 2020 02:27:00.000,351.819,-76.655,25400.883874
1 Jan 2020 02:27:30.000,353.832,-76.748,25319.463479
1 Jan 2020 02:28:00.000,355.885,-76.838,25242.686577
1 Jan 2020 02:28:30.000,357.977,-76.926,25170.700872
1 Jan 2020 02:29:00.000,0.109,-77.011,25103.648524
1 Jan 2020 02:29:30.000,2.278,-77.091,25041.665669
1 Jan 2020 02:30:00.000,4.484,-77.167,24984.881900
1 Jan 2020 02:30:30.000,6.724,-77.237,24933.420020
1 Jan 2020 02:31:00.000,8.997,-77.301,24887.395265
1 Jan 2020 02:31:30.000,11.300,-77.359,24846.915109
1 Jan 2020 02:32:00.000,13.629,-77.409,24812.078789
1 Jan 2020 02:32:30.000,15.982,-77.451,24782.976930
1 Jan 2020 02:33:00.000,18.354,-77.486,24759.691185
1 Jan 2020 02:33:30.000,20.742,-77.512,24742.293909
1 Jan 2020 02:34:00.000,23.141,-77.529,24730.847858
1 Jan 2020 02:34:30.000,25.546,-77.537,24725.405950
1 Jan 2020 02:35:00.000,27.953,-77.536,24726.011042
1 Jan 2020 02:35:30.000,30.357,-77.526,24732.695754
1 Jan 2020 02:36:00.000,32.752,-77.507,24745.482407
1 Jan 2020 02:36:30.000,35.134,-77.478,24764.382661
1 Jan 2020 02:37:00.000,37.499,-77.441,24789.397862
1 Jan 2020 02:37:30.000,39.842,-77.396,24820.518796
1 Jan 2020 02:38:00.000,42.158,-77.342,24857.725788
1 Jan 2020 02:38:30.000,44.445,-77.281,24900.988793
1 Jan 2020 02:39:00.000,46.697,-77.213,24950.267665
1 Jan 2020 02:39:30.000,48.913,-77.138,25005.511793
1 Jan 2020 02:40:00.000,51.089,-77.057,25066.661103
1 Jan 2020 02:40:30.000,53.224,-76.971,25133.645793
1 Jan 2020 02:41:00.000,55.314,-76.881,25206.386742
1 Jan 2020 02:41:30.000,57.359,-76.786,25284.795827
1 Jan 2020 02:42:00.000,59.358,-76.689,25368.776455
1 Jan 2020 02:42:30.000,61.309,-76.589,25458.223198
1 Jan 2020 02:43:00.000,63.213,-76.488,25553.023270
1 Jan 2020 02:43:30.000,65.069,-76.386,25653.056228
1 Jan 2020 02:44:00.000,66.877,-76.284,25758.194569
1 Jan 2020 02:44:30.000,68.638,-76.182,25868.304169
1 Jan 2020 02:45:00.000,70.353,-76.082,25983.244731
1 Jan 2020 02:45:30.000,72.021,-75.983,26102.870475
1 Jan 2020 02:46:00.000,73.645,-75.887,26227.029630
1 Jan 2020 02:46:30.000,75.225,-75.794,26355.566320
1 Jan 2020 02:47:00.000,76.762,-75.705,26488.320061
1 Jan 2020 02:47:30.000,78.258,-75.620,26625.126443
1 Jan 2020 02:48:00.000,79.713,-75.539,26765.817560
1 Jan 2020 02:48:30.000,81.130,-75.464,26910.222436
1 Jan 2020 02:49:00.000,82.510,-75.394,27058.167438
1 Jan 2020 02:49:30.000,83.854,-75.330,27209.476670
1 Jan 2020 02:50:00.000,85.163,-75.272,27363.972640
1 Jan 2020 02:50:30.000,86.439,-75.220,27521.475518
1 Jan 2020 02:51:00.000,87.684,-75.176,27681.805141
1 Jan 2020 02:51:30.000,88.899,-75.139,27844.780253
1 Jan 2020 02:52:00.000,90.085,-75.109,28010.219089
1 Jan 2020 02:52:30.000,91.244,-75.086,28177.939680
1 Jan 2020 02:53:00.000,92.376,-75.071,28347.760132
1 Jan 2020 02:53:30.000,93.484,-75.064,28519.498892
1 Jan 2020 02:53:43.071,93.960,-75.063,28594.877495
1 Jan 2020 03:57:14.388,285.078,-75.072,28599.431958
1 Jan 2020 03:57:44.000,285.316,-75.078,28381.629833
1 Jan 2020 03:58:14.000,285.548,-75.097,28160.964119
1 Jan 2020 03:58:44.000,285.774,-75.130,27940.486037
1 Jan 2020 03:59:14.000,285.992,-75.176,27720.401669
1 Jan 2020 03:59:44.000,286.204,-75.237,27500.921880
1 Jan 2020 04:00:14.000,286.409,-75.312,27282.262272
1 Jan 2020 04:00:44.000,286.608,-75.402,27064.643136
1 Jan 2020 04:01:14.000,286.801,-75.506,26848.289364
1 Jan 2020 04:01:44.000,286.988,-75.626,26633.430361
1 Jan 2020 04:02:14.000,287.170,-75.762,26420.299911
1 Jan 2020 04:02:44.000,287.346,-75.913,26209.136027
1 Jan 2020 04:03:14.000,287.518,-76.080,26000.180771
1 Jan 2020 04:03:44.000,287.685,-76.264,25793.680030
1 Jan 2020 04:04:14.000,287.847,-76.464,25589.883275
1 Jan 2020 04:04:44.000,288.005,-76.680,25389.043262
1 Jan 2020 04:05:14.000,288.159,-76.914,25191.415706
1 Jan 2020 04:05:44.000,288.309,-77.164,24997.258570
1 Jan 2020 04:06:14.000,288.456,-77.431,24806.832998
1 Jan 2020 04:06:44.000,288.600,-77.716,24620.400810
1 Jan 2020 04:07:14.000,288.741,-78.017,24438.225349
1 Jan 2020 04:07:44.000,288.879,-78.336,24260.570574
1 Jan 2020 04:08:14.000,289.016,-78.671,24087.700441
1 Jan 2020 04:08:44.000,289.151,-79.023,23919.878231
1 Jan 2020 04:09:14.000,289.285,-79.392,23757.365531
1 Jan 2020 04:09:44.000,289.419,-79.778,23600.422666
1 Jan 2020 04:10:14.000,289.553,-80.179,23449.306055
1 Jan 2020 04:10:44.000,289.688,-80.597,23304.268572
1 Jan 2020 04:11:14.000,289.826,-81.030,23165.558322
1 Jan 2020 04:11:44.000,289.968,-81.478,23033.417483
1 Jan 2020 04:12:14.000,290.115,-81.941,22908.082219
1 Jan 2020 04:12:44.000,290.269,-82.417,22789.780317
1 Jan 2020 04:13:14.000,290.434,-82.907,22678.731088
1 Jan 2020 04:13:44.000,290.613,-83.410,22575.144113
1 Jan 2020 04:14:14.000,290.812,-83.925,22479.218025
1 Jan 2020 04:14:44.000,291.036,-84.451,22391.140264
1 Jan 2020 04:15:14.000,291.298,-84.988,22311.084926
1 Jan 2020 04:15:44.000,291.612,-85.533,22239.212600
1 Jan 2020 04:16:14.000,292.004,-86.087,22175.669159
1 Jan 2020 04:16:44.000,292.515,-86.649,22120.585350
1 Jan 2020 04:17:14.000,293.223,-87.217,22074.075343
1 Jan 2020 04:17:44.000,294.286,-87.789,22036.236507
1 Jan 2020 04:18:14.000,296.086,-88.365,22007.148640
1 Jan 2020 04:18:44.000,299.833,-88.940,21986.873669
1 Jan 2020 04:19:14.000,312.236,-89.503,21975.454934
1 Jan 2020 04:19:44.000,52.547,-89.769,21972.917146
1 Jan 2020 04:20:14.000,94.115,-89.263,21979.266184
1 Jan 2020 04:20:44.000,100.840,-88.691,21994.488991
1 Jan 2020 04:21:14.000,103.452,-88.115,22018.553736
1 Jan 2020 04:21:44.000,104.829,-87.540,22051.409985
1 Jan 2020 04:22:14.000,105.673,-86.969,22092.989116
1 Jan 2020 04:22:44.000,106.239,-86.404,22143.204421
1 Jan 2020 04:23:14.000,106.639,-85.846,22201.952119
1 Jan 2020 04:23:44.000,106.933,-85.295,22269.111698
1 Jan 2020 04:24:14.000,107.154,-84.753,22344.546850
1 Jan 2020 04:24:44.000,107.322,-84.221,22428.105722
1 Jan 2020 04:25:14.000,107.451,-83.699,22519.622597
1 Jan 2020 04:25:44.000,107.548,-83.189,22618.918286
1 Jan 2020 04:26:14.000,107.620,-82.691,22725.801409
1 Jan 2020 04:26:44.000,107.672,-82.207,22840.068683
1 Jan 2020 04:27:14.000,107.706,-81.736,22961.506981
1 Jan 2020 04:27:44.000,107.725,-81.279,23089.893674
1 Jan 2020 04:28:14.000,107.732,-80.837,23224.997825
1 Jan 2020 04:28:44.000,107.726,-80.410,23366.581454
1 Jan 2020 04:29:14.000,107.710,-79.999,23514.399523
1 Jan 2020 04:29:44.000,107.684,-79.604,23668.202395
1 Jan 2020 04:30:14.000,107.649,-79.226,23827.735786
1 Jan 2020 04:30:44.000,107.606,-78.864,23992.741892
1 Jan 2020 04:31:14.000,107.554,-78.518,24162.960246
1 Jan 2020 04:31:44.000,107.495,-78.190,24338.128807
1 Jan 2020 04:32:14.000,107.428,-77.879,24517.983547
1 Jan 2020 04:32:44.000,107.355,-77.584,24702.260896
1 Jan 2020 04:33:14.000,107.274,-77.307,24890.697232
1 Jan 2020 04:33:44.000,107.186,-77.047,25083.029772
1 Jan 2020 04:34:14.000,107.092,-76.804,25278.997112
1 Jan 2020 04:34:44.000,106.990,-76.578,25478.339730
1 Jan 2020 04:35:14.000,106.882,-76.368,25680.800427
1 Jan 2020 04:35:44.000,106.768,-76.175,25886.124733
1 Jan 2020 04:36:14.000,106.646,-75.999,26094.061258
1 Jan 2020 04:36:44.000,106.518,-75.838,26304.362353
1 Jan 2020 04:37:14.000,106.383,-75.694,26516.783019
1 Jan 2020 04:37:44.000,106.241,-75.565,26731.083181
1 Jan 2020 04:38:14.000,106.092,-75.452,26947.026535
1 Jan 2020 04:38:44.000,105.936,-75.354,27164.381061
1 Jan 2020 04:39:14.000,105.773,-75.271,27382.919158
1 Jan 2020 04:39:44.000,105.603,-75.202,27602.417766
1 Jan 2020 04:40:14.000,105.424,-75.148,27822.658448
1 Jan 2020 04:40:44.000,105.239,-75.108,28043.427463
1 Jan 2020 04:41:14.000,105.045,-75.081,28264.515817
1 Jan 2020 04:41:44.000,104.843,-75.068,28485.719289
1 Jan 2020 04:41:59.704,104.734,-75.066,28601.489030
1 Jan 2020 05:45:27.418,274.217,-75.076,28606.672646
1 Jan 2020 05:45:57.000,273.162,-75.079,28433.666040
1 Jan 2020 05:46:27.000,272.068,-75.091,28259.980692
1 Jan 2020 05:46:57.000,270.948,-75.111,28088.256712
1 Jan 2020 05:47:27.000,269.802,-75.139,27918.678572
1 Jan 2020 05:47:57.000,268.627,-75.175,27751.431140
1 Jan 2020 05:48:27.000,267.423,-75.217,27586.699408
1 Jan 2020 05:48:57.000,266.187,-75.268,27424.668205
1 Jan 2020 05:49:27.000,264.919,-75.325,27265.521891
1 Jan 2020 05:49:57.000,263.616,-75.389,27109.444027
1 Jan 2020 05:50:27.000,262.278,-75.459,26956.617038
1 Jan 2020 05:50:57.000,260.902,-75.535,26807.221848
1 Jan 2020 05:51:27.000,259.488,-75.617,26661.437221
1 Jan 2020 05:51:57.000,258.033,-75.705,26519.440488
1 Jan 2020 05:52:27.000,256.536,-75.797,26381.405447
1 Jan 2020 05:52:57.000,254.996,-75.893,26247.503070
1 Jan 2020 05:53:27.000,253.411,-75.993,26117.900778
1 Jan 2020 05:53:57.000,251.781,-76.096,25992.761996
1 Jan 2020 05:54:27.000,250.103,-76.201,25872.245694
1 Jan 2020 05:54:57.000,248.376,-76.309,25756.505699
1 Jan 2020 05:55:27.000,246.601,-76.417,25645.691129
1 Jan 2020 05:55:57.000,244.776,-76.526,25539.944563
1 Jan 2020 05:56:27.000,242.900,-76.635,25439.402486
1 Jan 2020 05:56:57.000,240.974,-76.743,25344.194601
1 Jan 2020 05:57:27.000,238.997,-76.849,25254.443375
1 Jan 2020 05:57:57.000,236.970,-76.952,25170.263420
1 Jan 2020 05:58:27.000,234.894,-77.051,25091.761785
1 Jan 2020 05:58:57.000,232.769,-77.147,25019.036461
1 Jan 2020 05:59:27.000,230.598,-77.238,24952.176738
1 Jan 2020 05:59:57.000,228.383,-77.323,24891.262657
1 Jan 2020 06:00:27.000,226.125,-77.401,24836.364572
1 Jan 2020 06:00:57.000,223.829,-77.472,24787.543330
1 Jan 2020 06:01:27.000,221.496,-77.536,24744.849288
1 Jan 2020 06:01:57.000,219.133,-77.592,24708.322595
1 Jan 2020 06:02:27.000,216.741,-77.638,24677.992881
1 Jan 2020 06:02:57.000,214.327,-77.676,24653.879063
1 Jan 2020 06:03:27.000,211.894,-77.704,24635.989544
1 Jan 2020 06:03:57.000,209.449,-77.722,24624.321721
1 Jan 2020 06:04:27.000,206.996,-77.731,24618.862303
1 Jan 2020 06:04:57.000,204.541,-77.730,24619.587280
1 Jan 2020 06:05:27.000,202.089,-77.719,24626.462001
1 Jan 2020 06:05:57.000,199.645,-77.698,24639.441414
1 Jan 2020 06:06:27.000,197.214,-77.668,24658.470096
1 Jan 2020 06:06:57.000,194.801,-77.629,24683.482601
1 Jan 2020 06:07:27.000,192.411,-77.581,24714.403693
1 Jan 2020 06:07:57.000,190.046,-77.525,24751.148660
1 Jan 2020 06:08:27.000,187.712,-77.462,24793.623700
1 Jan 2020 06:08:57.000,185.411,-77.391,24841.726129
1 Jan 2020 06:09:27.000,183.146,-77.315,24895.345013
1 Jan 2020 06:09:57.000,180.918,-77.232,24954.361454
1 Jan 2020 06:10:27.000,178.731,-77.145,25018.649069
1 Jan 2020 06:10:57.000,176.584,-77.053,25088.074454
1 Jan 2020 06:11:27.000,174.480,-76.958,25162.497753
1 Jan 2020 06:11:57.000,172.418,-76.861,25241.772791
1 Jan 2020 06:12:27.000,170.399,-76.761,25325.748084
1 Jan 2020 06:12:57.000,168.423,-76.660,25414.266997
1 Jan 2020 06:13:27.000,166.489,-76.558,25507.168326
1 Jan 2020 06:13:57.000,164.597,-76.456,25604.286781
1 Jan 2020 06:14:27.000,162.745,-76.354,25705.453476
1 Jan 2020 06:14:57.000,160.933,-76.254,25810.496406
1 Jan 2020 06:15:27.000,159.159,-76.155,25919.241059
1 Jan 2020 06:15:57.000,157.422,-76.059,26031.510259
1 Jan 2020 06:16:27.000,155.721,-75.965,26147.125512
1 Jan 2020 06:16:57.000,154.055,-75.875,26265.906823
1 Jan 2020 06:17:27.000,152.421,-75.788,26387.673246
1 Jan 2020 06:17:57.000,150.818,-75.704,26512.243269
1 Jan 2020 06:18:27.000,149.244,-75.625,26639.435176
1 Jan 2020 06:18:57.000,147.699,-75.551,26769.067392
1 Jan 2020 06:19:27.000,146.179,-75.481,26900.958804
1 Jan 2020 06:19:57.000,144.685,-75.417,27034.929068
1 Jan 2020 06:20:27.000,143.213,-75.357,27170.798894
1 Jan 2020 06:20:57.000,141.763,-75.303,27308.390306
1 Jan 2020 06:21:27.000,140.333,-75.254,27447.526887
1 Jan 2020 06:21:57.000,138.921,-75.211,27588.034008
1 Jan 2020 06:22:27.000,137.527,-75.174,27729.739034
1 Jan 2020 06:22:57.000,136.148,-75.142,27872.471513
1 Jan 2020 06:23:27.000,134.783,-75.116,28016.063555
1 Jan 2020 06:23:57.000,133.430,-75.096,28160.349165
1 Jan 2020 06:24:27.000,132.090,-75.081,28305.165619
1 Jan 2020 06:24:57.000,130.759,-75.072,28450.352768
1 Jan 2020 06:25:27.000,129.437,-75.069,28595.753358
1 Jan 2020 06:25:29.494,129.328,-75.069,28607.846841
1 Jan 2020 08:47:19.192,28.825,-75.075,28611.004496
1 Jan 2020 08:47:49.000,27.294,-75.077,28506.320113
1 Jan 2020 08:48:19.000,25.745,-75.081,28401.768708
1 Jan 2020 08:48:49.000,24.185,-75.089,28298.165695
1 Jan 2020 08:49:19.000,22.614,-75.099,28195.650912
1 Jan 2020 08:49:49.000,21.031,-75.112,28094.365208
1 Jan 2020 08:50:19.000,19.436,-75.127,27994.450253
1 Jan 2020 08:50:49.000,17.827,-75.145,27896.048348
1 Jan 2020 08:51:19.000,16.204,-75.166,27799.302206
1 Jan 2020 08:51:49.000,14.567,-75.188,27704.354736
1 Jan 2020 08:52:19.000,12.914,-75.213,27611.348813
1 Jan 2020 08:52:49.000,11.246,-75.240,27520.427033
1 Jan 2020 08:53:19.000,9.562,-75.268,27431.731459
1 Jan 2020 08:53:49.000,7.860,-75.299,27345.403362
1 Jan 2020 08:54:19.000,6.142,-75.330,27261.582943
1 Jan 2020 08:54:49.000,4.406,-75.363,27180.409055
1 Jan 2020 08:55:19.000,2.653,-75.396,27102.018911
1 Jan 2020 08:55:49.000,0.882,-75.430,27026.547703
1 Jan 2020 08:56:19.000,359.093,-75.465,26954.128634
1 Jan 2020 08:56:49.000,357.286,-75.500,26884.892096
1 Jan 2020 08:57:19.000,355.461,-75.534,26818.965702
1 Jan 2020 08:57:49.000,353.618,-75.569,26756.473878
1 Jan 2020 08:58:19.000,351.759,-75.602,26697.537547
1 Jan 2020 08:58:49.000,349.883,-75.635,26642.273807
1 Jan 2020 08:59:19.000,347.990,-75.666,26590.795612
1 Jan 2020 08:59:49.000,346.082,-75.696,26543.211460
1 Jan 2020 09:00:19.000,344.159,-75.724,26499.625052
1 Jan 2020 09:00:49.000,342.223,-75.750,26460.135109
1 Jan 2020 09:01:19.000,340.274,-75.774,26424.834884
1 Jan 2020 09:01:49.000,338.314,-75.795,26393.812014
1 Jan 2020 09:02:19.000,336.344,-75.814,26367.148212
1 Jan 2020 09:02:49.000,334.365,-75.829,26344.919004
1 Jan 2020 09:03:19.000,332.379,-75.842,26327.193490
1 Jan 2020 09:03:49.000,330.387,-75.852,26314.034137
1 Jan 2020 09:04:19.000,328.392,-75.858,26305.496498
1 Jan 2020 09:04:49.000,326.395,-75.861,26301.629125
1 Jan 2020 09:05:19.000,324.397,-75.860,26302.473350
1 Jan 2020 09:05:49.000,322.401,-75.856,26308.063150
1 Jan 2020 09:06:19.000,320.409,-75.849,26318.425036
1 Jan 2020 09:06:49.000,318.421,-75.838,26333.577954
1 Jan 2020 09:07:19.000,316.441,-75.824,26353.533303
1 Jan 2020 09:07:49.000,314.470,-75.806,26378.294591
1 Jan 2020 09:08:19.000,312.510,-75.786,26407.857858
1 Jan 2020 09:08:49.000,310.562,-75.763,26442.211404
1 Jan 2020 09:09:19.000,308.628,-75.737,26481.335898
1 Jan 2020 09:09:49.000,306.709,-75.708,26525.204441
1 Jan 2020 09:10:19.000,304.808,-75.678,26573.782653
1 Jan 2020 09:10:49.000,302.925,-75.645,26627.028917
1 Jan 2020 09:11:19.000,301.061,-75.611,26684.894007
1 Jan 2020 09:11:49.000,299.217,-75.575,26747.321996
1 Jan 2020 09:12:19.000,297.395,-75.538,26814.249940
1 Jan 2020 09:12:49.000,295.596,-75.501,26885.608201
1 Jan 2020 09:13:19.000,293.819,-75.463,26961.320657
1 Jan 2020 09:13:49.000,292.066,-75.425,27041.304942
1 Jan 2020 09:14:19.000,290.337,-75.388,27125.472683
1 Jan 2020 09:14:49.000,288.632,-75.351,27213.729948
1 Jan 2020 09:15:19.000,286.952,-75.315,27305.976783
1 Jan 2020 09:15:49.000,285.297,-75.281,27402.108577
1 Jan 2020 09:16:19.000,283.666,-75.248,27502.015627
1 Jan 2020 09:16:49.000,282.060,-75.217,27605.583609
1 Jan 2020 09:17:19.000,280.478,-75.189,27712.693873
1 Jan 2020 09:17:49.000,278.920,-75.163,27823.223737
1 Jan 2020 09:18:19.000,277.386,-75.140,27937.046786
1 Jan 2020 09:18:49.000,275.875,-75.120,28054.033167
1 Jan 2020 09:19:19.000,274.388,-75.104,28174.049886
1 Jan 2020 09:19:49.000,272.922,-75.092,28296.961319
1 Jan 2020 09:20:19.000,271.479,-75.083,28422.628613
1 Jan 2020 09:20:49.000,270.056,-75.079,28550.911290
1 Jan 2020 09:21:02.765,269.410,-75.078,28610.609049
1 Jan 2020 10:25:44.541,69.770,-75.070,28606.739099
1 Jan 2020 10:26:14.000,69.127,-75.076,28404.021730
1 Jan 2020 10:26:44.000,68.471,-75.093,28197.426802
1 Jan 2020 10:27:14.000,67.815,-75.122,27990.861364
1 Jan 2020 10:27:44.000,67.156,-75.162,27784.520087
1 Jan 2020 10:28:14.000,66.494,-75.216,27578.602291
1 Jan 2020 10:28:44.000,65.827,-75.281,27373.311901
1 Jan 2020 10:29:14.000,65.154,-75.360,27168.857395
1 Jan 2020 10:29:44.000,64.473,-75.451,26965.451732
1 Jan 2020 10:30:14.000,63.783,-75.556,26763.312255
1 Jan 2020 10:30:44.000,63.083,-75.674,26562.660578
1 Jan 2020 10:31:14.000,62.369,-75.806,26363.722441
1 Jan 2020 10:31:44.000,61.641,-75.952,26166.727545
1 Jan 2020 10:32:14.000,60.896,-76.111,25971.909354
1 Jan 2020 10:32:44.000,60.132,-76.285,25779.504860
1 Jan 2020 10:33:14.000,59.346,-76.472,25589.754325
1 Jan 2020 10:33:44.000,58.536,-76.674,25402.900978
1 Jan 2020 10:34:14.000,57.697,-76.890,25219.190678
1 Jan 2020 10:34:44.000,56.827,-77.119,25038.871235
1 Jan 2020 10:35:14.000,55.922,-77.363,24862.193185
1 Jan 2020 10:35:44.000,54.976,-77.620,24689.407526
1 Jan 2020 10:36:14.000,53.986,-77.891,24520.766409
1 Jan 2020 10:36:44.000,52.945,-78.175,24356.522283
1 Jan 2020 10:37:14.000,51.846,-78.472,24196.927291
1 Jan 2020 10:37:44.000,50.683,-78.780,24042.232621
1 Jan 2020 10:38:14.000,49.446,-79.101,23892.687560
1 Jan 2020 10:38:44.000,48.127,-79.432,23748.539772
1 Jan 2020 10:39:14.000,46.712,-79.774,23610.032980
1 Jan 2020 10:39:44.000,45.190,-80.124,23477.407185
1 Jan 2020 10:40:14.000,43.546,-80.482,23350.897544
1 Jan 2020 10:40:44.000,41.761,-80.847,23230.733315
1 Jan 2020 10:41:14.000,39.816,-81.216,23117.137674
1 Jan 2020 10:41:44.000,37.687,-81.589,23010.325677
1 Jan 2020 10:42:14.000,35.347,-81.962,22910.504077
1 Jan 2020 10:42:44.000,32.765,-82.333,22817.870192
1 Jan 2020 10:43:14.000,29.907,-82.699,22732.610834
1 Jan 2020 10:43:44.000,26.735,-83.056,22654.901962
1 Jan 2020 10:44:14.000,23.207,-83.401,22584.906914
1 Jan 2020 10:44:44.000,19.283,-83.727,22522.776144
1 Jan 2020 10:45:14.000,14.926,-84.031,22468.646201
1 Jan 2020 10:45:44.000,10.108,-84.304,22422.639256
1 Jan 2020 10:46:14.000,4.822,-84.542,22384.861962
1 Jan 2020 10:46:44.000,359.085,-84.735,22355.405164
1 Jan 2020 10:47:14.000,352.955,-84.880,22334.343266
1 Jan 2020 10:47:44.000,346.531,-84.968,22321.733870
1 Jan 2020 10:48:14.000,339.951,-84.998,22317.617309
1 Jan 2020 10:48:44.000,333.373,-84.966,22322.016507
1 Jan 2020 10:49:14.000,326.957,-84.876,22334.936867
1 Jan 2020 10:49:44.000,320.841,-84.730,22356.366076
1 Jan 2020 10:50:14.000,315.125,-84.534,22386.274426
1 Jan 2020 10:50:44.000,309.865,-84.294,22424.614859
1 Jan 2020 10:51:14.000,305.083,-84.017,22471.323406
1 Jan 2020 10:51:44.000,300.769,-83.710,22526.319162
1 Jan 2020 10:52:14.000,296.897,-83.379,22589.505373
1 Jan 2020 10:52:44.000,293.430,-83.030,22660.769622
1 Jan 2020 10:53:14.000,290.326,-82.668,22739.984731
1 Jan 2020 10:53:44.000,287.545,-82.297,22827.008866
1 Jan 2020 10:54:14.000,285.050,-81.921,22921.687214
1 Jan 2020 10:54:44.000,282.804,-81.542,23023.852220
1 Jan 2020 10:55:14.000,280.779,-81.165,23133.324603
1 Jan 2020 10:55:44.000,278.945,-80.789,23249.914493
1 Jan 2020 10:56:14.000,277.282,-80.419,23373.421374
1 Jan 2020 10:56:44.000,275.767,-80.055,23503.636443
1 Jan 2020 10:57:14.000,274.383,-79.700,23640.342592
1 Jan 2020 10:57:44.000,273.116,-79.353,23783.315553
1 Jan 2020 10:58:14.000,271.952,-79.017,23932.325061
1 Jan 2020 10:58:44.000,270.881,-78.691,24087.134700
1 Jan 2020 10:59:14.000,269.892,-78.378,24247.504289
1 Jan 2020 10:59:44.000,268.977,-78.078,24413.189682
1 Jan 2020 11:00:14.000,268.128,-77.791,24583.943805
1 Jan 2020 11:00:44.000,267.341,-77.517,24759.517399
1 Jan 2020 11:01:14.000,266.607,-77.257,24939.659711
1 Jan 2020 11:01:44.000,265.924,-77.012,25124.119488
1 Jan 2020 11:02:14.000,265.286,-76.781,25312.644266
1 Jan 2020 11:02:44.000,264.690,-76.565,25504.982899
1 Jan 2020 11:03:14.000,264.132,-76.364,25700.884781
1 Jan 2020 11:03:44.000,263.609,-76.178,25900.100639
1 Jan 2020 11:04:14.000,263.119,-76.006,26102.382970
1 Jan 2020 11:04:44.000,262.659,-75.850,26307.486427
1 Jan 2020 11:05:14.000,262.228,-75.708,26515.168175
1 Jan 2020 11:05:44.000,261.822,-75.581,26725.188195
1 Jan 2020 11:06:14.000,261.442,-75.469,26937.309569
1 Jan 2020 11:06:44.000,261.084,-75.371,27151.298713
1 Jan 2020 11:07:14.000,260.748,-75.288,27366.925593
1 Jan 2020 11:07:44.000,260.432,-75.219,27583.963903
1 Jan 2020 11:08:14.000,260.136,-75.163,27802.191220
1 Jan 2020 11:08:44.000,259.858,-75.122,28021.389129
1 Jan 2020 11:09:14.000,259.597,-75.093,28241.343330
1 Jan 2020 11:09:44.000,259.354,-75.078,28461.843722
1 Jan 2020 11:10:03.435,259.204,-75.076,28604.887653
1 Jan 2020 12:13:04.250,82.680,-75.066,28599.648964
1 Jan 2020 12:13:34.000,83.355,-75.072,28396.488860
1 Jan 2020 12:14:04.000,84.059,-75.088,28192.666487
1 Jan 2020 12:14:34.000,84.785,-75.116,27990.094019
1 Jan 2020 12:15:04.000,85.537,-75.156,27788.976842
1 Jan 2020 12:15:34.000,86.316,-75.206,27589.522996
1 Jan 2020 12:16:04.000,87.123,-75.268,27391.943002
1 Jan 2020 12:16:34.000,87.960,-75.341,27196.449647
1 Jan 2020 12:17:04.000,88.830,-75.426,27003.257758
1 Jan 2020 12:17:34.000,89.734,-75.521,26812.583944
1 Jan 2020 12:18:04.000,90.674,-75.628,26624.646311
1 Jan 2020 12:18:34.000,91.653,-75.745,26439.664152
1 Jan 2020 12:19:04.000,92.674,-75.873,26257.857606
1 Jan 2020 12:19:34.000,93.739,-76.011,26079.446979
1 Jan 2020 12:20:04.000,94.851,-76.160,25904.653575
1 Jan 2020 12:20:34.000,96.014,-76.318,25733.697406
1 Jan 2020 12:21:04.000,97.230,-76.485,25566.797971
1 Jan 2020 12:21:34.000,98.503,-76.661,25404.173449
1 Jan 2020 12:22:04.000,99.837,-76.845,25246.040174
1 Jan 2020 12:22:34.000,101.237,-77.036,25092.612079
1 Jan 2020 12:23:04.000,102.705,-77.234,24944.099835
1 Jan 2020 12:23:34.000,104.248,-77.438,24800.711364
1 Jan 2020 12:24:04.000,105.869,-77.647,24662.649516
1 Jan 2020 12:24:34.000,107.573,-77.860,24530.112545
1 Jan 2020 12:25:04.000,109.365,-78.076,24403.293164
1 Jan 2020 12:25:34.000,111.249,-78.293,24282.377853
1 Jan 2020 12:26:04.000,113.232,-78.511,24167.545934
1 Jan 2020 12:26:34.000,115.317,-78.728,24058.969844
1 Jan 2020 12:27:04.000,117.509,-78.942,23956.812973
1 Jan 2020 12:27:34.000,119.811,-79.152,23861.229968
1 Jan 2020 12:28:04.000,122.227,-79.356,23772.365816
1 Jan 2020 12:28:34.000,124.759,-79.552,23690.355020
1 Jan 2020 12:29:04.000,127.408,-79.739,23615.321678
1 Jan 2020 12:29:34.000,130.172,-79.915,23547.377828
1 Jan 2020 12:30:04.000,133.050,-80.077,23486.623620
1 Jan 2020 12:30:34.000,136.036,-80.224,23433.146637
1 Jan 2020 12:31:04.000,139.124,-80.355,23387.021324
1 Jan 2020 12:31:34.000,142.304,-80.467,23348.309082
1 Jan 2020 12:32:04.000,145.565,-80.559,23317.057202
1 Jan 2020 12:32:34.000,148.892,-80.630,23293.299109
1 Jan 2020 12:33:04.000,152.268,-80.680,23277.054002
1 Jan 2020 12:33:34.000,155.677,-80.706,23268.326937
1 Jan 2020 12:34:04.000,159.098,-80.710,23267.108472
1 Jan 2020 12:34:34.000,162.514,-80.691,23273.374927
1 Jan 2020 12:35:04.000,165.904,-80.650,23287.088441
1 Jan 2020 12:35:34.000,169.252,-80.586,23308.197168
1 Jan 2020 12:36:04.000,172.541,-80.502,23336.635506
1 Jan 2020 12:36:34.000,175.757,-80.398,23372.324459
1 Jan 2020 12:37:04.000,178.888,-80.276,23415.172021
1 Jan 2020 12:37:34.000,181.925,-80.137,23465.073697
1 Jan 2020 12:38:04.000,184.861,-79.984,23521.912756
1 Jan 2020 12:38:34.000,187.691,-79.817,23585.561158
1 Jan 2020 12:39:04.000,190.413,-79.640,23655.879922
1 Jan 2020 12:39:34.000,193.027,-79.452,23732.719819
1 Jan 2020 12:40:04.000,195.532,-79.258,23815.922161
1 Jan 2020 12:40:34.000,197.933,-79.057,23905.319018
1 Jan 2020 12:41:04.000,200.231,-78.852,24000.734617
1 Jan 2020 12:41:34.000,202.430,-78.644,24101.985603
1 Jan 2020 12:42:04.000,204.536,-78.435,24208.881874
1 Jan 2020 12:42:34.000,206.552,-78.226,24321.227295
1 Jan 2020 12:43:04.000,208.484,-78.018,24438.820589
1 Jan 2020 12:43:34.000,210.337,-77.812,24561.455313
1 Jan 2020 12:44:04.000,212.115,-77.610,24688.921607
1 Jan 2020 12:44:34.000,213.824,-77.412,24821.006150
1 Jan 2020 12:45:04.000,215.469,-77.220,24957.492967
1 Jan 2020 12:45:34.000,217.052,-77.033,25098.164041
1 Jan 2020 12:46:04.000,218.581,-76.853,25242.799889
1 Jan 2020 12:46:34.000,220.057,-76.679,25391.180117
1 Jan 2020 12:47:04.000,221.485,-76.514,25543.084169
1 Jan 2020 12:47:34.000,222.870,-76.356,25698.290877
1 Jan 2020 12:48:04.000,224.214,-76.207,25856.580310
1 Jan 2020 12:48:34.000,225.520,-76.067,26017.733273
1 Jan 2020 12:49:04.000,226.792,-75.935,26181.531919
1 Jan 2020 12:49:34.000,228.033,-75.813,26347.760109
1 Jan 2020 12:50:04.000,229.246,-75.700,26516.203737
1 Jan 2020 12:50:34.000,230.432,-75.596,26686.651022
1 Jan 2020 12:51:04.000,231.595,-75.502,26858.892778
1 Jan 2020 12:51:34.000,232.736,-75.417,27032.722653
1 Jan 2020 12:52:04.000,233.858,-75.342,27207.937338
1 Jan 2020 12:52:34.000,234.963,-75.276,27384.336761
1 Jan 2020 12:53:04.000,236.053,-75.220,27561.724249
1 Jan 2020 12:53:34.000,237.129,-75.173,27739.906671
1 Jan 2020 12:54:04.000,238.194,-75.135,27918.694568
1 Jan 2020 12:54:34.000,239.248,-75.106,28097.902250
1 Jan 2020 12:55:04.000,240.294,-75.086,28277.347889
1 Jan 2020 12:55:34.000,241.333,-75.075,28456.853594
1 Jan 2020 12:55:57.593,242.147,-75.072,28597.953463
1 Jan 2020 14:03:13.873,94.847,-75.063,28593.709928
1 Jan 2020 14:03:43.000,96.442,-75.064,28524.843613
1 Jan 2020 14:04:13.000,98.097,-75.066,28456.976547
1 Jan 2020 14:04:43.000,99.764,-75.069,28392.292860
1 Jan 2020 14:05:13.000,101.442,-75.073,28330.862404
1 Jan 2020 14:05:43.000,103.133,-75.077,28272.750361
1 Jan 2020 14:06:13.000,104.834,-75.083,28218.017089
1 Jan 2020 14:06:43.000,106.546,-75.088,28166.717965
1 Jan 2020 14:07:13.000,108.269,-75.094,28118.903250
1 Jan 2020 14:07:43.000,110.001,-75.100,28074.617958
1 Jan 2020 14:08:13.000,111.742,-75.106,28033.901651
1 Jan 2020 14:08:43.000,113.491,-75.112,27996.788699
1 Jan 2020 14:09:13.000,115.249,-75.118,27963.307641
1 Jan 2020 14:09:43.000,117.014,-75.123,27933.481483
1 Jan 2020 14:10:13.000,118.785,-75.128,27907.327545
1 Jan 2020 14:10:43.000,120.562,-75.133,27884.857413
1 Jan 2020 14:11:13.000,122.344,-75.136,27866.076917
1 Jan 2020 14:11:43.000,124.130,-75.140,27850.986115
1 Jan 2020 14:12:13.000,125.919,-75.142,27839.579254
1 Jan 2020 14:12:43.000,127.711,-75.144,27831.844971
1 Jan 2020 14:13:13.000,129.505,-75.145,27827.766051
1 Jan 2020 14:13:43.000,131.299,-75.145,27827.319673
1 Jan 2020 14:14:13.000,133.094,-75.144,27830.477424
1 Jan 2020 14:14:43.000,134.888,-75.143,27837.205384
1 Jan 2020 14:15:13.000,136.680,-75.141,27847.464227
1 Jan 2020 14:15:43.000,138.471,-75.138,27861.209330
1 Jan 2020 14:16:13.000,140.258,-75.135,27878.390901
1 Jan 2020 14:16:43.000,142.042,-75.131,27898.954116
1 Jan 2020 14:17:13.000,143.822,-75.127,27922.839276
1 Jan 2020 14:17:43.000,145.597,-75.122,27949.981955
1 Jan 2020 14:18:13.000,147.367,-75.117,27980.313184
1 Jan 2020 14:18:43.000,149.131,-75.112,28013.759630
1 Jan 2020 14:19:13.000,150.888,-75.106,28050.243787
1 Jan 2020 14:19:43.000,152.639,-75.101,28089.684169
1 Jan 2020 14:20:13.000,154.383,-75.096,28131.995519
1 Jan 2020 14:20:43.000,156.119,-75.090,28177.089013
1 Jan 2020 14:21:13.000,157.848,-75.085,28224.872478
1 Jan 2020 14:21:43.000,159.569,-75.081,28275.250603
1 Jan 2020 14:22:13.000,161.282,-75.077,28328.125212
1 Jan 2020 14:22:43.000,162.987,-75.073,28383.395292
1 Jan 2020 14:23:13.000,164.684,-75.071,28440.957492
1 Jan 2020 14:23:43.000,166.372,-75.069,28500.706163
1 Jan 2020 14:24:13.000,168.053,-75.068,28562.533625
1 Jan 2020 14:24:27.794,168.878,-75.068,28593.755280
1 Jan 2020 15:25:44.337,8.625,-75.062,28592.432175
1 Jan 2020 15:26:14.000,10.277,-75.063,28527.955706
1 Jan 2020 15:26:44.000,11.955,-75.064,28464.683215
1 Jan 2020 15:27:14.000,13.642,-75.067,28403.469807
1 Jan 2020 15:27:44.000,15.337,-75.070,28344.424863
1 Jan 2020 15:28:14.000,17.040,-75.074,28287.655819
1 Jan 2020 15:28:44.000,18.752,-75.079,28233.267953
1 Jan 2020 15:29:14.000,20.473,-75.084,28181.364157
1 Jan 2020 15:29:44.000,22.201,-75.090,28132.044714
1 Jan 2020 15:30:14.000,23.937,-75.096,28085.407073
1 Jan 2020 15:30:44.000,25.682,-75.102,28041.545630
1 Jan 2020 15:31:14.000,27.433,-75.109,28000.551504
1 Jan 2020 15:31:44.000,29.192,-75.115,27962.512319
1 Jan 2020 15:32:14.000,30.957,-75.121,27927.511974
1 Jan 2020 15:32:44.000,32.729,-75.127,27895.630506
1 Jan 2020 15:33:14.000,34.507,-75.133,27866.943771
1 Jan 2020 15:33:44.000,36.289,-75.138,27841.523331
1 Jan 2020 15:34:14.000,38.076,-75.142,27819.436239
1 Jan 2020 15:34:44.000,39.868,-75.146,27800.744866
1 Jan 2020 15:35:14.000,41.662,-75.150,27785.506728
1 Jan 2020 15:35:44.000,43.459,-75.152,27773.774328
1 Jan 2020 15:36:14.000,45.258,-75.154,27765.595010
1 Jan 2020 15:36:44.000,47.058,-75.155,27761.010853
1 Jan 2020 15:37:14.000,48.858,-75.155,27760.058442
1 Jan 2020 15:37:44.000,50.657,-75.155,27762.768917
1 Jan 2020 15:38:14.000,52.455,-75.153,27769.167784
1 Jan 2020 15:38:44.000,54.251,-75.151,27779.274858
1 Jan 2020 15:39:14.000,56.044,-75.148,27793.104209
1 Jan 2020 15:39:44.000,57.832,-75.144,27810.664114
1 Jan 2020 15:40:14.000,59.616,-75.139,27831.957026
1 Jan 2020 15:40:44.000,61.395,-75.134,27856.979570
1 Jan 2020 15:41:14.000,63.167,-75.129,27885.722619
1 Jan 2020 15:41:44.000,64.932,-75.123,27918.171012
1 Jan 2020 15:42:14.000,66.689,-75.116,27954.304041
1 Jan 2020 15:42:44.000,68.438,-75.109,27994.095213
1 Jan 2020 15:43:14.000,70.177,-75.103,28037.512388
1 Jan 2020 15:43:44.000,71.907,-75.096,28084.517861
1 Jan 2020 15:44:14.000,73.626,-75.089,28135.068464
1 Jan 2020 15:44:44.000,75.335,-75.083,28189.115677
1 Jan 2020 15:45:14.000,77.032,-75.077,28246.605750
1 Jan 2020 15:45:44.000,78.718,-75.072,28307.479962
1 Jan 2020 15:46:14.000,80.391,-75.068,28371.674300
1 Jan 2020 15:46:44.000,82.052,-75.065,28439.120309
1 Jan 2020 15:47:14.000,83.701,-75.063,28509.744807
1 Jan 2020 15:47:44.000,85.337,-75.062,28583.470170
1 Jan 2020 15:47:47.615,85.533,-75.062,28592.560201
1 Jan 2020 16:54:51.558,297.413,-75.069,28595.501656
1 Jan 2020 16:55:21.000,298.412,-75.073,28417.934644
1 Jan 2020 16:55:51.000,299.435,-75.086,28236.913346
1 Jan 2020 16:56:21.000,300.465,-75.108,28055.977865
1 Jan 2020 16:56:51.000,301.504,-75.138,27875.307535
1 Jan 2020 16:57:21.000,302.553,-75.179,27695.085645
1 Jan 2020 16:57:51.000,303.614,-75.228,27515.499370
1 Jan 2020 16:58:21.000,304.688,-75.287,27336.739677
1 Jan 2020 16:58:51.000,305.777,-75.356,27159.001221
1 Jan 2020 16:59:21.000,306.884,-75.434,26982.482222
1 Jan 2020 16:59:51.000,308.010,-75.523,26807.384316
1 Jan 2020 17:00:21.000,309.158,-75.620,26633.912393
1 Jan 2020 17:00:51.000,310.330,-75.728,26462.274400
1 Jan 2020 17:01:21.000,311.528,-75.845,26292.681131
1 Jan 2020 17:01:51.000,312.754,-75.971,26125.345982
1 Jan 2020 17:02:21.000,314.013,-76.107,25960.484679
1 Jan 2020 17:02:51.000,315.306,-76.252,25798.314984
1 Jan 2020 17:03:21.000,316.637,-76.406,25639.056362
1 Jan 2020 17:03:51.000,318.010,-76.569,25482.929392
1 Jan 2020 17:04:21.000,319.427,-76.740,25330.156286
1 Jan 2020 17:04:51.000,320.893,-76.918,25180.959089
1 Jan 2020 17:05:21.000,322.412,-77.104,25035.560136
1 Jan 2020 17:05:51.000,323.988,-77.297,24894.181333
1 Jan 2020 17:06:21.000,325.626,-77.496,24757.043626
1 Jan 2020 17:06:51.000,327.330,-77.700,24624.366444
1 Jan 2020 17:07:21.000,329.106,-77.908,24496.366930
1 Jan 2020 17:07:51.000,330.959,-78.120,24373.260050
1 Jan 2020 17:08:21.000,332.893,-78.334,24255.256845
1 Jan 2020 17:08:51.000,334.915,-78.550,24142.564500
1 Jan 2020 17:09:21.000,337.029,-78.766,24035.385473
1 Jan 2020 17:09:51.000,339.241,-78.980,23933.916780
1 Jan 2020 17:10:21.000,341.556,-79.192,23838.349144
1 Jan 2020 17:10:51.000,343.978,-79.399,23748.866827
1 Jan 2020 17:11:21.000,346.511,-79.600,23665.646039
1 Jan 2020 17:11:51.000,349.157,-79.793,23588.854800
1 Jan 2020 17:12:21.000,351.917,-79.976,23518.652074
1 Jan 2020 17:12:51.000,354.792,-80.148,23455.187000
1 Jan 2020 17:13:21.000,357.778,-80.306,23398.598525
1 Jan 2020 17:13:51.000,0.871,-80.448,23349.014279
1 Jan 2020 17:14:21.000,4.064,-80.573,23306.550300
1 Jan 2020 17:14:51.000,7.346,-80.680,23271.310389
1 Jan 2020 17:15:21.000,10.706,-80.765,23243.385584
1 Jan 2020 17:15:51.000,14.128,-80.829,23222.853776
1 Jan 2020 17:16:21.000,17.593,-80.870,23209.779188
1 Jan 2020 17:16:51.000,21.084,-80.888,23204.212152
1 Jan 2020 17:17:21.000,24.579,-80.881,23206.188822
1 Jan 2020 17:17:51.000,28.059,-80.851,23215.731055
1 Jan 2020 17:18:21.000,31.501,-80.798,23232.846083
1 Jan 2020 17:18:51.000,34.889,-80.721,23257.526797
1 Jan 2020 17:19:21.000,38.204,-80.623,23289.751607
1 Jan 2020 17:19:51.000,41.431,-80.504,23329.484609
1 Jan 2020 17:20:21.000,44.559,-80.367,23376.675924
1 Jan 2020 17:20:51.000,47.578,-80.213,23431.261453
1 Jan 2020 17:21:21.000,50.481,-80.043,23493.163972
1 Jan 2020 17:21:51.000,53.264,-79.860,23562.293052
1 Jan 2020 17:22:21.000,55.925,-79.665,23638.545637
1 Jan 2020 17:22:51.000,58.463,-79.462,23721.806759
1 Jan 2020 17:23:21.000,60.881,-79.250,23811.949346
1 Jan 2020 17:23:51.000,63.180,-79.033,23908.835935
1 Jan 2020 17:24:21.000,65.365,-78.812,24012.318581
1 Jan 2020 17:24:51.000,67.439,-78.588,24122.239706
1 Jan 2020 17:25:21.000,69.409,-78.364,24238.432994
1 Jan 2020 17:25:51.000,71.278,-78.140,24360.723218
1 Jan 2020 17:26:21.000,73.053,-77.918,24488.928245
1 Jan 2020 17:26:51.000,74.738,-77.699,24622.858877
1 Jan 2020 17:27:21.000,76.339,-77.485,24762.319771
1 Jan 2020 17:27:51.000,77.861,-77.276,24907.110122
1 Jan 2020 17:28:21.000,79.308,-77.073,25057.024620
1 Jan 2020 17:28:51.000,80.685,-76.877,25211.853012
1 Jan 2020 17:29:21.000,81.997,-76.689,25371.382367
1 Jan 2020 17:29:51.000,83.248,-76.510,25535.396614
1 Jan 2020 17:30:21.000,84.442,-76.339,25703.677386
1 Jan 2020 17:30:51.000,85.581,-76.178,25876.004586
1 Jan 2020 17:31:21.000,86.671,-76.027,26052.156905
1 Jan 2020 17:31:51.000,87.713,-75.886,26231.912323
1 Jan 2020 17:32:21.000,88.712,-75.756,26415.048566
1 Jan 2020 17:32:51.000,89.669,-75.636,26601.343879
1 Jan 2020 17:33:21.000,90.587,-75.528,26790.576080
1 Jan 2020 17:33:51.000,91.469,-75.431,26982.524938
1 Jan 2020 17:34:21.000,92.317,-75.345,27176.971174
1 Jan 2020 17:34:51.000,93.133,-75.270,27373.697105
1 Jan 2020 17:35:21.000,93.919,-75.207,27572.486924
1 Jan 2020 17:35:51.000,94.677,-75.156,27773.126947
1 Jan 2020 17:36:21.000,95.408,-75.116,27975.405850
1 Jan 2020 17:36:51.000,96.114,-75.087,28179.114860
1 Jan 2020 17:37:21.000,96.797,-75.070,28384.047945
1 Jan 2020 17:37:51.000,97.458,-75.064,28590.001961
1 Jan 2020 17:37:52.018,97.480,-75.064,28597.007531
1 Jan 2020 18:40:50.807,280.616,-75.073,28602.051289
1 Jan 2020 18:41:20.000,280.368,-75.079,28387.662723
1 Jan 2020 18:41:50.000,280.096,-75.098,28167.777284
1 Jan 2020 18:42:20.000,279.807,-75.130,27948.531823
1 Jan 2020 18:42:50.000,279.500,-75.176,27730.137644
1 Jan 2020 18:43:20.000,279.173,-75.235,27512.810163
1 Jan 2020 18:43:50.000,278.827,-75.309,27296.768807
1 Jan 2020 18:44:20.000,278.459,-75.396,27082.236904
1 Jan 2020 18:44:50.000,278.068,-75.498,26869.441539
1 Jan 2020 18:45:20.000,277.653,-75.614,26658.613392
1 Jan 2020 18:45:50.000,277.212,-75.745,26449.986542
1 Jan 2020 18:46:20.000,276.744,-75.890,26243.798246
1 Jan 2020 18:46:50.000,276.245,-76.050,26040.288680
1 Jan 2020 18:47:20.000,275.715,-76.225,25839.700652
1 Jan 2020 18:47:50.000,275.150,-76.414,25642.279271
1 Jan 2020 18:48:20.000,274.548,-76.619,25448.271249
1 Jan 2020 18:48:50.000,273.905,-76.837,25257.925844
1 Jan 2020 18:49:20.000,273.218,-77.071,25071.492376
1 Jan 2020 18:49:50.000,272.483,-77.318,24889.221099
1 Jan 2020 18:50:20.000,271.695,-77.579,24711.362326
1 Jan 2020 18:50:50.000,270.849,-77.854,24538.165845
1 Jan 2020 18:51:20.000,269.939,-78.143,24369.880298
1 Jan 2020 18:51:50.000,268.958,-78.443,24206.752205
1 Jan 2020 18:52:20.000,267.898,-78.756,24049.026494
1 Jan 2020 18:52:50.000,266.751,-79.080,23896.943873
1 Jan 2020 18:53:20.000,265.506,-79.415,23750.741301
1 Jan 2020 18:53:50.000,264.153,-79.759,23610.650849
1 Jan 2020 18:54:20.000,262.676,-80.112,23476.898611
1 Jan 2020 18:54:50.000,261.061,-80.471,23349.704767
1 Jan 2020 18:55:20.000,259.290,-80.836,23229.281262
1 Jan 2020 18:55:50.000,257.342,-81.204,23115.831853
1 Jan 2020 18:56:20.000,255.193,-81.573,23009.550958
1 Jan 2020 18:56:50.000,252.819,-81.942,22910.622541
1 Jan 2020 18:57:20.000,250.187,-82.306,22819.220045
1 Jan 2020 18:57:50.000,247.266,-82.663,22735.504260
1 Jan 2020 18:58:20.000,244.021,-83.009,22659.623332
1 Jan 2020 18:58:50.000,240.417,-83.340,22591.711634
1 Jan 2020 18:59:20.000,236.419,-83.650,22531.889525
1 Jan 2020 18:59:50.000,232.003,-83.934,22480.261887
1 Jan 2020 19:00:20.000,227.154,-84.186,22436.918048
1 Jan 2020 19:00:50.000,221.879,-84.400,22401.931046
1 Jan 2020 19:01:20.000,216.214,-84.568,22375.357492
1 Jan 2020 19:01:50.000,210.227,-84.687,22357.236738
1 Jan 2020 19:02:20.000,204.022,-84.752,22347.590970
1 Jan 2020 19:02:50.000,197.727,-84.760,22346.424957
1 Jan 2020 19:03:20.000,191.484,-84.710,22353.726083
1 Jan 2020 19:03:50.000,185.425,-84.606,22369.464290
1 Jan 2020 19:04:20.000,179.660,-84.451,22393.592347
1 Jan 2020 19:04:50.000,174.265,-84.250,22426.046147
1 Jan 2020 19:05:20.000,169.284,-84.010,22466.744906
1 Jan 2020 19:05:50.000,164.727,-83.736,22515.591873
1 Jan 2020 19:06:20.000,160.587,-83.436,22572.474744
1 Jan 2020 19:06:50.000,156.838,-83.114,22637.266422
1 Jan 2020 19:07:20.000,153.448,-82.775,22709.825344
1 Jan 2020 19:07:50.000,150.382,-82.426,22789.996806
1 Jan 2020 19:08:20.000,147.604,-82.068,22877.613424
1 Jan 2020 19:08:50.000,145.083,-81.705,22972.496078
1 Jan 2020 19:09:20.000,142.786,-81.342,23074.454991
1 Jan 2020 19:09:50.000,140.686,-80.979,23183.289921
1 Jan 2020 19:10:20.000,138.760,-80.619,23298.792148
1 Jan 2020 19:10:50.000,136.986,-80.264,23420.744711
1 Jan 2020 19:11:20.000,135.346,-79.916,23548.923498
1 Jan 2020 19:11:50.000,133.823,-79.575,23683.098371
1 Jan 2020 19:12:20.000,132.403,-79.243,23823.033219
1 Jan 2020 19:12:50.000,131.075,-78.922,23968.488059
1 Jan 2020 19:13:20.000,129.827,-78.611,24119.219053
1 Jan 2020 19:13:50.000,128.651,-78.311,24274.979505
1 Jan 2020 19:14:20.000,127.538,-78.024,24435.520621
1 Jan 2020 19:14:50.000,126.480,-77.749,24600.592219
1 Jan 2020 19:15:20.000,125.473,-77.487,24769.943687
1 Jan 2020 19:15:50.000,124.510,-77.239,24943.323480
1 Jan 2020 19:16:20.000,123.587,-77.003,25120.481382
1 Jan 2020 19:16:50.000,122.698,-76.782,25301.167924
1 Jan 2020 19:17:20.000,121.841,-76.574,25485.135156
1 Jan 2020 19:17:50.000,121.011,-76.380,25672.137086
1 Jan 2020 19:18:20.000,120.206,-76.200,25861.930087
1 Jan 2020 19:18:50.000,119.422,-76.034,26054.273258
1 Jan 2020 19:19:20.000,118.658,-75.882,26248.928744
1 Jan 2020 19:19:50.000,117.910,-75.743,26445.662024
1 Jan 2020 19:20:20.000,117.177,-75.618,26644.242160
1 Jan 2020 19:20:50.000,116.456,-75.506,26844.442014
1 Jan 2020 19:21:20.000,115.747,-75.408,27046.038433
1 Jan 2020 19:21:50.000,115.046,-75.322,27248.812411
1 Jan 2020 19:22:20.000,114.353,-75.249,27452.549218
1 Jan 2020 19:22:50.000,113.667,-75.189,27657.038510
1 Jan 2020 19:23:20.000,112.984,-75.141,27862.074414
1 Jan 2020 19:23:50.000,112.306,-75.106,28067.455596
1 Jan 2020 19:24:20.000,111.629,-75.082,28272.985310
1 Jan 2020 19:24:50.000,110.954,-75.069,28478.471430
1 Jan 2020 19:25:08.351,110.541,-75.067,28604.065849
1 Jan 2020 20:29:53.829,270.392,-75.077,28608.843480
1 Jan 2020 20:30:23.000,269.005,-75.079,28485.419915
1 Jan 2020 20:30:53.000,267.558,-75.085,28361.034246
1 Jan 2020 20:31:23.000,266.091,-75.095,28239.366636
1 Jan 2020 20:31:53.000,264.602,-75.108,28120.553782
1 Jan 2020 20:32:23.000,263.090,-75.125,28004.729817
1 Jan 2020 20:32:53.000,261.556,-75.146,27892.026032
1 Jan 2020 20:33:23.000,259.999,-75.169,27782.570589
1 Jan 2020 20:33:53.000,258.419,-75.194,27676.488235
1 Jan 2020 20:34:23.000,256.815,-75.223,27573.900011
1 Jan 2020 20:34:53.000,255.187,-75.253,27474.922783
1 Jan 2020 20:35:23.000,253.535,-75.284,27379.669670
1 Jan 2020 20:35:53.000,251.860,-75.318,27288.248674
1 Jan 2020 20:36:23.000,250.161,-75.352,27200.763121
1 Jan 2020 20:36:53.000,248.438,-75.387,27117.311206
1 Jan 2020 20:37:23.000,246.692,-75.422,27037.985714
1 Jan 2020 20:37:53.000,244.924,-75.457,26962.873764
1 Jan 2020 20:38:23.000,243.133,-75.493,26892.056555
1 Jan 2020 20:38:53.000,241.321,-75.527,26825.608977
1 Jan 2020 20:39:23.000,239.488,-75.561,26763.599992
1 Jan 2020 20:39:53.000,237.636,-75.593,26706.091504
1 Jan 2020 20:40:23.000,235.764,-75.624,26653.138792
1 Jan 2020 20:40:53.000,233.876,-75.653,26604.790169
1 Jan 2020 20:41:23.000,231.970,-75.679,26561.086840
1 Jan 2020 20:41:53.000,230.050,-75.704,26522.062761
1 Jan 2020 20:42:23.000,228.116,-75.726,26487.744441
1 Jan 2020 20:42:53.000,226.170,-75.746,26458.151234
1 Jan 2020 20:43:23.000,224.214,-75.762,26433.294698
1 Jan 2020 20:43:53.000,222.249,-75.776,26413.178949
1 Jan 2020 20:44:23.000,220.278,-75.786,26397.800553
1 Jan 2020 20:44:53.000,218.300,-75.793,26387.148537
1 Jan 2020 20:45:23.000,216.320,-75.797,26381.204429
1 Jan 2020 20:45:53.000,214.338,-75.798,26379.942284
1 Jan 2020 20:46:23.000,212.356,-75.796,26383.328939
1 Jan 2020 20:46:53.000,210.375,-75.790,26391.323865
1 Jan 2020 20:47:23.000,208.398,-75.781,26403.879486
1 Jan 2020 20:47:53.000,206.426,-75.769,26420.941295
1 Jan 2020 20:48:23.000,204.461,-75.755,26442.448028
1 Jan 2020 20:48:53.000,202.504,-75.737,26468.331871
1 Jan 2020 20:49:23.000,200.556,-75.717,26498.518689
1 Jan 2020 20:49:53.000,198.620,-75.695,26532.928223
1 Jan 2020 20:50:23.000,196.695,-75.671,26571.474391
1 Jan 2020 20:50:53.000,194.783,-75.645,26614.065528
1 Jan 2020 20:51:23.000,192.884,-75.617,26660.604670
1 Jan 2020 20:51:53.000,191.001,-75.587,26710.989838
1 Jan 2020 20:52:23.000,189.133,-75.557,26765.114338
1 Jan 2020 20:52:53.000,187.281,-75.525,26822.867064
1 Jan 2020 20:53:23.000,185.445,-75.493,26884.132861
1 Jan 2020 20:53:53.000,183.627,-75.461,26948.792607
1 Jan 2020 20:54:23.000,181.825,-75.428,27016.723867
1 Jan 2020 20:54:53.000,180.040,-75.396,27087.800980
1 Jan 2020 20:55:23.000,178.273,-75.364,27161.895428
1 Jan 2020 20:55:53.000,176.523,-75.332,27238.876141
1 Jan 2020 20:56:23.000,174.789,-75.302,27318.609804
1 Jan 2020 20:56:53.000,173.073,-75.272,27400.961155
1 Jan 2020 20:57:23.000,171.373,-75.244,27485.793274
1 Jan 2020 20:57:53.000,169.689,-75.218,27572.967875
1 Jan 2020 20:58:23.000,168.021,-75.193,27662.345578
1 Jan 2020 20:58:53.000,166.368,-75.170,27753.786180
1 Jan 2020 20:59:23.000,164.729,-75.149,27847.149027
1 Jan 2020 20:59:53.000,163.105,-75.130,27942.292813
1 Jan 2020 21:00:23.000,161.494,-75.114,28039.076492
1 Jan 2020 21:00:53.000,159.896,-75.100,28137.359058
1 Jan 2020 21:01:23.000,158.311,-75.089,28236.999881
1 Jan 2020 21:01:53.000,156.736,-75.080,28337.858906
1 Jan 2020 21:02:23.000,155.173,-75.074,28439.796856
1 Jan 2020 21:02:53.000,153.620,-75.071,28542.675418
1 Jan 2020 21:03:12.301,152.625,-75.070,28609.298084
1 Jan 2020 23:25:15.110,51.421,-75.073,28609.932528
1 Jan 2020 23:25:45.000,50.117,-75.076,28463.181625
1 Jan 2020 23:26:15.000,48.800,-75.085,28316.070059
1 Jan 2020 23:26:45.000,47.473,-75.100,28169.297498
1 Jan 2020 23:27:15.000,46.134,-75.120,28023.024973
1 Jan 2020 23:27:45.000,44.782,-75.146,27877.416375
1 Jan 2020 23:28:15.000,43.417,-75.179,27732.638342
1 Jan 2020 23:28:45.000,42.036,-75.217,27588.860113
1 Jan 2020 23:29:15.000,40.638,-75.261,27446.253380
1 Jan 2020 23:29:45.000,39.222,-75.310,27304.992118
1 Jan 2020 23:30:15.000,37.786,-75.366,27165.252395
1 Jan 2020 23:30:45.000,36.328,-75.427,27027.212168
1 Jan 2020 23:31:15.000,34.846,-75.493,26891.051065
1 Jan 2020 23:31:45.000,33.340,-75.565,26756.950136
1 Jan 2020 23:32:15.000,31.808,-75.641,26625.091591
1 Jan 2020 23:32:45.000,30.247,-75.723,26495.658525
1 Jan 2020 23:33:15.000,28.657,-75.808,26368.834604
1 Jan 2020 23:33:45.000,27.034,-75.898,26244.803751
1 Jan 2020 23:34:15.000,25.379,-75.992,26123.749633
1 Jan 2020 23:34:45.000,23.689,-76.089,26005.855949
1 Jan 2020 23:35:15.000,21.962,-76.189,25891.305063
1 Jan 2020 23:35:45.000,20.197,-76.291,25780.278260
1 Jan 2020 23:36:15.000,18.393,-76.395,25672.955153
1 Jan 2020 23:36:45.000,16.548,-76.501,25569.513247
1 Jan 2020 23:37:15.000,14.661,-76.607,25470.127480
1 Jan 2020 23:37:45.000,12.731,-76.714,25374.969752
1 Jan 2020 23:38:15.000,10.757,-76.820,25284.208328
1 Jan 2020 23:38:45.000,8.738,-76.924,25198.007813
1 Jan 2020 23:39:15.000,6.675,-77.027,25116.527935
1 Jan 2020 23:39:45.000,4.568,-77.127,25039.923526
1 Jan 2020 23:40:15.000,2.415,-77.224,24968.343891
1 Jan 2020 23:40:45.000,0.220,-77.316,24901.932303
1 Jan 2020 23:41:15.000,357.982,-77.403,24840.825443
1 Jan 2020 23:41:45.000,355.704,-77.485,24785.153153
1 Jan 2020 23:42:15.000,353.387,-77.560,24735.037579
1 Jan 2020 23:42:45.000,351.035,-77.629,24690.592967
1 Jan 2020 23:43:15.000,348.650,-77.689,24651.925160
1 Jan 2020 23:43:45.000,346.236,-77.741,24619.131171
1 Jan 2020 23:44:15.000,343.797,-77.784,24592.298801
1 Jan 2020 23:44:45.000,341.338,-77.818,24571.506293
1 Jan 2020 23:45:15.000,338.864,-77.842,24556.821967
1 Jan 2020 23:45:45.000,336.380,-77.856,24548.303974
1 Jan 2020 23:46:15.000,333.891,-77.860,24546.000040
1 Jan 2020 23:46:45.000,331.404,-77.854,24549.947311
1 Jan 2020 23:47:15.000,328.923,-77.837,24560.172019
1 Jan 2020 23:47:45.000,326.454,-77.810,24576.689627
1 Jan 2020 23:48:15.000,324.003,-77.773,24599.504605
1 Jan 2020 23:48:45.000,321.575,-77.727,24628.610457
1 Jan 2020 23:49:15.000,319.175,-77.671,24663.989852
1 Jan 2020 23:49:45.000,316.807,-77.606,24705.614327
1 Jan 2020 23:50:15.000,314.476,-77.534,24753.444969
1 Jan 2020 23:50:45.000,312.185,-77.453,24807.432229
1 Jan 2020 23:51:15.000,309.938,-77.366,24867.516230
1 Jan 2020 23:51:45.000,307.736,-77.273,24933.627019
1 Jan 2020 23:52:15.000,305.583,-77.174,25005.685041
1 Jan 2020 23:52:45.000,303.480,-77.071,25083.600772
1 Jan 2020 23:53:15.000,301.429,-76.964,25167.276113
1 Jan 2020 23:53:45.000,299.429,-76.854,25256.604097
1 Jan 2020 23:54:15.000,297.482,-76.743,25351.469474
1 Jan 2020 23:54:45.000,295.587,-76.629,25451.749141
1 Jan 2020 23:55:15.000,293.745,-76.516,25557.312804
1 Jan 2020 23:55:45.000,291.955,-76.402,25668.022609
1 Jan 2020 23:56:15.000,290.215,-76.290,25783.734851
1 Jan 2020 23:56:45.000,288.526,-76.180,25904.299633
1 Jan 2020 23:57:15.000,286.886,-76.071,26029.561553
1 Jan 2020 23:57:45.000,285.293,-75.966,26159.360178
1 Jan 2020 23:58:15.000,283.746,-75.865,26293.530524
1 Jan 2020 23:58:45.000,282.244,-75.768,26431.903770
1 Jan 2020 23:59:15.000,280.786,-75.675,26574.306734
1 Jan 2020 23:59:45.000,279.369,-75.588,26720.563791
2 Jan 2020 00:00:15.000,277.992,-75.507,26870.496335
2 Jan 2020 00:00:45.000,276.654,-75.432,27023.923439
2 Jan 2020 00:01:15.000,275.352,-75.363,27180.662269
2 Jan 2020 00:01:45.000,274.086,-75.301,27340.528461
2 Jan 2020 00:02:15.000,272.853,-75.246,27503.336500
2 Jan 2020 00:02:45.000,271.652,-75.198,27668.900068
2 Jan 2020 00:03:15.000,270.482,-75.158,27837.032378
2 Jan 2020 00:03:45.000,269.341,-75.126,28007.546484
2 Jan 2020 00:04:15.000,268.228,-75.102,28180.255583
2 Jan 2020 00:04:45.000,267.141,-75.086,28354.973587
2 Jan 2020 00:05:15.000,266.078,-75.078,28531.514173
2 Jan 2020 00:05:28.071,265.623,-75.078,28608.954268
2 Jan 2020 01:08:54.931,75.489,-75.069,28604.354046
2 Jan 2020 01:09:24.000,75.311,-75.075,28389.713942
2 Jan 2020 01:09:54.000,75.135,-75.095,28168.223946
2 Jan 2020 01:10:24.000,74.968,-75.127,27946.955009
2 Jan 2020 01:10:54.000,74.809,-75.174,27726.114010
2 Jan 2020 01:11:24.000,74.658,-75.235,27505.912590
2 Jan 2020 01:11:54.000,74.515,-75.310,27286.567117
2 Jan 2020 01:12:24.000,74.381,-75.401,27068.298618
2 Jan 2020 01:12:54.000,74.254,-75.506,26851.332709
2 Jan 2020 01:13:24.000,74.136,-75.626,26635.899486
2 Jan 2020 01:13:54.000,74.025,-75.762,26422.233399
2 Jan 2020 01:14:24.000,73.922,-75.914,26210.573094
2 Jan 2020 01:14:54.000,73.827,-76.083,26001.161228
2 Jan 2020 01:15:24.000,73.740,-76.267,25794.244245
2 Jan 2020 01:15:54.000,73.662,-76.468,25590.072125
2 Jan 2020 01:16:24.000,73.591,-76.686,25388.898083
2 Jan 2020 01:16:54.000,73.529,-76.920,25190.978237
2 Jan 2020 01:17:24.000,73.476,-77.171,24996.570880
2 Jan 2020 01:17:54.000,73.432,-77.440,24805.937446
2 Jan 2020 01:18:24.000,73.398,-77.725,24619.339942
2 Jan 2020 01:18:54.000,73.373,-78.028,24437.041825
2 Jan 2020 01:19:24.000,73.359,-78.347,24259.307081
2 Jan 2020 01:19:54.000,73.356,-78.684,24086.399595
2 Jan 2020 01:20:24.000,73.365,-79.037,23918.582473
2 Jan 2020 01:20:54.000,73.387,-79.407,23756.117016
2 Jan 2020 01:21:24.000,73.423,-79.793,23599.263156
2 Jan 2020 01:21:54.000,73.474,-80.196,23448.276782
2 Jan 2020 01:22:24.000,73.544,-80.614,23303.410114
2 Jan 2020 01:22:54.000,73.633,-81.048,23164.910466
2 Jan 2020 01:23:24.000,73.745,-81.497,23033.019081
2 Jan 2020 01:23:54.000,73.884,-81.960,22907.971052
2 Jan 2020 01:24:24.000,74.054,-82.438,22789.992936
2 Jan 2020 01:24:54.000,74.262,-82.928,22679.302670
2 Jan 2020 01:25:24.000,74.516,-83.431,22576.108141
2 Jan 2020 01:25:54.000,74.828,-83.946,22480.606824
2 Jan 2020 01:26:24.000,75.215,-84.472,22392.983767
2 Jan 2020 01:26:54.000,75.700,-85.007,22313.411290
2 Jan 2020 01:27:24.000,76.320,-85.552,22242.047745
2 Jan 2020 01:27:54.000,77.134,-86.104,22179.037106
2 Jan 2020 01:28:24.000,78.237,-86.663,22124.507381
2 Jan 2020 01:28:54.000,79.807,-87.226,22078.570361
2 Jan 2020 01:29:24.000,82.202,-87.791,22041.320746
2 Jan 2020 01:29:54.000,86.269,-88.354,22012.835820
2 Jan 2020 01:30:24.000,94.515,-88.903,21993.174544
2 Jan 2020 01:30:54.000,117.305,-89.389,21982.377475
2 Jan 2020 01:31:24.000,181.109,-89.526,21980.466431
2 Jan 2020 01:31:54.000,220.066,-89.129,21987.444351
2 Jan 2020 01:32:24.000,232.306,-88.595,22003.295245
2 Jan 2020 01:32:54.000,237.703,-88.036,22027.984331
2 Jan 2020 01:33:24.000,240.698,-87.472,22061.458315
2 Jan 2020 01:33:54.000,242.602,-86.907,22103.645470
2 Jan 2020 01:34:24.000,243.924,-86.347,22154.456449
2 Jan 2020 01:34:54.000,244.900,-85.792,22213.784616
2 Jan 2020 01:35:24.000,245.656,-85.245,22281.506880
2 Jan 2020 01:35:54.000,246.263,-84.705,22357.483933
2 Jan 2020 01:36:24.000,246.766,-84.176,22441.561788
2 Jan 2020 01:36:54.000,247.192,-83.657,22533.572194
2 Jan 2020 01:37:24.000,247.562,-83.149,22633.333850
2 Jan 2020 01:37:54.000,247.890,-82.653,22740.652709
2 Jan 2020 01:38:24.000,248.184,-82.171,22855.323965
2 Jan 2020 01:38:54.000,248.453,-81.702,22977.132437
2 Jan 2020 01:39:24.000,248.702,-81.247,23105.853744
2 Jan 2020 01:39:54.000,248.935,-80.808,23241.255589
2 Jan 2020 01:40:24.000,249.156,-80.383,23383.097779
2 Jan 2020 01:40:54.000,249.366,-79.974,23531.134683
2 Jan 2020 01:41:24.000,249.570,-79.581,23685.115230
2 Jan 2020 01:41:54.000,249.767,-79.204,23844.784077
2 Jan 2020 01:42:24.000,249.960,-78.844,24009.882496
2 Jan 2020 01:42:54.000,250.150,-78.501,24180.149516
2 Jan 2020 01:43:24.000,250.337,-78.175,24355.321542
2 Jan 2020 01:43:54.000,250.524,-77.865,24535.134856
2 Jan 2020 01:44:24.000,250.710,-77.573,24719.325155
2 Jan 2020 01:44:54.000,250.897,-77.297,24907.628479
2 Jan 2020 01:45:24.000,251.084,-77.039,25099.781806
2 Jan 2020 01:45:54.000,251.273,-76.797,25295.523592
2 Jan 2020 01:46:24.000,251.464,-76.572,25494.594261
2 Jan 2020 01:46:54.000,251.658,-76.364,25696.736649
2 Jan 2020 01:47:24.000,251.854,-76.173,25901.696734
2 Jan 2020 01:47:54.000,252.054,-75.998,26109.222652
2 Jan 2020 01:48:24.000,252.257,-75.839,26319.067000
2 Jan 2020 01:48:54.000,252.464,-75.695,26530.985783
2 Jan 2020 01:49:24.000,252.676,-75.568,26744.738976
2 Jan 2020 01:49:54.000,252.892,-75.456,26960.090720
2 Jan 2020 01:50:24.000,253.114,-75.358,27176.809494
2 Jan 2020 01:50:54.000,253.340,-75.276,27394.668247
2 Jan 2020 01:51:24.000,253.573,-75.208,27613.444514
2 Jan 2020 01:51:54.000,253.811,-75.155,27832.920502
2 Jan 2020 01:52:24.000,254.056,-75.115,28052.883156
2 Jan 2020 01:52:54.000,254.307,-75.089,28273.124204
2 Jan 2020 01:53:24.000,254.566,-75.076,28493.440188
2 Jan 2020 01:53:38.824,254.696,-75.074,28602.272690
2 Jan 2020 02:57:13.911,86.198,-75.065,28597.141586
2 Jan 2020 02:57:43.000,87.280,-75.069,28431.659683
2 Jan 2020 02:58:13.000,88.419,-75.080,28262.840176
2 Jan 2020 02:58:43.000,89.583,-75.099,28096.072102
2 Jan 2020 02:59:13.000,90.773,-75.125,27931.535670
2 Jan 2020 02:59:43.000,91.992,-75.158,27769.411169
2 Jan 2020 03:00:13.000,93.240,-75.199,27609.878691
2 Jan 2020 03:00:43.000,94.519,-75.246,27453.117839
2 Jan 2020 03:01:13.000,95.830,-75.299,27299.307411
2 Jan 2020 03:01:43.000,97.174,-75.359,27148.625079
2 Jan 2020 03:02:13.000,98.554,-75.424,27001.247040
2 Jan 2020 03:02:43.000,99.969,-75.495,26857.347409
2 Jan 2020 03:03:13.000,101.422,-75.571,26717.098836
2 Jan 2020 03:03:43.000,102.914,-75.652,26580.670618
2 Jan 2020 03:04:13.000,104.447,-75.737,26448.229302
2 Jan 2020 03:04:43.000,106.020,-75.825,26319.938012
2 Jan 2020 03:05:13.000,107.636,-75.917,26195.956027
2 Jan 2020 03:05:43.000,109.296,-76.011,26076.438348
2 Jan 2020 03:06:13.000,111.000,-76.107,25961.535042
2 Jan 2020 03:06:43.000,112.749,-76.204,25851.391663
2 Jan 2020 03:07:13.000,114.543,-76.303,25746.147502
2 Jan 2020 03:07:43.000,116.384,-76.401,25645.936025
2 Jan 2020 03:08:13.000,118.271,-76.498,25550.884207
2 Jan 2020 03:08:43.000,120.204,-76.594,25461.112108
2 Jan 2020 03:09:13.000,122.183,-76.688,25376.732282
2 Jan 2020 03:09:43.000,124.206,-76.780,25297.850062
2 Jan 2020 03:10:13.000,126.274,-76.867,25224.562124
2 Jan 2020 03:10:43.000,128.384,-76.951,25156.956832
2 Jan 2020 03:11:13.000,130.534,-77.030,25095.113713
2 Jan 2020 03:11:43.000,132.723,-77.103,25039.103146
2 Jan 2020 03:12:13.000,134.948,-77.170,24988.985951
2 Jan 2020 03:12:43.000,137.205,-77.230,24944.813660
2 Jan 2020 03:13:13.000,139.493,-77.283,24906.627505
2 Jan 2020 03:13:43.000,141.806,-77.329,24874.458785
2 Jan 2020 03:14:13.000,144.141,-77.366,24848.328593
2 Jan 2020 03:14:43.000,146.494,-77.395,24828.247657
2 Jan 2020 03:15:13.000,148.860,-77.416,24814.216555
2 Jan 2020 03:15:43.000,151.235,-77.428,24806.225295
2 Jan 2020 03:16:13.000,153.614,-77.431,24804.253639
2 Jan 2020 03:16:43.000,155.993,-77.425,24808.271103
2 Jan 2020 03:17:13.000,158.367,-77.410,24818.237070
2 Jan 2020 03:17:43.000,160.732,-77.387,24834.101024
2 Jan 2020 03:18:13.000,163.082,-77.356,24855.802632
2 Jan 2020 03:18:43.000,165.416,-77.317,24883.272080
2 Jan 2020 03:19:13.000,167.727,-77.271,24916.430326
2 Jan 2020 03:19:43.000,170.014,-77.217,24955.189414
2 Jan 2020 03:20:13.000,172.274,-77.158,24999.452857
2 Jan 2020 03:20:43.000,174.503,-77.092,25049.115852
2 Jan 2020 03:21:13.000,176.699,-77.020,25104.065896
2 Jan 2020 03:21:43.000,178.861,-76.944,25164.183069
2 Jan 2020 03:22:13.000,180.987,-76.864,25229.340490
2 Jan 2020 03:22:43.000,183.076,-76.781,25299.404777
2 Jan 2020 03:23:13.000,185.127,-76.694,25374.236495
2 Jan 2020 03:23:43.000,187.140,-76.606,25453.690735
2 Jan 2020 03:24:13.000,189.114,-76.516,25537.617162
2 Jan 2020 03:24:43.000,191.051,-76.425,25625.861104
2 Jan 2020 03:25:13.000,192.949,-76.333,25718.263614
2 Jan 2020 03:25:43.000,194.810,-76.242,25814.662042
2 Jan 2020 03:26:13.000,196.634,-76.152,25914.890482
2 Jan 2020 03:26:43.000,198.423,-76.063,26018.780225
2 Jan 2020 03:27:13.000,200.177,-75.975,26126.160198
2 Jan 2020 03:27:43.000,201.898,-75.890,26236.857382
2 Jan 2020 03:28:13.000,203.587,-75.808,26350.697387
2 Jan 2020 03:28:43.000,205.244,-75.729,26467.504198
2 Jan 2020 03:29:13.000,206.872,-75.653,26587.101516
2 Jan 2020 03:29:43.000,208.472,-75.581,26709.312476
2 Jan 2020 03:30:13.000,210.046,-75.513,26833.960148
2 Jan 2020 03:30:43.000,211.594,-75.449,26960.867861
2 Jan 2020 03:31:13.000,213.118,-75.389,27089.859502
2 Jan 2020 03:31:43.000,214.620,-75.335,27220.759804
2 Jan 2020 03:32:13.000,216.101,-75.285,27353.394612
2 Jan 2020 03:32:43.000,217.562,-75.240,27487.591129
2 Jan 2020 03:33:13.000,219.005,-75.201,27623.178145
2 Jan 2020 03:33:43.000,220.432,-75.166,27759.986253
2 Jan 2020 03:34:13.000,221.843,-75.137,27897.848038
2 Jan 2020 03:34:43.000,223.240,-75.114,28036.598262
2 Jan 2020 03:35:13.000,224.625,-75.095,28176.074024
2 Jan 2020 03:35:43.000,225.998,-75.082,28316.114906
2 Jan 2020 03:36:13.000,227.361,-75.074,28456.563112
2 Jan 2020 03:36:42.737,228.703,-75.072,28596.027901
2 Jan 2020 05:58:02.655,327.662,-75.065,28593.145811
2 Jan 2020 05:58:32.000,329.146,-75.067,28485.177238
2 Jan 2020 05:59:02.000,330.673,-75.071,28375.495968
2 Jan 2020 05:59:32.000,332.211,-75.079,28266.660161
2 Jan 2020 06:00:02.000,333.759,-75.090,28158.812167
2 Jan 2020 06:00:32.000,335.320,-75.104,28052.095613
2 Jan 2020 06:01:02.000,336.893,-75.121,27946.655231
2 Jan 2020 06:01:32.000,338.481,-75.141,27842.636661
2 Jan 2020 06:02:02.000,340.082,-75.163,27740.186252
2 Jan 2020 06:02:32.000,341.699,-75.188,27639.450848
2 Jan 2020 06:03:02.000,343.331,-75.216,27540.577559
2 Jan 2020 06:03:32.000,344.980,-75.246,27443.713525
2 Jan 2020 06:04:02.000,346.647,-75.278,27349.005667
2 Jan 2020 06:04:32.000,348.331,-75.312,27256.600421
2 Jan 2020 06:05:02.000,350.033,-75.348,27166.643474
2 Jan 2020 06:05:32.000,351.754,-75.385,27079.279471
2 Jan 2020 06:06:02.000,353.494,-75.423,26994.651730
2 Jan 2020 06:06:32.000,355.254,-75.463,26912.901846
2 Jan 2020 06:07:02.000,357.034,-75.503,26834.169746
2 Jan 2020 06:07:32.000,358.833,-75.543,26758.592817
2 Jan 2020 06:08:02.000,0.652,-75.584,26686.305953
2 Jan 2020 06:08:32.000,2.491,-75.624,26617.441134
2 Jan 2020 06:09:02.000,4.349,-75.664,26552.127091
2 Jan 2020 06:09:32.000,6.227,-75.703,26490.488972
2 Jan 2020 06:10:02.000,8.123,-75.741,26432.648000
2 Jan 2020 06:10:32.000,10.038,-75.777,26378.721148
2 Jan 2020 06:11:02.000,11.970,-75.812,26328.820756
2 Jan 2020 06:11:32.000,13.919,-75.845,26283.054378
2 Jan 2020 06:12:02.000,15.883,-75.875,26241.524195
2 Jan 2020 06:12:32.000,17.861,-75.903,26204.326888
2 Jan 2020 06:13:02.000,19.852,-75.928,26171.553287
2 Jan 2020 06:13:32.000,21.855,-75.950,26143.288083
2 Jan 2020 06:14:02.000,23.868,-75.969,26119.609554
2 Jan 2020 06:14:32.000,25.889,-75.984,26100.589319
2 Jan 2020 06:15:02.000,27.917,-75.995,26086.292057
2 Jan 2020 06:15:32.000,29.949,-76.003,26076.775344
2 Jan 2020 06:16:02.000,31.984,-76.007,26072.089423
2 Jan 2020 06:16:32.000,34.019,-76.006,26072.277038
2 Jan 2020 06:17:02.000,36.053,-76.002,26077.373287
2 Jan 2020 06:17:32.000,38.083,-75.994,26087.405495
2 Jan 2020 06:18:02.000,40.108,-75.982,26102.393193
2 Jan 2020 06:18:32.000,42.125,-75.966,26122.347769
2 Jan 2020 06:19:02.000,44.132,-75.947,26147.272828
2 Jan 2020 06:19:32.000,46.127,-75.923,26177.163926
2 Jan 2020 06:20:02.000,48.109,-75.897,26212.008638
2 Jan 2020 06:20:32.000,50.076,-75.867,26251.786610
2 Jan 2020 06:21:02.000,52.025,-75.834,26296.469620
2 Jan 2020 06:21:32.000,53.956,-75.799,26346.021810
2 Jan 2020 06:22:02.000,55.867,-75.762,26400.399304
