STKdata/stk_90fov_4leo/Satellite-MEO_Satellite10100-To-Satellite-LEO_Satellite10000 AER.csv

"Time (UTCG)","Azimuth (deg)","Elevation (deg)","Range (km)"
1 Jan 2020 00:16:24.390,286.387,-75.071,28598.810076
1 Jan 2020 00:16:54.000,286.743,-75.077,28383.691431
1 Jan 2020 00:17:24.000,287.099,-75.096,28165.660622
1 Jan 2020 00:17:54.000,287.450,-75.128,27947.749616
1 Jan 2020 00:18:24.000,287.797,-75.173,27730.161837
1 Jan 2020 00:18:54.000,288.141,-75.233,27513.105511
1 Jan 2020 00:19:24.000,288.481,-75.306,27296.793630
1 Jan 2020 00:19:54.000,288.819,-75.393,27081.443902
1 Jan 2020 00:20:24.000,289.155,-75.496,26867.278679
1 Jan 2020 00:20:54.000,289.490,-75.613,26654.524865
1 Jan 2020 00:21:24.000,289.825,-75.745,26443.413793
1 Jan 2020 00:21:54.000,290.160,-75.893,26234.181087
1 Jan 2020 00:22:24.000,290.497,-76.057,26027.066483
1 Jan 2020 00:22:54.000,290.836,-76.236,25822.313624
1 Jan 2020 00:23:24.000,291.178,-76.432,25620.169819
1 Jan 2020 00:23:54.000,291.524,-76.644,25420.885763
1 Jan 2020 00:24:24.000,291.876,-76.872,25224.715224
1 Jan 2020 00:24:54.000,292.235,-77.117,25031.914359
1 Jan 2020 00:25:24.000,292.602,-77.378,24842.742588
1 Jan 2020 00:25:54.000,292.979,-77.656,24657.460221
1 Jan 2020 00:26:24.000,293.369,-77.951,24476.329243
1 Jan 2020 00:26:54.000,293.773,-78.262,24299.612442
1 Jan 2020 00:27:24.000,294.193,-78.590,24127.572806
1 Jan 2020 00:27:54.000,294.634,-78.934,23960.472876
1 Jan 2020 00:28:24.000,295.099,-79.294,23798.573749
1 Jan 2020 00:28:54.000,295.592,-79.670,23642.135485
1 Jan 2020 00:29:24.000,296.118,-80.062,23491.414554
1 Jan 2020 00:29:54.000,296.684,-80.469,23346.664163
1 Jan 2020 00:30:24.000,297.297,-80.891,23208.133068
1 Jan 2020 00:30:54.000,297.967,-81.327,23076.064428
1 Jan 2020 00:31:24.000,298.705,-81.776,22950.695717
1 Jan 2020 00:31:54.000,299.527,-82.238,22832.256409
1 Jan 2020 00:32:24.000,300.453,-82.713,22720.967867
1 Jan 2020 00:32:54.000,301.507,-83.198,22617.042095
1 Jan 2020 00:33:24.000,302.725,-83.692,22520.680547
1 Jan 2020 00:33:54.000,304.152,-84.195,22432.073842
1 Jan 2020 00:34:24.000,305.853,-84.705,22351.399667
1 Jan 2020 00:34:54.000,307.920,-85.219,22278.822571
1 Jan 2020 00:35:24.000,310.491,-85.734,22214.492768
1 Jan 2020 00:35:54.000,313.773,-86.246,22158.545687
1 Jan 2020 00:36:24.000,318.090,-86.748,22111.100543
1 Jan 2020 00:36:54.000,323.964,-87.232,22072.260065
1 Jan 2020 00:37:24.000,332.224,-87.679,22042.109713
1 Jan 2020 00:37:54.000,344.079,-88.061,22020.717337
1 Jan 2020 00:38:24.000,0.646,-88.326,22008.132452
1 Jan 2020 00:38:54.000,21.055,-88.413,22004.386143
1 Jan 2020 00:39:24.000,41.068,-88.294,22009.490834
1 Jan 2020 00:39:54.000,56.858,-88.006,22023.440137
1 Jan 2020 00:40:24.000,68.041,-87.611,22046.208988
1 Jan 2020 00:40:54.000,75.829,-87.156,22077.753762
1 Jan 2020 00:41:24.000,81.377,-86.668,22118.012659
1 Jan 2020 00:41:54.000,85.461,-86.162,22166.905751
1 Jan 2020 00:42:24.000,88.563,-85.648,22224.335974
1 Jan 2020 00:42:54.000,90.985,-85.131,22290.189415
1 Jan 2020 00:43:24.000,92.920,-84.617,22364.336222
1 Jan 2020 00:43:54.000,94.498,-84.106,22446.630814
1 Jan 2020 00:44:24.000,95.806,-83.603,22536.913533
1 Jan 2020 00:44:54.000,96.904,-83.108,22635.011014
1 Jan 2020 00:45:24.000,97.837,-82.622,22740.737440
1 Jan 2020 00:45:54.000,98.638,-82.148,22853.894796
1 Jan 2020 00:46:24.000,99.330,-81.686,22974.274930
1 Jan 2020 00:46:54.000,99.933,-81.236,23101.659875
1 Jan 2020 00:47:24.000,100.461,-80.801,23235.823025
1 Jan 2020 00:47:54.000,100.925,-80.379,23376.530409
1 Jan 2020 00:48:24.000,101.334,-79.973,23523.540648
1 Jan 2020 00:48:54.000,101.696,-79.582,23676.607441
1 Jan 2020 00:49:24.000,102.017,-79.206,23835.479503
1 Jan 2020 00:49:54.000,102.301,-78.847,23999.901699
1 Jan 2020 00:50:24.000,102.553,-78.504,24169.615907
1 Jan 2020 00:50:54.000,102.775,-78.177,24344.362126
1 Jan 2020 00:51:24.000,102.972,-77.868,24523.878041
1 Jan 2020 00:51:54.000,103.145,-77.575,24707.901520
1 Jan 2020 00:52:24.000,103.296,-77.298,24896.170093
1 Jan 2020 00:52:54.000,103.427,-77.039,25088.421857
1 Jan 2020 00:53:24.000,103.540,-76.797,25284.396036
1 Jan 2020 00:53:54.000,103.636,-76.571,25483.833488
1 Jan 2020 00:54:24.000,103.715,-76.362,25686.477169
1 Jan 2020 00:54:54.000,103.779,-76.169,25892.072548
1 Jan 2020 00:55:24.000,103.829,-75.993,26100.367971
1 Jan 2020 00:55:54.000,103.866,-75.833,26311.115349
1 Jan 2020 00:56:24.000,103.889,-75.688,26524.069029
1 Jan 2020 00:56:54.000,103.900,-75.560,26738.988158
1 Jan 2020 00:57:24.000,103.899,-75.447,26955.635486
1 Jan 2020 00:57:54.000,103.886,-75.349,27173.777909
1 Jan 2020 00:58:24.000,103.861,-75.267,27393.186613
1 Jan 2020 00:58:54.000,103.826,-75.198,27613.637198
1 Jan 2020 00:59:24.000,103.779,-75.145,27834.909784
1 Jan 2020 00:59:54.000,103.722,-75.105,28056.789083
1 Jan 2020 01:00:24.000,103.654,-75.079,28279.064460
1 Jan 2020 01:00:54.000,103.576,-75.067,28501.529965
1 Jan 2020 01:01:07.390,103.537,-75.066,28600.829514
1 Jan 2020 02:04:24.012,275.093,-75.075,28606.033965
1 Jan 2020 02:04:54.000,274.128,-75.080,28421.007633
1 Jan 2020 02:05:24.000,273.137,-75.093,28237.472999
1 Jan 2020 02:05:54.000,272.121,-75.116,28055.698265
1 Jan 2020 02:06:24.000,271.078,-75.147,27875.875724
1 Jan 2020 02:06:54.000,270.007,-75.187,27698.198757
1 Jan 2020 02:07:24.000,268.905,-75.236,27522.861589
1 Jan 2020 02:07:54.000,267.772,-75.293,27350.059012
1 Jan 2020 02:08:24.000,266.605,-75.358,27179.986099
1 Jan 2020 02:08:54.000,265.403,-75.432,27012.837885
1 Jan 2020 02:09:24.000,264.163,-75.513,26848.809039
1 Jan 2020 02:09:54.000,262.885,-75.601,26688.093503
1 Jan 2020 02:10:24.000,261.565,-75.697,26530.883833
1 Jan 2020 02:10:54.000,260.203,-75.799,26377.371935
1 Jan 2020 02:11:24.000,258.796,-75.907,26227.746935
1 Jan 2020 02:11:54.000,257.342,-76.021,26082.195885
1 Jan 2020 02:12:24.000,255.838,-76.140,25940.903019
1 Jan 2020 02:12:54.000,254.284,-76.263,25804.049275
1 Jan 2020 02:13:24.000,252.678,-76.391,25671.811811
1 Jan 2020 02:13:54.000,251.016,-76.521,25544.363253
1 Jan 2020 02:14:24.000,249.298,-76.654,25421.872163
1 Jan 2020 02:14:54.000,247.522,-76.788,25304.501042
1 Jan 2020 02:15:24.000,245.686,-76.924,25192.406789
1 Jan 2020 02:15:54.000,243.790,-77.059,25085.739933
1 Jan 2020 02:16:24.000,241.831,-77.193,24984.644101
1 Jan 2020 02:16:54.000,239.811,-77.325,24889.255303
1 Jan 2020 02:17:24.000,237.728,-77.454,24799.702228
1 Jan 2020 02:17:54.000,235.583,-77.579,24716.104528
1 Jan 2020 02:18:24.000,233.376,-77.700,24638.573165
1 Jan 2020 02:18:54.000,231.110,-77.814,24567.209755
1 Jan 2020 02:19:24.000,228.785,-77.922,24502.106003
1 Jan 2020 02:19:54.000,226.406,-78.022,24443.343864
1 Jan 2020 02:20:24.000,223.974,-78.113,24390.994344
1 Jan 2020 02:20:54.000,221.494,-78.194,24345.117754
1 Jan 2020 02:21:24.000,218.972,-78.266,24305.763290
1 Jan 2020 02:21:54.000,216.411,-78.326,24272.968719
1 Jan 2020 02:22:24.000,213.819,-78.375,24246.760557
1 Jan 2020 02:22:54.000,211.202,-78.412,24227.153391
1 Jan 2020 02:23:24.000,208.567,-78.437,24214.150178
1 Jan 2020 02:23:54.000,205.920,-78.449,24207.742132
1 Jan 2020 02:24:24.000,203.270,-78.448,24207.908722
1 Jan 2020 02:24:54.000,200.623,-78.435,24214.617895
1 Jan 2020 02:25:24.000,197.987,-78.410,24227.825999
1 Jan 2020 02:25:54.000,195.369,-78.373,24247.478128
1 Jan 2020 02:26:24.000,192.775,-78.324,24273.508322
1 Jan 2020 02:26:54.000,190.211,-78.264,24305.839885
1 Jan 2020 02:27:24.000,187.682,-78.194,24344.385628
1 Jan 2020 02:27:54.000,185.194,-78.114,24389.048355
1 Jan 2020 02:28:24.000,182.750,-78.026,24439.721216
1 Jan 2020 02:28:54.000,180.354,-77.929,24496.288157
1 Jan 2020 02:29:24.000,178.008,-77.826,24558.624400
1 Jan 2020 02:29:54.000,175.714,-77.716,24626.597030
1 Jan 2020 02:30:24.000,173.474,-77.601,24700.065154
1 Jan 2020 02:30:54.000,171.288,-77.482,24778.880961
1 Jan 2020 02:31:24.000,169.157,-77.359,24862.889921
1 Jan 2020 02:31:54.000,167.080,-77.234,24951.931426
1 Jan 2020 02:32:24.000,165.057,-77.107,25045.839342
1 Jan 2020 02:32:54.000,163.086,-76.980,25144.442558
1 Jan 2020 02:33:24.000,161.167,-76.852,25247.565694
1 Jan 2020 02:33:54.000,159.297,-76.726,25355.029033
1 Jan 2020 02:34:24.000,157.476,-76.600,25466.649946
1 Jan 2020 02:34:54.000,155.701,-76.477,25582.242820
1 Jan 2020 02:35:24.000,153.971,-76.357,25701.619704
1 Jan 2020 02:35:54.000,152.283,-76.240,25824.590788
1 Jan 2020 02:36:24.000,150.635,-76.127,25950.964870
1 Jan 2020 02:36:54.000,149.025,-76.018,26080.549793
1 Jan 2020 02:37:24.000,147.452,-75.913,26213.152869
1 Jan 2020 02:37:54.000,145.913,-75.814,26348.581272
1 Jan 2020 02:38:24.000,144.405,-75.720,26486.642626
1 Jan 2020 02:38:54.000,142.928,-75.632,26627.144520
1 Jan 2020 02:39:24.000,141.478,-75.550,26769.896077
1 Jan 2020 02:39:54.000,140.055,-75.474,26914.707437
1 Jan 2020 02:40:24.000,138.656,-75.404,27061.390243
1 Jan 2020 02:40:54.000,137.279,-75.341,27209.757901
1 Jan 2020 02:41:24.000,135.923,-75.284,27359.625816
1 Jan 2020 02:41:54.000,134.586,-75.234,27510.811613
1 Jan 2020 02:42:24.000,133.266,-75.190,27663.135329
1 Jan 2020 02:42:54.000,131.961,-75.153,27816.419597
1 Jan 2020 02:43:24.000,130.670,-75.123,27970.489803
1 Jan 2020 02:43:54.000,129.392,-75.100,28125.174228
1 Jan 2020 02:44:24.000,128.126,-75.083,28280.304179
1 Jan 2020 02:44:54.000,126.868,-75.073,28435.714098
1 Jan 2020 02:45:24.000,125.619,-75.069,28591.241661
1 Jan 2020 02:45:27.114,125.490,-75.069,28607.385136
1 Jan 2020 05:08:42.046,20.359,-75.076,28611.188489
1 Jan 2020 05:09:12.000,18.778,-75.077,28516.641281
1 Jan 2020 05:09:42.000,17.186,-75.081,28423.011864
1 Jan 2020 05:10:12.000,15.584,-75.087,28330.578163
1 Jan 2020 05:10:42.000,13.970,-75.095,28239.474103
1 Jan 2020 05:11:12.000,12.346,-75.105,28149.833960
1 Jan 2020 05:11:42.000,10.710,-75.117,28061.792161
1 Jan 2020 05:12:12.000,9.061,-75.131,27975.483067
1 Jan 2020 05:12:42.000,7.400,-75.147,27891.040753
1 Jan 2020 05:13:12.000,5.725,-75.164,27808.598777
1 Jan 2020 05:13:42.000,4.038,-75.183,27728.289939
1 Jan 2020 05:14:12.000,2.336,-75.203,27650.246037
1 Jan 2020 05:14:42.000,0.620,-75.225,27574.597606
1 Jan 2020 05:15:12.000,358.891,-75.247,27501.473661
1 Jan 2020 05:15:42.000,357.146,-75.270,27431.001423
1 Jan 2020 05:16:12.000,355.388,-75.293,27363.306050
1 Jan 2020 05:16:42.000,353.615,-75.317,27298.510290
1 Jan 2020 05:17:12.000,351.828,-75.341,27236.734460
1 Jan 2020 05:17:42.000,350.027,-75.365,27178.095763
1 Jan 2020 05:18:12.000,348.212,-75.388,27122.708274
1 Jan 2020 05:18:42.000,346.383,-75.411,27070.682581
1 Jan 2020 05:19:12.000,344.542,-75.433,27022.125500
1 Jan 2020 05:19:42.000,342.689,-75.455,26977.139798
1 Jan 2020 05:20:12.000,340.824,-75.475,26935.823904
1 Jan 2020 05:20:42.000,338.948,-75.494,26898.271647
1 Jan 2020 05:21:12.000,337.061,-75.511,26864.571972
1 Jan 2020 05:21:42.000,335.166,-75.527,26834.808737
1 Jan 2020 05:22:12.000,333.263,-75.541,26809.060379
1 Jan 2020 05:22:42.000,331.353,-75.553,26787.399742
1 Jan 2020 05:23:12.000,329.437,-75.562,26769.893839
1 Jan 2020 05:23:42.000,327.516,-75.570,26756.603645
1 Jan 2020 05:24:12.000,325.592,-75.575,26747.583904
1 Jan 2020 05:24:42.000,323.666,-75.578,26742.882957
1 Jan 2020 05:25:12.000,321.740,-75.578,26742.542631
1 Jan 2020 05:25:42.000,319.815,-75.576,26746.597934
1 Jan 2020 05:26:12.000,317.892,-75.571,26755.077181
1 Jan 2020 05:26:42.000,315.973,-75.564,26768.001747
1 Jan 2020 05:27:12.000,314.060,-75.554,26785.386033
1 Jan 2020 05:27:42.000,312.153,-75.542,26807.237414
1 Jan 2020 05:28:12.000,310.255,-75.528,26833.556215
1 Jan 2020 05:28:42.000,308.366,-75.512,26864.335790
1 Jan 2020 05:29:12.000,306.487,-75.494,26899.562205
1 Jan 2020 05:29:42.000,304.621,-75.474,26939.214775
1 Jan 2020 05:30:12.000,302.769,-75.453,26983.265802
1 Jan 2020 05:30:42.000,300.930,-75.430,27031.680739
1 Jan 2020 05:31:12.000,299.107,-75.406,27084.418297
1 Jan 2020 05:31:42.000,297.301,-75.381,27141.430567
1 Jan 2020 05:32:12.000,295.511,-75.356,27202.663170
1 Jan 2020 05:32:42.000,293.740,-75.330,27268.055556
1 Jan 2020 05:33:12.000,291.987,-75.304,27337.540611
1 Jan 2020 05:33:42.000,290.254,-75.278,27411.045706
1 Jan 2020 05:34:12.000,288.540,-75.252,27488.492340
1 Jan 2020 05:34:42.000,286.846,-75.228,27569.796495
1 Jan 2020 05:35:12.000,285.172,-75.204,27654.868873
1 Jan 2020 05:35:42.000,283.519,-75.181,27743.615130
1 Jan 2020 05:36:12.000,281.886,-75.160,27835.936129
1 Jan 2020 05:36:42.000,280.274,-75.141,27931.728188
1 Jan 2020 05:37:12.000,278.683,-75.124,28030.883532
1 Jan 2020 05:37:42.000,277.112,-75.109,28133.289813
1 Jan 2020 05:38:12.000,275.561,-75.097,28238.831476
1 Jan 2020 05:38:42.000,274.030,-75.088,28347.389297
1 Jan 2020 05:39:12.000,272.518,-75.082,28458.840830
1 Jan 2020 05:39:42.000,271.026,-75.079,28573.060669
1 Jan 2020 05:39:51.788,270.543,-75.079,28610.903349
1 Jan 2020 06:45:03.645,67.996,-75.071,28607.282289
1 Jan 2020 06:45:33.000,67.248,-75.076,28411.362922
1 Jan 2020 06:46:03.000,66.482,-75.092,28210.983067
1 Jan 2020 06:46:33.000,65.713,-75.119,28010.627969
1 Jan 2020 06:47:03.000,64.939,-75.157,27810.488287
1 Jan 2020 06:47:33.000,64.159,-75.207,27610.759181
1 Jan 2020 06:48:03.000,63.373,-75.268,27411.640267
1 Jan 2020 06:48:33.000,62.577,-75.342,27213.335553
1 Jan 2020 06:49:03.000,61.771,-75.428,27016.053365
1 Jan 2020 06:49:33.000,60.953,-75.526,26820.006240
1 Jan 2020 06:50:03.000,60.120,-75.636,26625.410811
1 Jan 2020 06:50:33.000,59.272,-75.759,26432.487656
1 Jan 2020 06:51:03.000,58.405,-75.895,26241.461130
1 Jan 2020 06:51:33.000,57.517,-76.044,26052.559160
1 Jan 2020 06:52:03.000,56.605,-76.206,25866.013018
1 Jan 2020 06:52:33.000,55.667,-76.380,25682.057054
1 Jan 2020 06:53:03.000,54.700,-76.567,25500.928403
1 Jan 2020 06:53:33.000,53.700,-76.767,25322.866645
1 Jan 2020 06:54:03.000,52.662,-76.979,25148.113158
1 Jan 2020 06:54:33.000,51.584,-77.204,24976.911820
1 Jan 2020 06:55:03.000,50.460,-77.441,24809.506873
1 Jan 2020 06:55:33.000,49.285,-77.689,24646.143556
1 Jan 2020 06:56:03.000,48.053,-77.949,24487.067282
1 Jan 2020 06:56:33.000,46.758,-78.220,24332.523053
1 Jan 2020 06:57:03.000,45.393,-78.501,24182.754841
1 Jan 2020 06:57:33.000,43.948,-78.791,24038.004686
1 Jan 2020 06:58:03.000,42.415,-79.090,23898.512926
1 Jan 2020 06:58:33.000,40.785,-79.396,23764.516035
1 Jan 2020 06:59:03.000,39.044,-79.709,23636.246792
1 Jan 2020 06:59:33.000,37.181,-80.027,23513.933235
1 Jan 2020 07:00:03.000,35.182,-80.349,23397.797651
1 Jan 2020 07:00:33.000,33.030,-80.672,23288.056388
1 Jan 2020 07:01:03.000,30.709,-80.995,23184.917955
1 Jan 2020 07:01:33.000,28.200,-81.316,23088.582827
1 Jan 2020 07:02:03.000,25.484,-81.632,22999.242385
1 Jan 2020 07:02:33.000,22.540,-81.939,22917.077904
1 Jan 2020 07:03:03.000,19.351,-82.236,22842.260209
1 Jan 2020 07:03:33.000,15.897,-82.517,22774.948039
1 Jan 2020 07:04:03.000,12.165,-82.780,22715.287779
1 Jan 2020 07:04:33.000,8.147,-83.019,22663.412501
1 Jan 2020 07:05:03.000,3.844,-83.231,22619.441507
1 Jan 2020 07:05:33.000,359.270,-83.412,22583.479276
1 Jan 2020 07:06:03.000,354.452,-83.556,22555.615168
1 Jan 2020 07:06:33.000,349.435,-83.661,22535.922837
1 Jan 2020 07:07:03.000,344.277,-83.723,22524.459858
1 Jan 2020 07:07:33.000,339.051,-83.740,22521.267320
1 Jan 2020 07:08:03.000,333.834,-83.712,22526.369653
1 Jan 2020 07:08:33.000,328.703,-83.640,22539.774535
1 Jan 2020 07:09:03.000,323.729,-83.526,22561.472660
1 Jan 2020 07:09:33.000,318.970,-83.372,22591.438071
1 Jan 2020 07:10:03.000,314.466,-83.183,22629.628160
1 Jan 2020 07:10:33.000,310.244,-82.962,22675.984078
1 Jan 2020 07:11:03.000,306.315,-82.713,22730.430670
1 Jan 2020 07:11:33.000,302.680,-82.442,22792.877519
1 Jan 2020 07:12:03.000,299.329,-82.153,22863.219082
1 Jan 2020 07:12:33.000,296.248,-81.848,22941.335531
1 Jan 2020 07:13:03.000,293.419,-81.533,23027.092815
1 Jan 2020 07:13:33.000,290.822,-81.210,23120.344261
1 Jan 2020 07:14:03.000,288.438,-80.882,23220.930764
1 Jan 2020 07:14:33.000,286.248,-80.552,23328.681734
1 Jan 2020 07:15:03.000,284.232,-80.222,23443.416170
1 Jan 2020 07:15:33.000,282.376,-79.894,23564.942566
1 Jan 2020 07:16:03.000,280.662,-79.571,23693.061183
1 Jan 2020 07:16:33.000,279.077,-79.252,23827.563991
1 Jan 2020 07:17:03.000,277.610,-78.941,23968.235766
1 Jan 2020 07:17:33.000,276.247,-78.637,24114.855194
1 Jan 2020 07:18:03.000,274.980,-78.343,24267.194701
1 Jan 2020 07:18:33.000,273.800,-78.059,24425.022759
1 Jan 2020 07:19:03.000,272.699,-77.785,24588.103681
1 Jan 2020 07:19:33.000,271.669,-77.523,24756.198617
1 Jan 2020 07:20:03.000,270.704,-77.273,24929.066269
1 Jan 2020 07:20:33.000,269.800,-77.036,25106.463564
1 Jan 2020 07:21:03.000,268.950,-76.811,25288.146619
1 Jan 2020 07:21:33.000,268.150,-76.600,25473.870043
1 Jan 2020 07:22:03.000,267.397,-76.402,25663.389419
1 Jan 2020 07:22:33.000,266.687,-76.218,25856.460536
1 Jan 2020 07:23:03.000,266.016,-76.048,26052.840179
1 Jan 2020 07:23:33.000,265.382,-75.891,26252.286557
1 Jan 2020 07:24:03.000,264.782,-75.749,26454.559698
1 Jan 2020 07:24:33.000,264.213,-75.620,26659.421796
1 Jan 2020 07:25:03.000,263.674,-75.505,26866.637532
1 Jan 2020 07:25:33.000,263.163,-75.405,27075.974350
1 Jan 2020 07:26:03.000,262.677,-75.318,27287.202714
1 Jan 2020 07:26:33.000,262.216,-75.244,27500.096321
1 Jan 2020 07:27:03.000,261.777,-75.184,27714.432291
1 Jan 2020 07:27:33.000,261.361,-75.138,27929.991333
1 Jan 2020 07:28:03.000,260.964,-75.104,28146.557880
1 Jan 2020 07:28:33.000,260.587,-75.084,28363.920210
1 Jan 2020 07:29:03.000,260.227,-75.076,28581.870537
1 Jan 2020 07:29:06.253,260.189,-75.076,28605.530249
1 Jan 2020 08:32:04.252,81.779,-75.067,28600.302697
1 Jan 2020 08:32:34.000,82.337,-75.072,28391.384383
1 Jan 2020 08:33:04.000,82.920,-75.090,28181.548606
1 Jan 2020 08:33:34.000,83.526,-75.120,27972.775054
1 Jan 2020 08:34:04.000,84.155,-75.161,27765.272058
1 Jan 2020 08:34:34.000,84.810,-75.215,27559.251111
1 Jan 2020 08:35:04.000,85.491,-75.281,27354.926710
1 Jan 2020 08:35:34.000,86.201,-75.360,27152.516177
1 Jan 2020 08:36:04.000,86.941,-75.451,26952.239459
1 Jan 2020 08:36:34.000,87.713,-75.553,26754.318894
1 Jan 2020 08:37:04.000,88.520,-75.668,26558.978953
1 Jan 2020 08:37:34.000,89.364,-75.796,26366.445956
1 Jan 2020 08:38:04.000,90.247,-75.935,26176.947750
1 Jan 2020 08:38:34.000,91.173,-76.086,25990.713360
1 Jan 2020 08:39:04.000,92.145,-76.248,25807.972273
1 Jan 2020 08:39:34.000,93.165,-76.422,25628.955356
1 Jan 2020 08:40:04.000,94.238,-76.606,25453.892387
1 Jan 2020 08:40:34.000,95.367,-76.801,25283.012919
1 Jan 2020 08:41:04.000,96.556,-77.006,25116.545415
1 Jan 2020 08:41:34.000,97.811,-77.221,24954.716689
1 Jan 2020 08:42:04.000,99.137,-77.444,24797.751320
1 Jan 2020 08:42:34.000,100.538,-77.675,24645.870727
1 Jan 2020 08:43:04.000,102.020,-77.913,24499.293701
1 Jan 2020 08:43:34.000,103.591,-78.157,24358.233934
1 Jan 2020 08:44:04.000,105.256,-78.406,24222.900517
1 Jan 2020 08:44:34.000,107.022,-78.659,24093.496903
1 Jan 2020 08:45:04.000,108.897,-78.915,23970.219949
1 Jan 2020 08:45:34.000,110.888,-79.171,23853.260039
1 Jan 2020 08:46:04.000,113.004,-79.427,23742.798989
1 Jan 2020 08:46:34.000,115.251,-79.681,23639.010189
1 Jan 2020 08:47:04.000,117.637,-79.930,23542.057615
1 Jan 2020 08:47:34.000,120.168,-80.173,23452.094907
1 Jan 2020 08:48:04.000,122.851,-80.407,23369.265409
1 Jan 2020 08:48:34.000,125.689,-80.630,23293.700325
1 Jan 2020 08:49:04.000,128.685,-80.840,23225.518847
1 Jan 2020 08:49:34.000,131.836,-81.034,23164.827236
1 Jan 2020 08:50:04.000,135.140,-81.210,23111.718736
1 Jan 2020 08:50:34.000,138.589,-81.366,23066.272351
1 Jan 2020 08:51:04.000,142.169,-81.498,23028.552911
1 Jan 2020 08:51:34.000,145.865,-81.606,22998.610507
1 Jan 2020 08:52:04.000,149.654,-81.687,22976.480501
1 Jan 2020 08:52:34.000,153.511,-81.740,22962.182862
1 Jan 2020 08:53:04.000,157.409,-81.764,22955.722362
1 Jan 2020 08:53:34.000,161.317,-81.759,22957.088430
1 Jan 2020 08:54:04.000,165.205,-81.725,22966.255287
1 Jan 2020 08:54:34.000,169.044,-81.663,22983.181932
1 Jan 2020 08:55:04.000,172.807,-81.573,23007.812463
1 Jan 2020 08:55:34.000,176.472,-81.459,23040.076376
1 Jan 2020 08:56:04.000,180.019,-81.320,23079.888815
1 Jan 2020 08:56:34.000,183.434,-81.160,23127.151178
1 Jan 2020 08:57:04.000,186.708,-80.981,23181.751532
1 Jan 2020 08:57:34.000,189.834,-80.786,23243.565203
1 Jan 2020 08:58:04.000,192.811,-80.576,23312.455508
1 Jan 2020 08:58:34.000,195.639,-80.355,23388.273997
1 Jan 2020 08:59:04.000,198.323,-80.124,23470.861783
1 Jan 2020 08:59:34.000,200.866,-79.886,23560.049873
1 Jan 2020 09:00:04.000,203.276,-79.642,23655.660033
1 Jan 2020 09:00:34.000,205.559,-79.395,23757.505708
1 Jan 2020 09:01:04.000,207.723,-79.147,23865.392210
1 Jan 2020 09:01:34.000,209.775,-78.899,23979.118384
1 Jan 2020 09:02:04.000,211.724,-78.653,24098.476812
1 Jan 2020 09:02:34.000,213.578,-78.409,24223.254717
1 Jan 2020 09:03:04.000,215.342,-78.169,24353.234718
1 Jan 2020 09:03:34.000,217.025,-77.935,24488.195768
1 Jan 2020 09:04:04.000,218.632,-77.707,24627.913033
1 Jan 2020 09:04:34.000,220.170,-77.485,24772.159792
1 Jan 2020 09:05:04.000,221.645,-77.272,24920.707279
1 Jan 2020 09:05:34.000,223.061,-77.066,25073.325485
1 Jan 2020 09:06:04.000,224.425,-76.869,25229.783747
1 Jan 2020 09:06:34.000,225.739,-76.682,25389.851276
1 Jan 2020 09:07:04.000,227.009,-76.504,25553.297672
1 Jan 2020 09:07:34.000,228.239,-76.336,25719.893384
1 Jan 2020 09:08:04.000,229.432,-76.179,25889.410410
1 Jan 2020 09:08:34.000,230.591,-76.031,26061.621633
1 Jan 2020 09:09:04.000,231.720,-75.894,26236.302761
1 Jan 2020 09:09:34.000,232.821,-75.768,26413.231606
1 Jan 2020 09:10:04.000,233.897,-75.653,26592.188640
1 Jan 2020 09:10:34.000,234.951,-75.548,26772.957256
1 Jan 2020 09:11:04.000,235.985,-75.454,26955.324004
1 Jan 2020 09:11:34.000,237.002,-75.371,27139.078794
1 Jan 2020 09:12:04.000,238.002,-75.298,27324.015083
1 Jan 2020 09:12:34.000,238.989,-75.236,27509.930022
1 Jan 2020 09:13:04.000,239.963,-75.184,27696.624597
1 Jan 2020 09:13:34.000,240.927,-75.142,27883.903739
1 Jan 2020 09:14:04.000,241.883,-75.110,28071.576418
1 Jan 2020 09:14:34.000,242.831,-75.088,28259.455721
1 Jan 2020 09:15:04.000,243.774,-75.076,28447.358907
1 Jan 2020 09:15:28.144,244.530,-75.073,28598.481064
1 Jan 2020 10:21:48.571,92.944,-75.063,28594.075160
1 Jan 2020 10:22:18.000,94.505,-75.064,28507.431179
1 Jan 2020 10:22:48.000,96.112,-75.067,28422.063737
1 Jan 2020 10:23:18.000,97.733,-75.072,28339.777906
1 Jan 2020 10:23:48.000,99.370,-75.078,28260.665251
1 Jan 2020 10:24:18.000,101.021,-75.086,28184.813162
1 Jan 2020 10:24:48.000,102.687,-75.095,28112.304643
1 Jan 2020 10:25:18.000,104.368,-75.105,28043.218115
1 Jan 2020 10:25:48.000,106.063,-75.115,27977.627217
1 Jan 2020 10:26:18.000,107.771,-75.126,27915.600618
1 Jan 2020 10:26:48.000,109.494,-75.138,27857.201728
1 Jan 2020 10:27:18.000,111.228,-75.149,27802.489007
1 Jan 2020 10:27:48.000,112.976,-75.161,27751.515085
1 Jan 2020 10:28:18.000,114.735,-75.172,27704.327110
1 Jan 2020 10:28:48.000,116.505,-75.183,27660.966501
1 Jan 2020 10:29:18.000,118.285,-75.194,27621.468827
1 Jan 2020 10:29:48.000,120.075,-75.204,27585.863720
1 Jan 2020 10:30:18.000,121.873,-75.213,27554.174784
1 Jan 2020 10:30:48.000,123.679,-75.221,27526.419465
1 Jan 2020 10:31:18.000,125.492,-75.229,27502.609299
1 Jan 2020 10:31:48.000,127.311,-75.235,27482.749427
1 Jan 2020 10:32:18.000,129.135,-75.240,27466.838895
1 Jan 2020 10:32:48.000,130.963,-75.244,27454.870578
1 Jan 2020 10:33:18.000,132.793,-75.247,27446.831210
1 Jan 2020 10:33:48.000,134.626,-75.248,27442.701425
1 Jan 2020 10:34:18.000,136.460,-75.249,27442.455817
1 Jan 2020 10:34:48.000,138.293,-75.248,27446.062991
1 Jan 2020 10:35:18.000,140.126,-75.245,27453.485776
1 Jan 2020 10:35:48.000,141.957,-75.242,27464.681152
1 Jan 2020 10:36:18.000,143.785,-75.237,27479.600507
1 Jan 2020 10:36:48.000,145.609,-75.232,27498.189745
1 Jan 2020 10:37:18.000,147.429,-75.225,27520.389442
1 Jan 2020 10:37:48.000,149.244,-75.217,27546.135018
1 Jan 2020 10:38:18.000,151.052,-75.209,27575.356917
1 Jan 2020 10:38:48.000,152.855,-75.200,27607.980801
1 Jan 2020 10:39:18.000,154.649,-75.190,27643.927772
1 Jan 2020 10:39:48.000,156.436,-75.180,27683.114507
1 Jan 2020 10:40:18.000,158.215,-75.170,27725.453587
1 Jan 2020 10:40:48.000,159.985,-75.159,27770.853655
1 Jan 2020 10:41:18.000,161.746,-75.149,27819.219661
1 Jan 2020 10:41:48.000,163.498,-75.139,27870.453100
1 Jan 2020 10:42:18.000,165.240,-75.128,27924.452250
1 Jan 2020 10:42:48.000,166.972,-75.119,27981.112409
1 Jan 2020 10:43:18.000,168.695,-75.109,28040.326141
1 Jan 2020 10:43:48.000,170.407,-75.101,28101.983514
1 Jan 2020 10:44:18.000,172.110,-75.093,28165.972341
1 Jan 2020 10:44:48.000,173.802,-75.086,28232.178420
1 Jan 2020 10:45:18.000,175.485,-75.080,28300.485838
1 Jan 2020 10:45:48.000,177.158,-75.075,28370.776922
1 Jan 2020 10:46:18.000,178.822,-75.072,28442.932887
1 Jan 2020 10:46:48.000,180.477,-75.070,28516.833780
1 Jan 2020 10:47:18.000,182.123,-75.069,28592.358768
1 Jan 2020 10:47:18.652,182.158,-75.069,28594.016544
1 Jan 2020 11:49:10.314,23.836,-75.062,28592.320005
1 Jan 2020 11:49:40.000,25.516,-75.062,28542.363003
1 Jan 2020 11:50:10.000,27.221,-75.063,28494.251453
1 Jan 2020 11:50:40.000,28.933,-75.064,28448.619601
1 Jan 2020 11:51:10.000,30.651,-75.066,28405.557934
1 Jan 2020 11:51:40.000,32.376,-75.068,28365.153842
1 Jan 2020 11:52:10.000,34.107,-75.071,28327.491417
1 Jan 2020 11:52:40.000,35.844,-75.073,28292.651257
1 Jan 2020 11:53:10.000,37.586,-75.076,28260.710272
1 Jan 2020 11:53:40.000,39.333,-75.079,28231.741499
1 Jan 2020 11:54:10.000,41.084,-75.081,28205.813915
1 Jan 2020 11:54:40.000,42.840,-75.084,28182.992268
1 Jan 2020 11:55:10.000,44.599,-75.086,28163.336911
1 Jan 2020 11:55:40.000,46.362,-75.088,28146.903638
1 Jan 2020 11:56:10.000,48.127,-75.089,28133.743542
1 Jan 2020 11:56:40.000,49.893,-75.090,28123.902878
1 Jan 2020 11:57:10.000,51.661,-75.091,28117.422939
1 Jan 2020 11:57:40.000,53.430,-75.092,28114.339937
1 Jan 2020 11:58:10.000,55.198,-75.092,28114.684908
1 Jan 2020 11:58:40.000,56.966,-75.091,28118.483621
1 Jan 2020 11:59:10.000,58.732,-75.090,28125.756507
1 Jan 2020 11:59:40.000,60.496,-75.089,28136.518639
1 Jan 2020 12:00:10.000,62.257,-75.087,28150.779519
1 Jan 2020 12:00:40.000,64.014,-75.085,28168.543297
1 Jan 2020 12:01:10.000,65.768,-75.083,28189.808591
1 Jan 2020 12:01:40.000,67.516,-75.080,28214.568529
1 Jan 2020 12:02:10.000,69.259,-75.078,28242.810761
1 Jan 2020 12:02:40.000,70.996,-75.075,28274.517488
1 Jan 2020 12:03:10.000,72.726,-75.072,28309.665504
1 Jan 2020 12:03:40.000,74.448,-75.069,28348.226257
1 Jan 2020 12:04:10.000,76.163,-75.067,28390.166003
1 Jan 2020 12:04:40.000,77.870,-75.065,28435.445552
1 Jan 2020 12:05:10.000,79.567,-75.063,28484.020869
1 Jan 2020 12:05:40.000,81.256,-75.062,28535.842850
1 Jan 2020 12:06:10.000,82.935,-75.062,28590.857527
1 Jan 2020 12:06:10.827,82.981,-75.062,28592.419164
1 Jan 2020 13:14:26.892,300.052,-75.068,28595.056033
1 Jan 2020 13:14:56.000,301.127,-75.072,28428.126065
1 Jan 2020 13:15:26.000,302.242,-75.084,28256.049410
1 Jan 2020 13:15:56.000,303.365,-75.103,28084.107610
1 Jan 2020 13:16:26.000,304.497,-75.131,27912.474955
1 Jan 2020 13:16:56.000,305.641,-75.167,27741.329424
1 Jan 2020 13:17:26.000,306.798,-75.211,27570.852593
1 Jan 2020 13:17:56.000,307.969,-75.264,27401.229534
1 Jan 2020 13:18:26.000,309.156,-75.326,27232.648701
1 Jan 2020 13:18:56.000,310.362,-75.396,27065.301790
1 Jan 2020 13:19:26.000,311.588,-75.474,26899.383582
1 Jan 2020 13:19:56.000,312.836,-75.561,26735.091768
1 Jan 2020 13:20:26.000,314.108,-75.657,26572.626748
1 Jan 2020 13:20:56.000,315.408,-75.760,26412.191409
1 Jan 2020 13:21:26.000,316.736,-75.872,26253.990876
1 Jan 2020 13:21:56.000,318.097,-75.992,26098.232242
1 Jan 2020 13:22:26.000,319.491,-76.120,25945.124264
1 Jan 2020 13:22:56.000,320.923,-76.255,25794.877034
1 Jan 2020 13:23:26.000,322.395,-76.397,25647.701628
1 Jan 2020 13:23:56.000,323.911,-76.546,25503.809489
1 Jan 2020 13:24:26.000,325.472,-76.701,25363.412920
1 Jan 2020 13:24:56.000,327.084,-76.861,25226.723272
1 Jan 2020 13:25:26.000,328.749,-77.027,25093.951386
1 Jan 2020 13:25:56.000,330.470,-77.197,24965.306861
1 Jan 2020 13:26:26.000,332.252,-77.371,24840.997521
1 Jan 2020 13:26:56.000,334.098,-77.548,24721.228865
1 Jan 2020 13:27:26.000,336.012,-77.727,24606.203320
1 Jan 2020 13:27:56.000,337.996,-77.907,24496.120285
1 Jan 2020 13:28:26.000,340.055,-78.087,24391.174529
1 Jan 2020 13:28:56.000,342.192,-78.266,24291.556218
1 Jan 2020 13:29:26.000,344.410,-78.442,24197.450090
1 Jan 2020 13:29:56.000,346.710,-78.615,24109.034798
1 Jan 2020 13:30:26.000,349.095,-78.783,24026.482139
1 Jan 2020 13:30:56.000,351.565,-78.944,23949.956841
1 Jan 2020 13:31:26.000,354.121,-79.097,23879.615214
1 Jan 2020 13:31:56.000,356.760,-79.242,23815.604980
1 Jan 2020 13:32:26.000,359.482,-79.375,23758.064527
1 Jan 2020 13:32:56.000,2.282,-79.497,23707.122257
1 Jan 2020 13:33:26.000,5.155,-79.604,23662.896224
1 Jan 2020 13:33:56.000,8.093,-79.698,23625.493265
1 Jan 2020 13:34:26.000,11.089,-79.775,23595.008736
1 Jan 2020 13:34:56.000,14.132,-79.835,23571.526006
1 Jan 2020 13:35:26.000,17.211,-79.878,23555.116068
1 Jan 2020 13:35:56.000,20.314,-79.902,23545.837168
1 Jan 2020 13:36:26.000,23.427,-79.907,23543.734552
1 Jan 2020 13:36:56.000,26.537,-79.894,23548.840244
1 Jan 2020 13:37:26.000,29.630,-79.862,23561.172889
1 Jan 2020 13:37:56.000,32.693,-79.811,23580.737756
1 Jan 2020 13:38:26.000,35.714,-79.742,23607.526411
1 Jan 2020 13:38:56.000,38.680,-79.657,23641.517212
1 Jan 2020 13:39:26.000,41.583,-79.555,23682.675148
1 Jan 2020 13:39:56.000,44.412,-79.438,23730.952095
1 Jan 2020 13:40:26.000,47.162,-79.308,23786.287205
1 Jan 2020 13:40:56.000,49.826,-79.165,23848.606663
1 Jan 2020 13:41:26.000,52.401,-79.012,23917.824870
1 Jan 2020 13:41:56.000,54.883,-78.849,23993.844323
1 Jan 2020 13:42:26.000,57.273,-78.678,24076.556218
1 Jan 2020 13:42:56.000,59.569,-78.501,24165.841141
1 Jan 2020 13:43:26.000,61.772,-78.319,24261.568868
1 Jan 2020 13:43:56.000,63.884,-78.134,24363.600035
1 Jan 2020 13:44:26.000,65.907,-77.946,24471.786015
1 Jan 2020 13:44:56.000,67.844,-77.757,24585.969712
1 Jan 2020 13:45:26.000,69.698,-77.569,24705.986185
1 Jan 2020 13:45:56.000,71.472,-77.382,24831.663549
1 Jan 2020 13:46:26.000,73.170,-77.198,24962.822575
1 Jan 2020 13:46:56.000,74.794,-77.017,25099.278865
1 Jan 2020 13:47:26.000,76.349,-76.841,25240.842463
1 Jan 2020 13:47:56.000,77.839,-76.671,25387.318722
1 Jan 2020 13:48:26.000,79.266,-76.506,25538.508908
1 Jan 2020 13:48:56.000,80.634,-76.348,25694.210784
1 Jan 2020 13:49:26.000,81.946,-76.197,25854.219463
1 Jan 2020 13:49:56.000,83.205,-76.054,26018.326792
1 Jan 2020 13:50:26.000,84.415,-75.920,26186.323595
1 Jan 2020 13:50:56.000,85.577,-75.794,26357.999016
1 Jan 2020 13:51:26.000,86.696,-75.678,26533.141270
1 Jan 2020 13:51:56.000,87.772,-75.571,26711.538078
1 Jan 2020 13:52:26.000,88.810,-75.474,26892.977072
1 Jan 2020 13:52:56.000,89.810,-75.387,27077.246177
1 Jan 2020 13:53:26.000,90.775,-75.310,27264.133964
1 Jan 2020 13:53:56.000,91.708,-75.243,27453.429971
1 Jan 2020 13:54:26.000,92.610,-75.187,27644.925008
1 Jan 2020 13:54:56.000,93.482,-75.141,27838.411424
1 Jan 2020 13:55:26.000,94.327,-75.106,28033.683359
1 Jan 2020 13:55:56.000,95.147,-75.081,28230.537299
1 Jan 2020 13:56:26.000,95.942,-75.067,28428.770952
1 Jan 2020 13:56:51.233,96.593,-75.064,28596.427740
1 Jan 2020 14:59:54.607,281.640,-75.073,28601.349610
1 Jan 2020 15:00:24.000,281.511,-75.079,28383.736920
1 Jan 2020 15:00:54.000,281.366,-75.098,28161.922343
1 Jan 2020 15:01:24.000,281.206,-75.131,27940.608854
1 Jan 2020 15:01:54.000,281.030,-75.178,27720.007420
1 Jan 2020 15:02:24.000,280.838,-75.239,27500.333375
1 Jan 2020 15:02:54.000,280.628,-75.314,27281.806350
1 Jan 2020 15:03:24.000,280.401,-75.403,27064.650176
1 Jan 2020 15:03:54.000,280.155,-75.508,26849.092767
1 Jan 2020 15:04:24.000,279.890,-75.627,26635.365972
1 Jan 2020 15:04:54.000,279.602,-75.762,26423.705410
1 Jan 2020 15:05:24.000,279.293,-75.911,26214.350265
1 Jan 2020 15:05:54.000,278.959,-76.077,26007.543054
1 Jan 2020 15:06:24.000,278.599,-76.257,25803.529361
1 Jan 2020 15:06:54.000,278.211,-76.454,25602.557530
1 Jan 2020 15:07:24.000,277.793,-76.666,25404.878322
1 Jan 2020 15:07:54.000,277.342,-76.893,25210.744173
1 Jan 2020 15:08:24.000,276.855,-77.137,25020.410204
1 Jan 2020 15:08:54.000,276.330,-77.396,24834.131580
1 Jan 2020 15:09:24.000,275.761,-77.670,24652.164441
1 Jan 2020 15:09:54.000,275.145,-77.959,24474.764972
1 Jan 2020 15:10:24.000,274.477,-78.263,24302.188792
1 Jan 2020 15:10:54.000,273.751,-78.582,24134.690288
1 Jan 2020 15:11:24.000,272.959,-78.915,23972.521597
1 Jan 2020 15:11:54.000,272.095,-79.261,23815.933112
1 Jan 2020 15:12:24.000,271.148,-79.621,23665.170781
1 Jan 2020 15:12:54.000,270.108,-79.992,23520.476551
1 Jan 2020 15:13:24.000,268.961,-80.375,23382.087171
1 Jan 2020 15:13:54.000,267.692,-80.768,23250.233060
1 Jan 2020 15:14:24.000,266.283,-81.170,23125.138318
1 Jan 2020 15:14:54.000,264.710,-81.580,23007.018347
1 Jan 2020 15:15:24.000,262.947,-81.995,22896.079860
1 Jan 2020 15:15:54.000,260.961,-82.415,22792.519680
1 Jan 2020 15:16:24.000,258.712,-82.835,22696.523582
1 Jan 2020 15:16:54.000,256.153,-83.254,22608.266168
1 Jan 2020 15:17:24.000,253.226,-83.668,22527.908726
1 Jan 2020 15:17:54.000,249.864,-84.072,22455.599193
1 Jan 2020 15:18:24.000,245.987,-84.462,22391.471003
1 Jan 2020 15:18:54.000,241.511,-84.830,22335.642812
1 Jan 2020 15:19:24.000,236.348,-85.168,22288.217051
1 Jan 2020 15:19:54.000,230.428,-85.468,22249.279831
1 Jan 2020 15:20:24.000,223.719,-85.718,22218.900221
1 Jan 2020 15:20:54.000,216.265,-85.908,22197.130081
1 Jan 2020 15:21:24.000,208.212,-86.027,22184.003319
1 Jan 2020 15:21:54.000,199.821,-86.069,22179.535966
1 Jan 2020 15:22:24.000,191.425,-86.029,22183.725993
1 Jan 2020 15:22:54.000,183.358,-85.912,22196.553320
1 Jan 2020 15:23:24.000,175.880,-85.725,22217.979904
1 Jan 2020 15:23:54.000,169.140,-85.477,22247.950003
1 Jan 2020 15:24:24.000,163.180,-85.180,22286.390565
1 Jan 2020 15:24:54.000,157.971,-84.844,22333.211425
1 Jan 2020 15:25:24.000,153.440,-84.480,22388.306183
1 Jan 2020 15:25:54.000,149.502,-84.094,22451.552616
1 Jan 2020 15:26:24.000,146.070,-83.693,22522.813545
1 Jan 2020 15:26:54.000,143.067,-83.283,22601.937162
1 Jan 2020 15:27:24.000,140.423,-82.868,22688.758520
1 Jan 2020 15:27:54.000,138.083,-82.452,22783.099989
1 Jan 2020 15:28:24.000,135.997,-82.037,22884.772283
1 Jan 2020 15:28:54.000,134.126,-81.626,22993.575614
1 Jan 2020 15:29:24.000,132.438,-81.220,23109.299850
1 Jan 2020 15:29:54.000,130.904,-80.823,23231.726674
1 Jan 2020 15:30:24.000,129.503,-80.434,23360.629781
1 Jan 2020 15:30:54.000,128.215,-80.055,23495.776021
1 Jan 2020 15:31:24.000,127.025,-79.688,23636.926573
1 Jan 2020 15:31:54.000,125.920,-79.332,23783.836958
1 Jan 2020 15:32:24.000,124.889,-78.989,23936.259255
1 Jan 2020 15:32:54.000,123.921,-78.660,24093.942066
1 Jan 2020 15:33:24.000,123.010,-78.344,24256.631541
1 Jan 2020 15:33:54.000,122.147,-78.042,24424.072140
1 Jan 2020 15:34:24.000,121.328,-77.755,24596.007348
1 Jan 2020 15:34:54.000,120.546,-77.483,24772.180637
1 Jan 2020 15:35:24.000,119.797,-77.225,24952.334911
1 Jan 2020 15:35:54.000,119.077,-76.982,25136.214831
1 Jan 2020 15:36:24.000,118.383,-76.755,25323.566174
1 Jan 2020 15:36:54.000,117.711,-76.542,25514.136603
1 Jan 2020 15:37:24.000,117.058,-76.345,25707.676091
1 Jan 2020 15:37:54.000,116.423,-76.162,25903.937311
1 Jan 2020 15:38:24.000,115.803,-75.994,26102.675982
1 Jan 2020 15:38:54.000,115.195,-75.841,26303.651170
1 Jan 2020 15:39:24.000,114.598,-75.702,26506.625554
1 Jan 2020 15:39:54.000,114.011,-75.578,26711.365665
1 Jan 2020 15:40:24.000,113.431,-75.468,26917.642076
1 Jan 2020 15:40:54.000,112.858,-75.372,27125.229576
1 Jan 2020 15:41:24.000,112.289,-75.290,27333.907310
1 Jan 2020 15:41:54.000,111.724,-75.221,27543.458890
1 Jan 2020 15:42:24.000,111.162,-75.165,27753.672493
1 Jan 2020 15:42:54.000,110.601,-75.122,27964.340927
1 Jan 2020 15:43:24.000,110.041,-75.091,28175.261683
1 Jan 2020 15:43:54.000,109.479,-75.073,28386.236973
1 Jan 2020 15:44:24.000,108.917,-75.067,28597.073745
1 Jan 2020 15:44:24.906,108.900,-75.067,28603.437982
1 Jan 2020 16:48:44.810,271.435,-75.076,28608.337068
1 Jan 2020 16:49:14.000,270.124,-75.079,28471.634904
1 Jan 2020 16:49:44.000,268.756,-75.086,28333.499977
1 Jan 2020 16:50:14.000,267.364,-75.099,28197.908749
1 Jan 2020 16:50:44.000,265.949,-75.116,28065.012459
1 Jan 2020 16:51:14.000,264.509,-75.137,27934.960517
1 Jan 2020 16:51:44.000,263.044,-75.163,27807.900209
1 Jan 2020 16:52:14.000,261.553,-75.192,27683.976397
1 Jan 2020 16:52:44.000,260.036,-75.225,27563.331214
1 Jan 2020 16:53:14.000,258.492,-75.262,27446.103753
1 Jan 2020 16:53:44.000,256.921,-75.301,27332.429744
1 Jan 2020 16:54:14.000,255.321,-75.343,27222.441017
1 Jan 2020 16:54:44.000,253.694,-75.387,27116.266049
1 Jan 2020 16:55:14.000,252.038,-75.433,27014.028319
1 Jan 2020 16:55:44.000,250.353,-75.480,26915.846871
1 Jan 2020 16:56:14.000,248.640,-75.529,26821.835763
1 Jan 2020 16:56:44.000,246.898,-75.578,26732.103751
1 Jan 2020 16:57:14.000,245.128,-75.627,26646.753974
1 Jan 2020 16:57:44.000,243.331,-75.677,26565.883497
1 Jan 2020 16:58:14.000,241.506,-75.725,26489.583649
1 Jan 2020 16:58:44.000,239.654,-75.773,26417.938776
1 Jan 2020 16:59:14.000,237.777,-75.819,26351.026630
1 Jan 2020 16:59:44.000,235.875,-75.864,26288.917947
1 Jan 2020 17:00:14.000,233.950,-75.906,26231.676218
1 Jan 2020 17:00:44.000,232.003,-75.946,26179.357479
1 Jan 2020 17:01:14.000,230.035,-75.983,26132.009997
1 Jan 2020 17:01:44.000,228.048,-76.016,26089.674596
1 Jan 2020 17:02:14.000,226.043,-76.047,26052.383772
1 Jan 2020 17:02:44.000,224.024,-76.074,26020.162078
1 Jan 2020 17:03:14.000,221.991,-76.096,25993.025916
1 Jan 2020 17:03:44.000,219.946,-76.115,25970.983476
1 Jan 2020 17:04:14.000,217.893,-76.130,25954.034647
1 Jan 2020 17:04:44.000,215.833,-76.140,25942.171269
1 Jan 2020 17:05:14.000,213.769,-76.146,25935.376772
1 Jan 2020 17:05:44.000,211.702,-76.147,25933.626509
1 Jan 2020 17:06:14.000,209.635,-76.144,25936.887769
1 Jan 2020 17:06:44.000,207.571,-76.137,25945.119901
1 Jan 2020 17:07:14.000,205.511,-76.125,25958.274439
1 Jan 2020 17:07:44.000,203.457,-76.110,25976.295341
1 Jan 2020 17:08:14.000,201.412,-76.090,25999.119078
1 Jan 2020 17:08:44.000,199.377,-76.067,26026.674931
1 Jan 2020 17:09:14.000,197.355,-76.040,26058.885215
1 Jan 2020 17:09:44.000,195.346,-76.010,26095.665536
1 Jan 2020 17:10:14.000,193.353,-75.977,26136.925077
1 Jan 2020 17:10:44.000,191.376,-75.941,26182.566930
1 Jan 2020 17:11:14.000,189.417,-75.903,26232.488256
1 Jan 2020 17:11:44.000,187.476,-75.862,26286.580824
1 Jan 2020 17:12:14.000,185.555,-75.821,26344.731206
1 Jan 2020 17:12:44.000,183.655,-75.777,26406.821147
1 Jan 2020 17:13:14.000,181.775,-75.733,26472.727912
1 Jan 2020 17:13:44.000,179.916,-75.688,26542.324637
1 Jan 2020 17:14:14.000,178.079,-75.642,26615.480672
1 Jan 2020 17:14:44.000,176.263,-75.597,26692.062022
1 Jan 2020 17:15:14.000,174.469,-75.552,26771.931357
1 Jan 2020 17:15:44.000,172.696,-75.507,26854.948851
1 Jan 2020 17:16:14.000,170.944,-75.463,26940.972197
1 Jan 2020 17:16:44.000,169.213,-75.421,27029.857018
1 Jan 2020 17:17:14.000,167.502,-75.380,27121.457191
1 Jan 2020 17:17:44.000,165.811,-75.341,27215.625165
1 Jan 2020 17:18:14.000,164.139,-75.303,27312.212265
1 Jan 2020 17:18:44.000,162.486,-75.268,27411.068987
1 Jan 2020 17:19:14.000,160.851,-75.235,27512.045285
1 Jan 2020 17:19:44.000,159.233,-75.205,27614.990842
1 Jan 2020 17:20:14.000,157.631,-75.178,27719.755328
1 Jan 2020 17:20:44.000,156.045,-75.153,27826.188654
1 Jan 2020 17:21:14.000,154.474,-75.131,27934.141202
1 Jan 2020 17:21:44.000,152.917,-75.113,28043.464051
1 Jan 2020 17:22:14.000,151.373,-75.097,28154.009337
1 Jan 2020 17:22:44.000,149.841,-75.085,28265.629855
1 Jan 2020 17:23:14.000,148.321,-75.077,28378.180133
1 Jan 2020 17:23:44.000,146.811,-75.072,28491.516017
1 Jan 2020 17:24:14.000,145.310,-75.070,28605.494979
1 Jan 2020 17:24:14.918,145.265,-75.070,28608.990506
1 Jan 2020 19:45:22.119,47.074,-75.074,28610.258277
1 Jan 2020 19:45:52.000,45.704,-75.076,28473.833483
1 Jan 2020 19:46:22.000,44.318,-75.084,28337.163778
1 Jan 2020 19:46:52.000,42.922,-75.096,28200.943762
1 Jan 2020 19:47:22.000,41.515,-75.114,28065.329152
1 Jan 2020 19:47:52.000,40.095,-75.137,27930.478146
1 Jan 2020 19:48:22.000,38.661,-75.164,27796.551282
1 Jan 2020 19:48:52.000,37.212,-75.197,27663.711286
1 Jan 2020 19:49:22.000,35.746,-75.234,27532.122908
1 Jan 2020 19:49:52.000,34.263,-75.276,27401.952735
1 Jan 2020 19:50:22.000,32.760,-75.323,27273.368993
1 Jan 2020 19:50:52.000,31.237,-75.374,27146.541334
1 Jan 2020 19:51:22.000,29.692,-75.430,27021.640605
1 Jan 2020 19:51:52.000,28.123,-75.490,26898.838594
1 Jan 2020 19:52:22.000,26.531,-75.554,26778.307766
1 Jan 2020 19:52:52.000,24.912,-75.621,26660.220981
1 Jan 2020 19:53:22.000,23.266,-75.692,26544.751186
1 Jan 2020 19:53:52.000,21.592,-75.766,26432.071099
1 Jan 2020 19:54:22.000,19.888,-75.842,26322.352729
1 Jan 2020 19:54:52.000,18.154,-75.921,26215.767594
1 Jan 2020 19:55:22.000,16.388,-76.002,26112.485482
1 Jan 2020 19:55:52.000,14.589,-76.084,26012.674651
1 Jan 2020 19:56:22.000,12.756,-76.167,25916.501279
1 Jan 2020 19:56:52.000,10.890,-76.251,25824.129051
1 Jan 2020 19:57:22.000,8.988,-76.335,25735.718736
1 Jan 2020 19:57:52.000,7.051,-76.418,25651.427749
1 Jan 2020 19:58:22.000,5.079,-76.500,25571.409619
1 Jan 2020 19:58:52.000,3.072,-76.580,25495.813913
1 Jan 2020 19:59:22.000,1.030,-76.659,25424.785216
1 Jan 2020 19:59:52.000,358.953,-76.734,25358.463062
1 Jan 2020 20:00:22.000,356.843,-76.806,25296.981391
1 Jan 2020 20:00:52.000,354.701,-76.873,25240.468100
1 Jan 2020 20:01:22.000,352.528,-76.937,25189.044610
1 Jan 2020 20:01:52.000,350.326,-76.995,25142.825402
1 Jan 2020 20:02:22.000,348.098,-77.047,25101.917766
1 Jan 2020 20:02:52.000,345.846,-77.093,25066.421155
1 Jan 2020 20:03:22.000,343.573,-77.133,25036.426993
1 Jan 2020 20:03:52.000,341.282,-77.166,25012.018284
1 Jan 2020 20:04:22.000,338.977,-77.191,24993.269284
1 Jan 2020 20:04:52.000,336.661,-77.209,24980.245242
1 Jan 2020 20:05:22.000,334.338,-77.219,24973.002058
1 Jan 2020 20:05:52.000,332.012,-77.221,24971.586169
1 Jan 2020 20:06:22.000,329.688,-77.215,24976.034301
1 Jan 2020 20:06:52.000,327.369,-77.201,24986.373334
1 Jan 2020 20:07:22.000,325.060,-77.179,25002.620199
1 Jan 2020 20:07:52.000,322.765,-77.149,25024.781897
1 Jan 2020 20:08:22.000,320.487,-77.112,25052.855137
1 Jan 2020 20:08:52.000,318.231,-77.068,25086.826842
1 Jan 2020 20:09:22.000,315.999,-77.016,25126.673893
1 Jan 2020 20:09:52.000,313.796,-76.959,25172.363305
1 Jan 2020 20:10:22.000,311.624,-76.895,25223.852360
1 Jan 2020 20:10:52.000,309.486,-76.826,25281.088931
1 Jan 2020 20:11:22.000,307.384,-76.752,25344.011123
1 Jan 2020 20:11:52.000,305.319,-76.674,25412.548357
1 Jan 2020 20:12:22.000,303.294,-76.592,25486.621095
1 Jan 2020 20:12:52.000,301.310,-76.507,25566.141284
1 Jan 2020 20:13:22.000,299.368,-76.420,25651.012681
1 Jan 2020 20:13:52.000,297.469,-76.331,25741.131394
1 Jan 2020 20:14:22.000,295.612,-76.242,25836.385526
1 Jan 2020 20:14:52.000,293.799,-76.152,25936.656642
1 Jan 2020 20:15:22.000,292.028,-76.062,26041.819463
1 Jan 2020 20:15:52.000,290.300,-75.973,26151.742451
1 Jan 2020 20:16:22.000,288.614,-75.886,26266.288232
1 Jan 2020 20:16:52.000,286.970,-75.800,26385.314020
1 Jan 2020 20:17:22.000,285.367,-75.718,26508.672269
1 Jan 2020 20:17:52.000,283.803,-75.638,26636.210191
1 Jan 2020 20:18:22.000,282.278,-75.562,26767.771530
1 Jan 2020 20:18:52.000,280.791,-75.491,26903.196085
1 Jan 2020 20:19:22.000,279.341,-75.424,27042.320335
1 Jan 2020 20:19:52.000,277.926,-75.361,27184.977840
1 Jan 2020 20:20:22.000,276.546,-75.305,27330.999629
1 Jan 2020 20:20:52.000,275.198,-75.254,27480.214573
1 Jan 2020 20:21:22.000,273.882,-75.209,27632.449749
1 Jan 2020 20:21:52.000,272.596,-75.170,27787.530785
1 Jan 2020 20:22:22.000,271.339,-75.137,27945.282464
1 Jan 2020 20:22:52.000,270.111,-75.112,28105.527959
1 Jan 2020 20:23:22.000,268.908,-75.093,28268.090748
1 Jan 2020 20:23:52.000,267.731,-75.082,28432.793829
1 Jan 2020 20:24:22.000,266.578,-75.078,28599.460249
1 Jan 2020 20:24:23.779,266.511,-75.078,28609.404069
1 Jan 2020 21:28:04.046,74.224,-75.069,28604.996512
1 Jan 2020 21:28:34.000,73.919,-75.076,28386.022754
1 Jan 2020 21:29:04.000,73.619,-75.095,28166.665432
1 Jan 2020 21:29:34.000,73.326,-75.128,27947.458857
1 Jan 2020 21:30:04.000,73.037,-75.174,27728.607607
1 Jan 2020 21:30:34.000,72.754,-75.234,27510.321064
1 Jan 2020 21:31:04.000,72.476,-75.309,27292.813387
1 Jan 2020 21:31:34.000,72.201,-75.398,27076.303455
1 Jan 2020 21:32:04.000,71.930,-75.501,26861.014797
1 Jan 2020 21:32:34.000,71.663,-75.620,26647.175494
1 Jan 2020 21:33:04.000,71.398,-75.755,26435.018062
1 Jan 2020 21:33:34.000,71.135,-75.905,26224.779302
1 Jan 2020 21:34:04.000,70.873,-76.070,26016.700121
1 Jan 2020 21:34:34.000,70.613,-76.252,25811.025327
1 Jan 2020 21:35:04.000,70.353,-76.450,25608.003379
1 Jan 2020 21:35:34.000,70.092,-76.665,25407.886106
1 Jan 2020 21:36:04.000,69.830,-76.896,25210.928385
1 Jan 2020 21:36:34.000,69.566,-77.145,25017.387444
1 Jan 2020 21:37:04.000,69.298,-77.409,24827.523768
1 Jan 2020 21:37:34.000,69.027,-77.691,24641.598660
1 Jan 2020 21:38:04.000,68.750,-77.990,24459.875057
1 Jan 2020 21:38:34.000,68.466,-78.305,24282.616639
1 Jan 2020 21:39:04.000,68.173,-78.637,24110.087221
1 Jan 2020 21:39:34.000,67.870,-78.986,23942.550090
1 Jan 2020 21:40:04.000,67.554,-79.352,23780.267001
1 Jan 2020 21:40:34.000,67.222,-79.733,23623.498588
1 Jan 2020 21:41:04.000,66.872,-80.131,23472.501772
1 Jan 2020 21:41:34.000,66.498,-80.544,23327.530097
1 Jan 2020 21:42:04.000,66.097,-80.973,23188.832527
1 Jan 2020 21:42:34.000,65.662,-81.416,23056.652289
1 Jan 2020 21:43:04.000,65.185,-81.874,22931.226781
1 Jan 2020 21:43:34.000,64.657,-82.345,22812.785235
1 Jan 2020 21:44:04.000,64.064,-82.829,22701.548604
1 Jan 2020 21:44:34.000,63.390,-83.325,22597.728308
1 Jan 2020 21:45:04.000,62.612,-83.832,22501.525028
1 Jan 2020 21:45:34.000,61.698,-84.350,22413.128431
1 Jan 2020 21:46:04.000,60.601,-84.876,22332.715047
1 Jan 2020 21:46:34.000,59.254,-85.410,22260.448078
1 Jan 2020 21:47:04.000,57.552,-85.949,22196.476189
1 Jan 2020 21:47:34.000,55.325,-86.491,22140.933071
1 Jan 2020 21:48:04.000,52.283,-87.033,22093.936002
1 Jan 2020 21:48:34.000,47.885,-87.569,22055.585586
1 Jan 2020 21:49:04.000,41.048,-88.087,22025.964979
1 Jan 2020 21:49:34.000,29.428,-88.561,22005.139559
1 Jan 2020 21:50:04.000,8.346,-88.927,21993.156203
1 Jan 2020 21:50:34.000,335.475,-89.046,21990.043214
1 Jan 2020 21:51:04.000,305.424,-88.838,21995.810101
1 Jan 2020 21:51:34.000,287.746,-88.428,22010.447449
1 Jan 2020 21:52:04.000,277.920,-87.936,22033.927061
1 Jan 2020 21:52:34.000,271.996,-87.411,22066.202108
1 Jan 2020 21:53:04.000,268.113,-86.872,22107.207516
1 Jan 2020 21:53:34.000,265.396,-86.329,22156.860051
1 Jan 2020 21:54:04.000,263.398,-85.787,22215.059315
1 Jan 2020 21:54:34.000,261.874,-85.248,22281.688061
1 Jan 2020 21:55:04.000,260.677,-84.716,22356.613119
1 Jan 2020 21:55:34.000,259.715,-84.191,22439.685626
1 Jan 2020 21:56:04.000,258.928,-83.675,22530.742693
1 Jan 2020 21:56:34.000,258.275,-83.170,22629.607794
1 Jan 2020 21:57:04.000,257.727,-82.677,22736.092030
1 Jan 2020 21:57:34.000,257.263,-82.195,22849.994402
1 Jan 2020 21:58:04.000,256.867,-81.727,22971.103884
1 Jan 2020 21:58:34.000,256.528,-81.272,23099.199747
1 Jan 2020 21:59:04.000,256.236,-80.832,23234.052757
1 Jan 2020 21:59:34.000,255.986,-80.407,23375.426441
1 Jan 2020 22:00:04.000,255.770,-79.997,23523.077062
1 Jan 2020 22:00:34.000,255.584,-79.603,23676.756101
1 Jan 2020 22:01:04.000,255.426,-79.226,23836.210200
1 Jan 2020 22:01:34.000,255.291,-78.864,24001.182298
1 Jan 2020 22:02:04.000,255.177,-78.520,24171.412494
1 Jan 2020 22:02:34.000,255.083,-78.192,24346.639150
1 Jan 2020 22:03:04.000,255.007,-77.881,24526.598466
1 Jan 2020 22:03:34.000,254.947,-77.587,24711.026959
1 Jan 2020 22:04:04.000,254.902,-77.310,24899.660949
1 Jan 2020 22:04:34.000,254.871,-77.050,25092.237454
1 Jan 2020 22:05:04.000,254.853,-76.807,25288.494751
1 Jan 2020 22:05:34.000,254.848,-76.580,25488.172877
1 Jan 2020 22:06:04.000,254.854,-76.371,25691.014087
1 Jan 2020 22:06:34.000,254.872,-76.178,25896.763261
1 Jan 2020 22:07:04.000,254.900,-76.002,26105.168271
1 Jan 2020 22:07:34.000,254.940,-75.842,26315.980651
1 Jan 2020 22:08:04.000,254.989,-75.697,26528.954489
1 Jan 2020 22:08:34.000,255.048,-75.569,26743.848749
1 Jan 2020 22:09:04.000,255.117,-75.456,26960.426097
1 Jan 2020 22:09:34.000,255.196,-75.358,27178.453429
1 Jan 2020 22:10:04.000,255.284,-75.276,27397.702011
1 Jan 2020 22:10:34.000,255.382,-75.208,27617.947604
1 Jan 2020 22:11:04.000,255.489,-75.154,27838.970557
1 Jan 2020 22:11:34.000,255.605,-75.114,28060.555883
1 Jan 2020 22:12:04.000,255.731,-75.088,28282.493309
1 Jan 2020 22:12:34.000,255.866,-75.076,28504.577316
1 Jan 2020 22:12:47.287,255.929,-75.075,28602.932196
1 Jan 2020 23:16:09.999,85.314,-75.065,28597.721252
1 Jan 2020 23:16:39.000,86.294,-75.069,28422.937127
1 Jan 2020 23:17:09.000,87.332,-75.082,28243.766311
1 Jan 2020 23:17:39.000,88.394,-75.103,28066.442639
1 Jan 2020 23:18:09.000,89.484,-75.133,27891.154820
1 Jan 2020 23:18:39.000,90.602,-75.171,27718.092363
1 Jan 2020 23:19:09.000,91.751,-75.217,27547.445315
1 Jan 2020 23:19:39.000,92.931,-75.271,27379.403979
1 Jan 2020 23:20:09.000,94.144,-75.332,27214.158625
1 Jan 2020 23:20:39.000,95.392,-75.401,27051.899162
1 Jan 2020 23:21:09.000,96.676,-75.478,26892.814807
1 Jan 2020 23:21:39.000,97.999,-75.561,26737.093721
1 Jan 2020 23:22:09.000,99.362,-75.650,26584.922354
1 Jan 2020 23:22:39.000,100.767,-75.745,26436.486168
1 Jan 2020 23:23:09.000,102.215,-75.846,26291.967530
1 Jan 2020 23:23:39.000,103.709,-75.952,26151.546411
1 Jan 2020 23:24:09.000,105.250,-76.062,26015.399653
1 Jan 2020 23:24:39.000,106.839,-76.176,25883.700504
1 Jan 2020 23:25:09.000,108.479,-76.293,25756.618142
1 Jan 2020 23:25:39.000,110.171,-76.413,25634.316954
1 Jan 2020 23:26:09.000,111.916,-76.535,25516.956987
1 Jan 2020 23:26:39.000,113.715,-76.657,25404.692021
1 Jan 2020 23:27:09.000,115.570,-76.780,25297.670026
1 Jan 2020 23:27:39.000,117.481,-76.903,25196.032423
1 Jan 2020 23:28:09.000,119.448,-77.024,25099.913589
1 Jan 2020 23:28:39.000,121.472,-77.143,25009.440183
1 Jan 2020 23:29:09.000,123.552,-77.258,24924.731436
1 Jan 2020 23:29:39.000,125.688,-77.370,24845.897537
1 Jan 2020 23:30:09.000,127.879,-77.476,24773.039981
1 Jan 2020 23:30:39.000,130.122,-77.577,24706.250958
1 Jan 2020 23:31:09.000,132.415,-77.671,24645.612845
1 Jan 2020 23:31:39.000,134.756,-77.758,24591.198376
1 Jan 2020 23:32:09.000,137.141,-77.836,24543.069536
1 Jan 2020 23:32:39.000,139.566,-77.906,24501.277829
1 Jan 2020 23:33:09.000,142.027,-77.965,24465.863902
1 Jan 2020 23:33:39.000,144.518,-78.015,24436.857287
1 Jan 2020 23:34:09.000,147.034,-78.054,24414.276588
1 Jan 2020 23:34:39.000,149.569,-78.083,24398.128881
1 Jan 2020 23:35:09.000,152.118,-78.100,24388.410027
1 Jan 2020 23:35:39.000,154.673,-78.106,24385.104590
1 Jan 2020 23:36:09.000,157.229,-78.101,24388.185874
1 Jan 2020 23:36:39.000,159.779,-78.084,24397.616150
1 Jan 2020 23:37:09.000,162.317,-78.057,24413.346628
1 Jan 2020 23:37:39.000,164.837,-78.019,24435.317803
1 Jan 2020 23:38:09.000,167.334,-77.971,24463.459672
1 Jan 2020 23:38:39.000,169.803,-77.913,24497.692056
1 Jan 2020 23:39:09.000,172.239,-77.846,24537.924846
1 Jan 2020 23:39:39.000,174.639,-77.771,24584.058502
1 Jan 2020 23:40:09.000,176.999,-77.688,24635.984384
1 Jan 2020 23:40:39.000,179.316,-77.599,24693.585207
1 Jan 2020 23:41:09.000,181.587,-77.503,24756.735502
1 Jan 2020 23:41:39.000,183.813,-77.402,24825.302186
1 Jan 2020 23:42:09.000,185.990,-77.297,24899.144717
1 Jan 2020 23:42:39.000,188.119,-77.188,24978.116113
1 Jan 2020 23:43:09.000,190.199,-77.076,25062.063141
1 Jan 2020 23:43:39.000,192.231,-76.963,25150.826931
1 Jan 2020 23:44:09.000,194.214,-76.848,25244.243494
1 Jan 2020 23:44:39.000,196.150,-76.732,25342.144256
1 Jan 2020 23:45:09.000,198.040,-76.617,25444.356719
1 Jan 2020 23:45:39.000,199.885,-76.503,25550.704400
1 Jan 2020 23:46:09.000,201.687,-76.390,25661.008181
1 Jan 2020 23:46:39.000,203.446,-76.280,25775.086234
1 Jan 2020 23:47:09.000,205.166,-76.172,25892.754637
1 Jan 2020 23:47:39.000,206.846,-76.068,26013.827823
1 Jan 2020 23:48:09.000,208.490,-75.967,26138.119018
1 Jan 2020 23:48:39.000,210.100,-75.870,26265.440656
1 Jan 2020 23:49:09.000,211.676,-75.778,26395.604776
1 Jan 2020 23:49:39.000,213.221,-75.690,26528.423394
1 Jan 2020 23:50:09.000,214.736,-75.608,26663.709049
1 Jan 2020 23:50:39.000,216.224,-75.531,26801.274367
1 Jan 2020 23:51:09.000,217.687,-75.459,26940.933514
1 Jan 2020 23:51:39.000,219.125,-75.393,27082.501722
1 Jan 2020 23:52:09.000,220.541,-75.333,27225.795747
1 Jan 2020 23:52:39.000,221.936,-75.280,27370.634115
1 Jan 2020 23:53:09.000,223.313,-75.232,27516.837341
1 Jan 2020 23:53:39.000,224.672,-75.190,27664.228144
1 Jan 2020 23:54:09.000,226.015,-75.155,27812.631626
1 Jan 2020 23:54:39.000,227.344,-75.126,27961.875447
1 Jan 2020 23:55:09.000,228.660,-75.103,28111.789975
1 Jan 2020 23:55:39.000,229.965,-75.087,28262.208423
1 Jan 2020 23:56:09.000,231.259,-75.076,28412.966973
1 Jan 2020 23:56:39.000,232.545,-75.072,28563.904881
1 Jan 2020 23:56:45.470,232.821,-75.072,28596.463491
2 Jan 2020 02:19:13.631,335.480,-75.065,28592.927918
2 Jan 2020 02:19:43.000,337.010,-75.066,28495.265897
2 Jan 2020 02:20:13.000,338.582,-75.070,28396.429988
2 Jan 2020 02:20:43.000,340.165,-75.076,28298.664035
2 Jan 2020 02:21:13.000,341.758,-75.085,28202.104789
2 Jan 2020 02:21:43.000,343.363,-75.096,28106.889674
2 Jan 2020 02:22:13.000,344.980,-75.109,28013.156593
2 Jan 2020 02:22:43.000,346.609,-75.125,27921.043721
2 Jan 2020 02:23:13.000,348.252,-75.142,27830.689291
2 Jan 2020 02:23:43.000,349.909,-75.162,27742.231367
2 Jan 2020 02:24:13.000,351.580,-75.183,27655.807609
2 Jan 2020 02:24:43.000,353.266,-75.206,27571.555028
2 Jan 2020 02:25:13.000,354.966,-75.231,27489.609731
2 Jan 2020 02:25:43.000,356.682,-75.256,27410.106661
2 Jan 2020 02:26:13.000,358.414,-75.283,27333.179322
2 Jan 2020 02:26:43.000,0.161,-75.310,27258.959508
2 Jan 2020 02:27:13.000,1.925,-75.338,27187.576940
2 Jan 2020 02:27:43.000,3.704,-75.367,27119.159270
2 Jan 2020 02:28:13.000,5.499,-75.395,27053.831347
2 Jan 2020 02:28:43.000,7.309,-75.424,26991.715211
2 Jan 2020 02:29:13.000,9.135,-75.452,26932.929728
2 Jan 2020 02:29:43.000,10.976,-75.479,26877.590278
2 Jan 2020 02:30:13.000,12.832,-75.506,26825.808463
2 Jan 2020 02:30:43.000,14.701,-75.532,26777.691806
2 Jan 2020 02:31:13.000,16.584,-75.556,26733.343456
2 Jan 2020 02:31:43.000,18.480,-75.579,26692.861877
2 Jan 2020 02:32:13.000,20.387,-75.600,26656.340661
2 Jan 2020 02:32:43.000,22.305,-75.619,26623.868103
2 Jan 2020 02:33:13.000,24.232,-75.636,26595.527040
2 Jan 2020 02:33:43.000,26.167,-75.651,26571.394579
2 Jan 2020 02:34:13.000,28.110,-75.663,26551.541849
2 Jan 2020 02:34:43.000,30.058,-75.673,26536.033787
2 Jan 2020 02:35:13.000,32.011,-75.680,26524.928922
2 Jan 2020 02:35:43.000,33.966,-75.684,26518.279229
2 Jan 2020 02:36:13.000,35.922,-75.685,26516.129824
2 Jan 2020 02:36:43.000,37.878,-75.684,26518.519000
2 Jan 2020 02:37:13.000,39.832,-75.679,26525.477986
2 Jan 2020 02:37:43.000,41.782,-75.672,26537.030868
2 Jan 2020 02:38:13.000,43.727,-75.662,26553.194507
2 Jan 2020 02:38:43.000,45.665,-75.649,26573.978481
2 Jan 2020 02:39:13.000,47.594,-75.633,26599.385131
2 Jan 2020 02:39:43.000,49.514,-75.615,26629.409237
2 Jan 2020 02:40:13.000,51.422,-75.595,26664.038494
2 Jan 2020 02:40:43.000,53.317,-75.572,26703.253251
2 Jan 2020 02:41:13.000,55.198,-75.548,26747.026643
2 Jan 2020 02:41:43.000,57.063,-75.521,26795.324680
2 Jan 2020 02:42:13.000,58.912,-75.493,26848.106351
2 Jan 2020 02:42:43.000,60.743,-75.464,26905.323880
2 Jan 2020 02:43:13.000,62.556,-75.434,26966.922378
2 Jan 2020 02:43:43.000,64.349,-75.403,27032.840746
2 Jan 2020 02:44:13.000,66.122,-75.372,27103.011376
2 Jan 2020 02:44:43.000,67.874,-75.341,27177.360473
2 Jan 2020 02:45:13.000,69.605,-75.310,27255.808271
2 Jan 2020 02:45:43.000,71.314,-75.279,27338.269264
2 Jan 2020 02:46:13.000,73.001,-75.250,27424.652446
2 Jan 2020 02:46:43.000,74.665,-75.221,27514.861736
2 Jan 2020 02:47:13.000,76.308,-75.194,27608.795553
2 Jan 2020 02:47:43.000,77.927,-75.169,27706.348103
2 Jan 2020 02:48:13.000,79.525,-75.145,27807.408976
2 Jan 2020 02:48:43.000,81.100,-75.124,27911.863587
2 Jan 2020 02:49:13.000,82.654,-75.106,28019.593459
2 Jan 2020 02:49:43.000,84.186,-75.091,28130.476500
2 Jan 2020 02:50:13.000,85.696,-75.078,28244.387277
2 Jan 2020 02:50:43.000,87.186,-75.069,28361.197301
2 Jan 2020 02:51:13.000,88.655,-75.064,28480.775294
2 Jan 2020 02:51:40.641,89.991,-75.062,28593.285190
2 Jan 2020 03:56:36.070,291.126,-75.070,28596.978502
2 Jan 2020 03:57:06.000,291.837,-75.075,28394.109361
2 Jan 2020 03:57:36.000,292.551,-75.092,28190.604070
2 Jan 2020 03:58:06.000,293.267,-75.120,27987.126854
2 Jan 2020 03:58:36.000,293.986,-75.159,27783.870562
2 Jan 2020 03:59:06.000,294.710,-75.211,27581.032605
2 Jan 2020 03:59:36.000,295.440,-75.274,27378.814915
2 Jan 2020 04:00:06.000,296.178,-75.350,27177.423886
2 Jan 2020 04:00:36.000,296.925,-75.439,26977.070298
2 Jan 2020 04:01:06.000,297.682,-75.540,26777.969217
2 Jan 2020 04:01:36.000,298.453,-75.655,26580.339879
2 Jan 2020 04:02:06.000,299.238,-75.782,26384.405542
2 Jan 2020 04:02:36.000,300.040,-75.923,26190.393317
2 Jan 2020 04:03:06.000,300.860,-76.078,25998.533966
2 Jan 2020 04:03:36.000,301.703,-76.245,25809.061674
2 Jan 2020 04:04:06.000,302.570,-76.426,25622.213783
2 Jan 2020 04:04:36.000,303.464,-76.621,25438.230491
2 Jan 2020 04:05:06.000,304.389,-76.829,25257.354517
2 Jan 2020 04:05:36.000,305.349,-77.050,25079.830441
2 Jan 2020 04:06:06.000,306.347,-77.284,24905.905430
2 Jan 2020 04:06:36.000,307.389,-77.531,24735.827052
2 Jan 2020 04:07:06.000,308.479,-77.791,24569.843928
2 Jan 2020 04:07:36.000,309.624,-78.063,24408.204896
2 Jan 2020 04:08:06.000,310.830,-78.347,24251.158420
2 Jan 2020 04:08:36.000,312.105,-78.641,24098.951950
2 Jan 2020 04:09:06.000,313.456,-78.947,23951.831004
2 Jan 2020 04:09:36.000,314.895,-79.262,23810.039419
2 Jan 2020 04:10:06.000,316.431,-79.585,23673.817114
2 Jan 2020 04:10:36.000,318.077,-79.917,23543.400282
2 Jan 2020 04:11:06.000,319.847,-80.255,23419.020312
2 Jan 2020 04:11:36.000,321.757,-80.597,23300.902752
2 Jan 2020 04:12:06.000,323.825,-80.943,23189.267128
2 Jan 2020 04:12:36.000,326.072,-81.290,23084.324977
2 Jan 2020 04:13:06.000,328.520,-81.636,22986.279660
2 Jan 2020 04:13:36.000,331.193,-81.978,22895.325264
2 Jan 2020 04:14:06.000,334.118,-82.313,22811.645568
2 Jan 2020 04:14:36.000,337.324,-82.638,22735.413697
2 Jan 2020 04:15:06.000,340.836,-82.949,22666.790420
2 Jan 2020 04:15:36.000,344.679,-83.241,22605.923895
2 Jan 2020 04:16:06.000,348.873,-83.509,22552.948669
2 Jan 2020 04:16:36.000,353.426,-83.748,22507.985228
2 Jan 2020 04:17:06.000,358.329,-83.954,22471.138894
2 Jan 2020 04:17:36.000,3.557,-84.119,22442.499540
2 Jan 2020 04:18:06.000,9.058,-84.241,22422.140979
2 Jan 2020 04:18:36.000,14.755,-84.314,22410.120603
2 Jan 2020 04:19:06.000,20.553,-84.336,22406.478940
2 Jan 2020 04:19:36.000,26.342,-84.307,22411.239511
2 Jan 2020 04:20:06.000,32.016,-84.227,22424.408723
2 Jan 2020 04:20:36.000,37.480,-84.098,22445.975653
2 Jan 2020 04:21:06.000,42.659,-83.926,22475.912385
2 Jan 2020 04:21:36.000,47.503,-83.714,22514.174029
2 Jan 2020 04:22:06.000,51.986,-83.468,22560.699144
2 Jan 2020 04:22:36.000,56.104,-83.193,22615.409699
2 Jan 2020 04:23:06.000,59.864,-82.894,22678.212135
2 Jan 2020 04:23:36.000,63.287,-82.577,22748.997527
2 Jan 2020 04:24:06.000,66.397,-82.246,22827.642455
2 Jan 2020 04:24:36.000,69.221,-81.904,22914.009087
2 Jan 2020 04:25:06.000,71.786,-81.555,23007.946819
2 Jan 2020 04:25:36.000,74.120,-81.203,23109.292484
2 Jan 2020 04:26:06.000,76.246,-80.850,23217.871336
2 Jan 2020 04:26:36.000,78.187,-80.498,23333.498152
