STKdata/stk_90fov_4leo/Satellite-MEO_Satellite10000-To-Satellite-LEO_Satellite10000 AER.csv

"Time (UTCG)","Azimuth (deg)","Elevation (deg)","Range (km)"
1 Jan 2020 00:00:00.000,159.733,-78.691,24076.535268
1 Jan 2020 00:00:30.000,160.690,-78.971,23942.436318
1 Jan 2020 00:01:00.000,161.713,-79.260,23812.597113
1 Jan 2020 00:01:30.000,162.807,-79.557,23687.167374
1 Jan 2020 00:02:00.000,163.981,-79.862,23566.294034
1 Jan 2020 00:02:30.000,165.244,-80.173,23450.120837
1 Jan 2020 00:03:00.000,166.604,-80.490,23338.787930
1 Jan 2020 00:03:30.000,168.075,-80.812,23232.431216
1 Jan 2020 00:04:00.000,169.669,-81.138,23131.182830
1 Jan 2020 00:04:30.000,171.400,-81.467,23035.169351
1 Jan 2020 00:05:00.000,173.287,-81.797,22944.512293
1 Jan 2020 00:05:30.000,175.347,-82.127,22859.327450
1 Jan 2020 00:06:00.000,177.602,-82.455,22779.724475
1 Jan 2020 00:06:30.000,180.077,-82.778,22705.806315
1 Jan 2020 00:07:00.000,182.798,-83.095,22637.669474
1 Jan 2020 00:07:30.000,185.791,-83.403,22575.402629
1 Jan 2020 00:08:00.000,189.087,-83.698,22519.086959
1 Jan 2020 00:08:30.000,192.711,-83.977,22468.795630
1 Jan 2020 00:09:00.000,196.689,-84.237,22424.593408
1 Jan 2020 00:09:30.000,201.037,-84.472,22386.536744
1 Jan 2020 00:10:00.000,205.758,-84.679,22354.672961
1 Jan 2020 00:10:30.000,210.839,-84.853,22329.040441
1 Jan 2020 00:11:00.000,216.242,-84.989,22309.668349
1 Jan 2020 00:11:30.000,221.904,-85.083,22296.576476
1 Jan 2020 00:12:00.000,227.737,-85.132,22289.775277
1 Jan 2020 00:12:30.000,233.636,-85.136,22289.265611
1 Jan 2020 00:13:00.000,239.486,-85.094,22295.038890
1 Jan 2020 00:13:30.000,245.180,-85.006,22307.077079
1 Jan 2020 00:14:00.000,250.629,-84.877,22325.352804
1 Jan 2020 00:14:30.000,255.765,-84.710,22349.829364
1 Jan 2020 00:15:00.000,260.550,-84.510,22380.461045
1 Jan 2020 00:15:30.000,264.967,-84.280,22417.193237
1 Jan 2020 00:16:00.000,269.018,-84.027,22459.962684
1 Jan 2020 00:16:30.000,272.718,-83.753,22508.697851
1 Jan 2020 00:17:00.000,276.092,-83.463,22563.318888
1 Jan 2020 00:17:30.000,279.165,-83.160,22623.738451
1 Jan 2020 00:18:00.000,281.967,-82.848,22689.861746
1 Jan 2020 00:18:30.000,284.525,-82.530,22761.586985
1 Jan 2020 00:19:00.000,286.867,-82.207,22838.805779
1 Jan 2020 00:19:30.000,289.015,-81.882,22921.403720
1 Jan 2020 00:20:00.000,290.993,-81.557,23009.260152
1 Jan 2020 00:20:30.000,292.819,-81.233,23102.249561
1 Jan 2020 00:21:00.000,294.510,-80.911,23200.241380
1 Jan 2020 00:21:30.000,296.082,-80.594,23303.100581
1 Jan 2020 00:22:00.000,297.548,-80.281,23410.688114
1 Jan 2020 00:22:30.000,298.920,-79.973,23522.861330
1 Jan 2020 00:23:00.000,300.208,-79.673,23639.474638
1 Jan 2020 00:23:30.000,301.420,-79.379,23760.379009
1 Jan 2020 00:24:00.000,302.565,-79.093,23885.423729
1 Jan 2020 00:24:30.000,303.650,-78.815,24014.455897
1 Jan 2020 00:25:00.000,304.681,-78.546,24147.321021
1 Jan 2020 00:25:30.000,305.663,-78.287,24283.863376
1 Jan 2020 00:26:00.000,306.601,-78.036,24423.926348
1 Jan 2020 00:26:30.000,307.499,-77.795,24567.352755
1 Jan 2020 00:27:00.000,308.362,-77.564,24713.985158
1 Jan 2020 00:27:30.000,309.193,-77.344,24863.666149
1 Jan 2020 00:28:00.000,309.994,-77.133,25016.238920
1 Jan 2020 00:28:30.000,310.769,-76.933,25171.546308
1 Jan 2020 00:29:00.000,311.521,-76.743,25329.432833
1 Jan 2020 00:29:30.000,312.250,-76.564,25489.743715
1 Jan 2020 00:30:00.000,312.960,-76.395,25652.325367
1 Jan 2020 00:30:30.000,313.652,-76.236,25817.025576
1 Jan 2020 00:31:00.000,314.328,-76.089,25983.693668
1 Jan 2020 00:31:30.000,314.989,-75.951,26152.180654
1 Jan 2020 00:32:00.000,315.638,-75.824,26322.339363
1 Jan 2020 00:32:30.000,316.274,-75.707,26494.024558
1 Jan 2020 00:33:00.000,316.900,-75.601,26667.093045
1 Jan 2020 00:33:30.000,317.517,-75.504,26841.403760
1 Jan 2020 00:34:00.000,318.125,-75.418,27016.817851
1 Jan 2020 00:34:30.000,318.726,-75.341,27193.198748
1 Jan 2020 00:35:00.000,319.321,-75.274,27370.412217
1 Jan 2020 00:35:30.000,319.910,-75.217,27548.326413
1 Jan 2020 00:36:00.000,320.494,-75.169,27726.811914
1 Jan 2020 00:36:30.000,321.074,-75.130,27905.741759
1 Jan 2020 00:37:00.000,321.651,-75.101,28084.991464
1 Jan 2020 00:37:30.000,322.225,-75.080,28264.439045
1 Jan 2020 00:38:00.000,322.797,-75.069,28443.965025
1 Jan 2020 00:38:25.625,323.285,-75.065,28597.284345
1 Jan 2020 01:54:24.806,174.668,-75.075,28603.237092
1 Jan 2020 01:54:54.000,175.616,-75.078,28457.976701
1 Jan 2020 01:55:24.000,176.601,-75.086,28309.413565
1 Jan 2020 01:55:54.000,177.599,-75.101,28161.658396
1 Jan 2020 01:56:24.000,178.609,-75.122,28014.805189
1 Jan 2020 01:56:54.000,179.634,-75.148,27868.948656
1 Jan 2020 01:57:24.000,180.674,-75.180,27724.184173
1 Jan 2020 01:57:54.000,181.729,-75.218,27580.607726
1 Jan 2020 01:58:24.000,182.801,-75.262,27438.315848
1 Jan 2020 01:58:54.000,183.890,-75.311,27297.405550
1 Jan 2020 01:59:24.000,184.997,-75.367,27157.974252
1 Jan 2020 01:59:54.000,186.124,-75.427,27020.119708
1 Jan 2020 02:00:24.000,187.271,-75.494,26883.939920
1 Jan 2020 02:00:54.000,188.440,-75.565,26749.533055
1 Jan 2020 02:01:24.000,189.631,-75.642,26616.997351
1 Jan 2020 02:01:54.000,190.845,-75.724,26486.431018
1 Jan 2020 02:02:24.000,192.084,-75.811,26357.932137
1 Jan 2020 02:02:54.000,193.349,-75.903,26231.598547
1 Jan 2020 02:03:24.000,194.641,-75.999,26107.527481
1 Jan 2020 02:03:54.000,195.961,-76.100,25985.816464
1 Jan 2020 02:04:24.000,197.311,-76.204,25866.561649
1 Jan 2020 02:04:54.000,198.691,-76.313,25749.858716
1 Jan 2020 02:05:24.000,200.104,-76.425,25635.802480
1 Jan 2020 02:05:54.000,201.550,-76.540,25524.486745
1 Jan 2020 02:06:24.000,203.031,-76.658,25416.004166
1 Jan 2020 02:06:54.000,204.547,-76.779,25310.446089
1 Jan 2020 02:07:24.000,206.102,-76.902,25207.902407
1 Jan 2020 02:07:54.000,207.695,-77.027,25108.461398
1 Jan 2020 02:08:24.000,209.328,-77.153,25012.209360
1 Jan 2020 02:08:54.000,211.002,-77.280,24919.231269
1 Jan 2020 02:09:24.000,212.719,-77.408,24829.609377
1 Jan 2020 02:09:54.000,214.479,-77.535,24743.423877
1 Jan 2020 02:10:24.000,216.283,-77.662,24660.752527
1 Jan 2020 02:10:54.000,218.133,-77.788,24581.670481
1 Jan 2020 02:11:24.000,220.029,-77.912,24506.250128
1 Jan 2020 02:11:54.000,221.971,-78.034,24434.560923
1 Jan 2020 02:12:24.000,223.959,-78.153,24366.669092
1 Jan 2020 02:12:54.000,225.994,-78.269,24302.638034
1 Jan 2020 02:13:24.000,228.076,-78.380,24242.527312
1 Jan 2020 02:13:54.000,230.203,-78.487,24186.393084
1 Jan 2020 02:14:24.000,232.375,-78.589,24134.287812
1 Jan 2020 02:14:54.000,234.590,-78.685,24086.260130
1 Jan 2020 02:15:24.000,236.847,-78.775,24042.354716
1 Jan 2020 02:15:54.000,239.143,-78.858,24002.612170
1 Jan 2020 02:16:24.000,241.476,-78.933,23967.068828
1 Jan 2020 02:16:54.000,243.844,-79.000,23935.756996
1 Jan 2020 02:17:24.000,246.241,-79.059,23908.704347
1 Jan 2020 02:17:54.000,248.666,-79.109,23885.934194
1 Jan 2020 02:18:24.000,251.113,-79.151,23867.465342
1 Jan 2020 02:18:54.000,253.578,-79.182,23853.312030
1 Jan 2020 02:19:24.000,256.057,-79.204,23843.483897
1 Jan 2020 02:19:54.000,258.545,-79.217,23837.985941
1 Jan 2020 02:20:24.000,261.036,-79.219,23836.818569
1 Jan 2020 02:20:54.000,263.526,-79.212,23839.977495
1 Jan 2020 02:21:24.000,266.010,-79.195,23847.453835
1 Jan 2020 02:21:54.000,268.482,-79.168,23859.234111
1 Jan 2020 02:22:24.000,270.938,-79.132,23875.300296
1 Jan 2020 02:22:54.000,273.374,-79.087,23895.629871
1 Jan 2020 02:23:24.000,275.786,-79.032,23920.195887
1 Jan 2020 02:23:54.000,278.169,-78.970,23948.967117
1 Jan 2020 02:24:24.000,280.519,-78.899,23981.907897
1 Jan 2020 02:24:54.000,282.835,-78.821,24018.978585
1 Jan 2020 02:25:24.000,285.113,-78.736,24060.135448
1 Jan 2020 02:25:54.000,287.352,-78.644,24105.330839
1 Jan 2020 02:26:24.000,289.549,-78.546,24154.513328
1 Jan 2020 02:26:54.000,291.702,-78.443,24207.627840
1 Jan 2020 02:27:24.000,293.812,-78.336,24264.615807
1 Jan 2020 02:27:54.000,295.876,-78.224,24325.415440
1 Jan 2020 02:28:24.000,297.896,-78.108,24389.961395
1 Jan 2020 02:28:54.000,299.870,-77.990,24458.185667
1 Jan 2020 02:29:24.000,301.800,-77.869,24530.017273
1 Jan 2020 02:29:54.000,303.685,-77.746,24605.382541
1 Jan 2020 02:30:24.000,305.525,-77.621,24684.205277
1 Jan 2020 02:30:54.000,307.323,-77.496,24766.406940
1 Jan 2020 02:31:24.000,309.078,-77.371,24851.906807
1 Jan 2020 02:31:54.000,310.793,-77.246,24940.622148
1 Jan 2020 02:32:24.000,312.467,-77.121,25032.468390
1 Jan 2020 02:32:54.000,314.102,-76.998,25127.359490
1 Jan 2020 02:33:24.000,315.700,-76.876,25225.207294
1 Jan 2020 02:33:54.000,317.262,-76.756,25325.922891
1 Jan 2020 02:34:24.000,318.788,-76.638,25429.415982
1 Jan 2020 02:34:54.000,320.281,-76.523,25535.595226
1 Jan 2020 02:35:24.000,321.742,-76.411,25644.368389
1 Jan 2020 02:35:54.000,323.172,-76.302,25755.642490
1 Jan 2020 02:36:24.000,324.572,-76.196,25869.323932
1 Jan 2020 02:36:54.000,325.944,-76.094,25985.318643
1 Jan 2020 02:37:24.000,327.288,-75.996,26103.532196
1 Jan 2020 02:37:54.000,328.607,-75.903,26223.869932
1 Jan 2020 02:38:24.000,329.901,-75.813,26346.237079
1 Jan 2020 02:38:54.000,331.172,-75.728,26470.538855
1 Jan 2020 02:39:24.000,332.421,-75.648,26596.680576
1 Jan 2020 02:39:54.000,333.648,-75.573,26724.567754
1 Jan 2020 02:40:24.000,334.855,-75.503,26854.106185
1 Jan 2020 02:40:54.000,336.043,-75.437,26985.202308
1 Jan 2020 02:41:24.000,337.213,-75.377,27117.762210
1 Jan 2020 02:41:54.000,338.365,-75.322,27251.693309
1 Jan 2020 02:42:24.000,339.502,-75.273,27386.903351
1 Jan 2020 02:42:54.000,340.623,-75.228,27523.300747
1 Jan 2020 02:43:24.000,341.730,-75.189,27660.794628
1 Jan 2020 02:43:54.000,342.823,-75.156,27799.294901
1 Jan 2020 02:44:24.000,343.904,-75.128,27938.712298
1 Jan 2020 02:44:54.000,344.972,-75.105,28078.958423
1 Jan 2020 02:45:24.000,346.030,-75.087,28219.945791
1 Jan 2020 02:45:54.000,347.077,-75.076,28361.587870
1 Jan 2020 02:46:24.000,348.114,-75.069,28503.799106
1 Jan 2020 02:46:45.384,348.847,-75.068,28605.465906
1 Jan 2020 04:05:09.766,211.099,-75.075,28610.075927
1 Jan 2020 04:05:39.000,211.914,-75.078,28452.459277
1 Jan 2020 04:06:09.000,212.755,-75.088,28290.807923
1 Jan 2020 04:06:39.000,213.602,-75.106,28129.352831
1 Jan 2020 04:07:09.000,214.456,-75.130,27968.197626
1 Jan 2020 04:07:39.000,215.317,-75.162,27807.447913
1 Jan 2020 04:08:09.000,216.187,-75.201,27647.211257
1 Jan 2020 04:08:39.000,217.066,-75.247,27487.597156
1 Jan 2020 04:09:09.000,217.956,-75.302,27328.717018
1 Jan 2020 04:09:39.000,218.856,-75.363,27170.684119
1 Jan 2020 04:10:09.000,219.770,-75.433,27013.613563
1 Jan 2020 04:10:39.000,220.697,-75.510,26857.622233
1 Jan 2020 04:11:09.000,221.638,-75.594,26702.828734
1 Jan 2020 04:11:39.000,222.596,-75.687,26549.353324
1 Jan 2020 04:12:09.000,223.571,-75.787,26397.317847
1 Jan 2020 04:12:39.000,224.566,-75.895,26246.845643
1 Jan 2020 04:13:09.000,225.580,-76.010,26098.061459
1 Jan 2020 04:13:39.000,226.617,-76.133,25951.091350
1 Jan 2020 04:14:09.000,227.677,-76.264,25806.062556
1 Jan 2020 04:14:39.000,228.764,-76.402,25663.103390
1 Jan 2020 04:15:09.000,229.878,-76.547,25522.343094
1 Jan 2020 04:15:39.000,231.022,-76.700,25383.911438
1 Jan 2020 04:16:09.000,232.198,-76.859,25247.939595
1 Jan 2020 04:16:39.000,233.408,-77.025,25114.558412
1 Jan 2020 04:17:09.000,234.656,-77.197,24983.899268
1 Jan 2020 04:17:39.000,235.944,-77.376,24856.093618
1 Jan 2020 04:18:09.000,237.275,-77.560,24731.272782
1 Jan 2020 04:18:39.000,238.653,-77.750,24609.567727
1 Jan 2020 04:19:09.000,240.080,-77.945,24491.108828
1 Jan 2020 04:19:39.000,241.561,-78.144,24376.025630
1 Jan 2020 04:20:09.000,243.099,-78.348,24264.446384
1 Jan 2020 04:20:39.000,244.698,-78.554,24156.498591
1 Jan 2020 04:21:09.000,246.363,-78.764,24052.307499
1 Jan 2020 04:21:39.000,248.098,-78.975,23951.996640
1 Jan 2020 04:22:09.000,249.908,-79.188,23855.687323
1 Jan 2020 04:22:39.000,251.797,-79.401,23763.498334
1 Jan 2020 04:23:09.000,253.771,-79.613,23675.545626
1 Jan 2020 04:23:39.000,255.834,-79.824,23591.942004
1 Jan 2020 04:24:09.000,257.991,-80.032,23512.796655
1 Jan 2020 04:24:39.000,260.246,-80.237,23438.215463
1 Jan 2020 04:25:09.000,262.604,-80.436,23368.299725
1 Jan 2020 04:25:39.000,265.068,-80.628,23303.146495
1 Jan 2020 04:26:09.000,267.640,-80.813,23242.848105
1 Jan 2020 04:26:39.000,270.322,-80.989,23187.491863
1 Jan 2020 04:27:09.000,273.114,-81.154,23137.159763
1 Jan 2020 04:27:39.000,276.015,-81.306,23091.928120
1 Jan 2020 04:28:09.000,279.022,-81.445,23051.867635
1 Jan 2020 04:28:39.000,282.128,-81.569,23017.042625
1 Jan 2020 04:29:09.000,285.325,-81.676,22987.511147
1 Jan 2020 04:29:39.000,288.604,-81.766,22963.324686
1 Jan 2020 04:30:09.000,291.951,-81.836,22944.527967
1 Jan 2020 04:30:39.000,295.352,-81.887,22931.158769
1 Jan 2020 04:31:09.000,298.788,-81.917,22923.247830
1 Jan 2020 04:31:39.000,302.243,-81.926,22920.818640
1 Jan 2020 04:32:09.000,305.697,-81.915,22923.887417
1 Jan 2020 04:32:39.000,309.132,-81.882,22932.463022
1 Jan 2020 04:33:09.000,312.528,-81.828,22946.546923
1 Jan 2020 04:33:39.000,315.869,-81.755,22966.133246
1 Jan 2020 04:34:09.000,319.139,-81.662,22991.208568
1 Jan 2020 04:34:39.000,322.326,-81.552,23021.752294
1 Jan 2020 04:35:09.000,325.418,-81.424,23057.736530
1 Jan 2020 04:35:39.000,328.407,-81.281,23099.126231
1 Jan 2020 04:36:09.000,331.287,-81.124,23145.879337
1 Jan 2020 04:36:39.000,334.055,-80.955,23197.947049
1 Jan 2020 04:37:09.000,336.709,-80.774,23255.273528
1 Jan 2020 04:37:39.000,339.247,-80.584,23317.796799
1 Jan 2020 04:38:09.000,341.673,-80.385,23385.448515
1 Jan 2020 04:38:39.000,343.988,-80.180,23458.154307
1 Jan 2020 04:39:09.000,346.196,-79.970,23535.834034
1 Jan 2020 04:39:39.000,348.301,-79.756,23618.402056
1 Jan 2020 04:40:09.000,350.307,-79.538,23705.767715
1 Jan 2020 04:40:39.000,352.218,-79.320,23797.834817
1 Jan 2020 04:41:09.000,354.040,-79.100,23894.503123
1 Jan 2020 04:41:39.000,355.777,-78.881,23995.667868
1 Jan 2020 04:42:09.000,357.435,-78.663,24101.220252
1 Jan 2020 04:42:39.000,359.017,-78.448,24211.047752
1 Jan 2020 04:43:09.000,0.528,-78.235,24325.034427
1 Jan 2020 04:43:39.000,1.973,-78.026,24443.061217
1 Jan 2020 04:44:09.000,3.356,-77.821,24565.006507
1 Jan 2020 04:44:39.000,4.680,-77.621,24690.745384
1 Jan 2020 04:45:09.000,5.950,-77.427,24820.151465
1 Jan 2020 04:45:39.000,7.168,-77.238,24953.096161
1 Jan 2020 04:46:09.000,8.337,-77.056,25089.449198
1 Jan 2020 04:46:39.000,9.462,-76.880,25229.078879
1 Jan 2020 04:47:09.000,10.544,-76.712,25371.852337
1 Jan 2020 04:47:39.000,11.586,-76.551,25517.635773
1 Jan 2020 04:48:09.000,12.591,-76.397,25666.294689
1 Jan 2020 04:48:39.000,13.562,-76.252,25817.694107
1 Jan 2020 04:49:09.000,14.499,-76.114,25971.698769
1 Jan 2020 04:49:39.000,15.405,-75.985,26128.173342
1 Jan 2020 04:50:09.000,16.282,-75.863,26286.982918
1 Jan 2020 04:50:39.000,17.132,-75.751,26447.991884
1 Jan 2020 04:51:09.000,17.956,-75.647,26611.066037
1 Jan 2020 04:51:39.000,18.756,-75.551,26776.071432
1 Jan 2020 04:52:09.000,19.533,-75.465,26942.874843
1 Jan 2020 04:52:39.000,20.288,-75.387,27111.343890
1 Jan 2020 04:53:09.000,21.024,-75.317,27281.347154
1 Jan 2020 04:53:39.000,21.740,-75.257,27452.754288
1 Jan 2020 04:54:09.000,22.438,-75.205,27625.436107
1 Jan 2020 04:54:39.000,23.119,-75.162,27799.264684
1 Jan 2020 04:55:09.000,23.784,-75.127,27974.113425
1 Jan 2020 04:55:39.000,24.434,-75.101,28149.857138
1 Jan 2020 04:56:09.000,25.070,-75.084,28326.372103
1 Jan 2020 04:56:39.000,25.692,-75.074,28503.536124
1 Jan 2020 04:56:57.134,26.062,-75.073,28610.891007
1 Jan 2020 06:09:41.694,217.004,-75.072,28610.182727
1 Jan 2020 06:10:11.000,217.025,-75.077,28420.837350
1 Jan 2020 06:10:41.000,217.039,-75.091,28227.110877
1 Jan 2020 06:11:11.000,217.047,-75.116,28033.620302
1 Jan 2020 06:11:41.000,217.048,-75.152,27840.500076
1 Jan 2020 06:12:11.000,217.042,-75.198,27647.887256
1 Jan 2020 06:12:41.000,217.029,-75.255,27455.921474
1 Jan 2020 06:13:11.000,217.008,-75.323,27264.744913
1 Jan 2020 06:13:41.000,216.980,-75.402,27074.502274
1 Jan 2020 06:14:11.000,216.945,-75.492,26885.340722
1 Jan 2020 06:14:41.000,216.901,-75.594,26697.409839
1 Jan 2020 06:15:11.000,216.850,-75.708,26510.861548
1 Jan 2020 06:15:41.000,216.789,-75.834,26325.850042
1 Jan 2020 06:16:11.000,216.720,-75.972,26142.531686
1 Jan 2020 06:16:41.000,216.641,-76.122,25961.064915
1 Jan 2020 06:17:11.000,216.553,-76.284,25781.610112
1 Jan 2020 06:17:41.000,216.454,-76.458,25604.329473
1 Jan 2020 06:18:11.000,216.344,-76.646,25429.386854
1 Jan 2020 06:18:41.000,216.222,-76.845,25256.947599
1 Jan 2020 06:19:11.000,216.088,-77.057,25087.178028
1 Jan 2020 06:19:41.000,215.941,-77.282,24920.246544
1 Jan 2020 06:20:11.000,215.779,-77.520,24756.321420
1 Jan 2020 06:20:41.000,215.602,-77.770,24595.571884
1 Jan 2020 06:21:11.000,215.409,-78.032,24438.167513
1 Jan 2020 06:21:41.000,215.197,-78.308,24284.277947
1 Jan 2020 06:22:11.000,214.965,-78.596,24134.072573
1 Jan 2020 06:22:41.000,214.711,-78.896,23987.720200
1 Jan 2020 06:23:11.000,214.433,-79.208,23845.388426
1 Jan 2020 06:23:41.000,214.128,-79.533,23707.244366
1 Jan 2020 06:24:11.000,213.793,-79.869,23573.452599
1 Jan 2020 06:24:41.000,213.425,-80.217,23444.175868
1 Jan 2020 06:25:11.000,213.018,-80.576,23319.574370
1 Jan 2020 06:25:41.000,212.567,-80.946,23199.805309
1 Jan 2020 06:26:11.000,212.066,-81.327,23085.022440
1 Jan 2020 06:26:41.000,211.508,-81.718,22975.375356
1 Jan 2020 06:27:11.000,210.882,-82.118,22871.009969
1 Jan 2020 06:27:41.000,210.176,-82.528,22772.066567
1 Jan 2020 06:28:11.000,209.374,-82.946,22678.680306
1 Jan 2020 06:28:41.000,208.459,-83.371,22590.980475
1 Jan 2020 06:29:11.000,207.403,-83.804,22509.090008
1 Jan 2020 06:29:41.000,206.175,-84.242,22433.124847
1 Jan 2020 06:30:11.000,204.728,-84.685,22363.194143
1 Jan 2020 06:30:41.000,203.004,-85.131,22299.398792
1 Jan 2020 06:31:11.000,200.915,-85.578,22241.831697
1 Jan 2020 06:31:41.000,198.342,-86.024,22190.577192
1 Jan 2020 06:32:11.000,195.105,-86.465,22145.710584
1 Jan 2020 06:32:41.000,190.940,-86.896,22107.298169
1 Jan 2020 06:33:11.000,185.446,-87.309,22075.396374
1 Jan 2020 06:33:41.000,178.027,-87.693,22050.051880
1 Jan 2020 06:34:11.000,167.873,-88.025,22031.301298
1 Jan 2020 06:34:41.000,154.215,-88.276,22019.170977
1 Jan 2020 06:35:11.000,137.239,-88.402,22013.676977
1 Jan 2020 06:35:41.000,119.186,-88.375,22014.824819
1 Jan 2020 06:36:11.000,103.204,-88.202,22022.609585
1 Jan 2020 06:36:41.000,90.795,-87.919,22037.015908
1 Jan 2020 06:37:11.000,81.665,-87.567,22058.018089
1 Jan 2020 06:37:41.000,74.967,-87.172,22085.580050
1 Jan 2020 06:38:11.000,69.960,-86.752,22119.655739
1 Jan 2020 06:38:41.000,66.120,-86.318,22160.189203
1 Jan 2020 06:39:11.000,63.100,-85.876,22207.114880
1 Jan 2020 06:39:41.000,60.668,-85.430,22260.358010
1 Jan 2020 06:40:11.000,58.670,-84.984,22319.834550
1 Jan 2020 06:40:41.000,56.997,-84.541,22385.452156
1 Jan 2020 06:41:11.000,55.575,-84.101,22457.110190
1 Jan 2020 06:41:41.000,54.348,-83.666,22534.700242
1 Jan 2020 06:42:11.000,53.277,-83.238,22618.106579
1 Jan 2020 06:42:41.000,52.330,-82.816,22707.206802
1 Jan 2020 06:43:11.000,51.486,-82.403,22801.871560
1 Jan 2020 06:43:41.000,50.726,-81.998,22901.966168
1 Jan 2020 06:44:11.000,50.036,-81.603,23007.350354
1 Jan 2020 06:44:41.000,49.404,-81.217,23117.878938
1 Jan 2020 06:45:11.000,48.822,-80.842,23233.402318
1 Jan 2020 06:45:41.000,48.282,-80.477,23353.766961
1 Jan 2020 06:46:11.000,47.779,-80.123,23478.816136
1 Jan 2020 06:46:41.000,47.306,-79.781,23608.389336
1 Jan 2020 06:47:11.000,46.861,-79.450,23742.324283
1 Jan 2020 06:47:41.000,46.438,-79.131,23880.456336
1 Jan 2020 06:48:11.000,46.036,-78.825,24022.619162
1 Jan 2020 06:48:41.000,45.651,-78.530,24168.645136
1 Jan 2020 06:49:11.000,45.281,-78.247,24318.365721
1 Jan 2020 06:49:41.000,44.925,-77.977,24471.611820
1 Jan 2020 06:50:11.000,44.581,-77.720,24628.214123
1 Jan 2020 06:50:41.000,44.246,-77.475,24788.003722
1 Jan 2020 06:51:11.000,43.921,-77.242,24950.811180
1 Jan 2020 06:51:41.000,43.603,-77.022,25116.468638
1 Jan 2020 06:52:11.000,43.291,-76.814,25284.808849
1 Jan 2020 06:52:41.000,42.986,-76.619,25455.665711
1 Jan 2020 06:53:11.000,42.685,-76.436,25628.874476
1 Jan 2020 06:53:41.000,42.388,-76.265,25804.271947
1 Jan 2020 06:54:11.000,42.095,-76.107,25981.696643
1 Jan 2020 06:54:41.000,41.804,-75.960,26160.988960
1 Jan 2020 06:55:11.000,41.516,-75.825,26341.991304
1 Jan 2020 06:55:41.000,41.229,-75.702,26524.548219
1 Jan 2020 06:56:11.000,40.943,-75.591,26708.506489
1 Jan 2020 06:56:41.000,40.658,-75.491,26893.715232
1 Jan 2020 06:57:11.000,40.373,-75.402,27080.025981
1 Jan 2020 06:57:41.000,40.088,-75.324,27267.292753
1 Jan 2020 06:58:11.000,39.802,-75.258,27455.372101
1 Jan 2020 06:58:41.000,39.516,-75.202,27644.123166
1 Jan 2020 06:59:11.000,39.228,-75.156,27833.407708
1 Jan 2020 06:59:41.000,38.938,-75.121,28023.090136
1 Jan 2020 07:00:11.000,38.647,-75.096,28213.037532
1 Jan 2020 07:00:41.000,38.353,-75.081,28403.119655
1 Jan 2020 07:01:11.000,38.056,-75.075,28593.208956
1 Jan 2020 07:01:13.464,38.032,-75.075,28608.819846
1 Jan 2020 08:15:11.660,197.468,-75.067,28603.651894
1 Jan 2020 08:15:41.000,196.665,-75.070,28443.843983
1 Jan 2020 08:16:11.000,195.832,-75.081,28281.146382
1 Jan 2020 08:16:41.000,194.985,-75.098,28119.268655
1 Jan 2020 08:17:11.000,194.123,-75.123,27958.319759
1 Jan 2020 08:17:41.000,193.245,-75.155,27798.409640
1 Jan 2020 08:18:11.000,192.351,-75.193,27639.649163
1 Jan 2020 08:18:41.000,191.440,-75.239,27482.150049
1 Jan 2020 08:19:11.000,190.510,-75.293,27326.024795
1 Jan 2020 08:19:41.000,189.560,-75.353,27171.386600
1 Jan 2020 08:20:11.000,188.590,-75.420,27018.349271
1 Jan 2020 08:20:41.000,187.598,-75.494,26867.027132
1 Jan 2020 08:21:11.000,186.583,-75.575,26717.534921
1 Jan 2020 08:21:41.000,185.544,-75.663,26569.987678
1 Jan 2020 08:22:11.000,184.479,-75.757,26424.500634
1 Jan 2020 08:22:41.000,183.388,-75.858,26281.189078
1 Jan 2020 08:23:11.000,182.268,-75.965,26140.168234
1 Jan 2020 08:23:41.000,181.118,-76.078,26001.552835
1 Jan 2020 08:24:11.000,179.936,-76.197,25865.458092
1 Jan 2020 08:24:41.000,178.721,-76.322,25731.997860
1 Jan 2020 08:25:11.000,177.471,-76.452,25601.285597
1 Jan 2020 08:25:41.000,176.185,-76.587,25473.433908
1 Jan 2020 08:26:11.000,174.860,-76.726,25348.554370
1 Jan 2020 08:26:41.000,173.494,-76.871,25226.757341
1 Jan 2020 08:27:11.000,172.085,-77.019,25108.151771
1 Jan 2020 08:27:41.000,170.632,-77.171,24992.845000
1 Jan 2020 08:28:11.000,169.132,-77.326,24880.942330
1 Jan 2020 08:28:41.000,167.583,-77.483,24772.547719
1 Jan 2020 08:29:11.000,165.983,-77.643,24667.762201
1 Jan 2020 08:29:41.000,164.329,-77.804,24566.684584
1 Jan 2020 08:30:11.000,162.620,-77.966,24469.411001
1 Jan 2020 08:30:41.000,160.854,-78.128,24376.034683
1 Jan 2020 08:31:11.000,159.028,-78.290,24286.645743
1 Jan 2020 08:31:41.000,157.141,-78.450,24201.330949
1 Jan 2020 08:32:11.000,155.192,-78.609,24120.173323
1 Jan 2020 08:32:41.000,153.177,-78.765,24043.252661
1 Jan 2020 08:33:11.000,151.098,-78.917,23970.644201
1 Jan 2020 08:33:41.000,148.952,-79.065,23902.419168
1 Jan 2020 08:34:11.000,146.740,-79.208,23838.644386
1 Jan 2020 08:34:41.000,144.462,-79.345,23779.382083
1 Jan 2020 08:35:11.000,142.118,-79.474,23724.689710
1 Jan 2020 08:35:41.000,139.711,-79.596,23674.619654
1 Jan 2020 08:36:11.000,137.243,-79.710,23629.219548
1 Jan 2020 08:36:41.000,134.716,-79.813,23588.531406
1 Jan 2020 08:37:11.000,132.134,-79.907,23552.591983
1 Jan 2020 08:37:41.000,129.502,-79.989,23521.432534
1 Jan 2020 08:38:11.000,126.826,-80.060,23495.078713
1 Jan 2020 08:38:41.000,124.111,-80.119,23473.550497
1 Jan 2020 08:39:11.000,121.366,-80.165,23456.862072
1 Jan 2020 08:39:41.000,118.596,-80.198,23445.021987
1 Jan 2020 08:40:11.000,115.810,-80.217,23438.032820
1 Jan 2020 08:40:41.000,113.017,-80.223,23435.891389
1 Jan 2020 08:41:11.000,110.224,-80.216,23438.588711
1 Jan 2020 08:41:41.000,107.441,-80.195,23446.110035
1 Jan 2020 08:42:11.000,104.674,-80.161,23458.434891
1 Jan 2020 08:42:41.000,101.933,-80.114,23475.537201
1 Jan 2020 08:43:11.000,99.223,-80.055,23497.385252
1 Jan 2020 08:43:41.000,96.552,-79.984,23523.941957
1 Jan 2020 08:44:11.000,93.925,-79.902,23555.164888
1 Jan 2020 08:44:41.000,91.348,-79.809,23591.006439
1 Jan 2020 08:45:11.000,88.824,-79.706,23631.413980
1 Jan 2020 08:45:41.000,86.357,-79.595,23676.330027
1 Jan 2020 08:46:11.000,83.950,-79.475,23725.692517
1 Jan 2020 08:46:41.000,81.604,-79.347,23779.434634
1 Jan 2020 08:47:11.000,79.321,-79.214,23837.485548
1 Jan 2020 08:47:41.000,77.100,-79.074,23899.770277
1 Jan 2020 08:48:11.000,74.943,-78.930,23966.209988
1 Jan 2020 08:48:41.000,72.848,-78.782,24036.722224
1 Jan 2020 08:49:11.000,70.815,-78.630,24111.221128
1 Jan 2020 08:49:41.000,68.842,-78.477,24189.617674
1 Jan 2020 08:50:11.000,66.928,-78.321,24271.820063
1 Jan 2020 08:50:41.000,65.070,-78.165,24357.733312
1 Jan 2020 08:51:11.000,63.268,-78.008,24447.260435
1 Jan 2020 08:51:41.000,61.519,-77.851,24540.302050
1 Jan 2020 08:52:11.000,59.820,-77.696,24636.756756
1 Jan 2020 08:52:41.000,58.170,-77.542,24736.521358
1 Jan 2020 08:53:11.000,56.567,-77.390,24839.491084
1 Jan 2020 08:53:41.000,55.009,-77.240,24945.559795
1 Jan 2020 08:54:11.000,53.492,-77.093,25054.620197
1 Jan 2020 08:54:41.000,52.016,-76.950,25166.564033
1 Jan 2020 08:55:11.000,50.578,-76.810,25281.282278
1 Jan 2020 08:55:41.000,49.176,-76.675,25398.665567
1 Jan 2020 08:56:11.000,47.808,-76.543,25518.603409
1 Jan 2020 08:56:41.000,46.472,-76.417,25640.985783
1 Jan 2020 08:57:11.000,45.167,-76.295,25765.702356
1 Jan 2020 08:57:41.000,43.891,-76.178,25892.642864
1 Jan 2020 08:58:11.000,42.642,-76.067,26021.697255
1 Jan 2020 08:58:41.000,41.419,-75.961,26152.755828
1 Jan 2020 08:59:11.000,40.220,-75.860,26285.709352
1 Jan 2020 08:59:41.000,39.043,-75.766,26420.449185
1 Jan 2020 09:00:11.000,37.888,-75.677,26556.867385
1 Jan 2020 09:00:41.000,36.753,-75.594,26694.856807
1 Jan 2020 09:01:11.000,35.636,-75.517,26834.311199
1 Jan 2020 09:01:41.000,34.537,-75.447,26975.125286
1 Jan 2020 09:02:11.000,33.454,-75.382,27117.194847
1 Jan 2020 09:02:41.000,32.387,-75.324,27260.416789
1 Jan 2020 09:03:11.000,31.334,-75.271,27404.689208
1 Jan 2020 09:03:41.000,30.294,-75.225,27549.911448
1 Jan 2020 09:04:11.000,29.266,-75.185,27695.984154
1 Jan 2020 09:04:41.000,28.250,-75.152,27842.809318
1 Jan 2020 09:05:11.000,27.245,-75.124,27990.290317
1 Jan 2020 09:05:41.000,26.249,-75.103,28138.331951
1 Jan 2020 09:06:11.000,25.262,-75.087,28286.840473
1 Jan 2020 09:06:41.000,24.283,-75.078,28435.723615
1 Jan 2020 09:07:11.000,23.311,-75.074,28584.890610
1 Jan 2020 09:07:14.299,23.205,-75.074,28601.307578
1 Jan 2020 10:26:28.942,157.614,-75.065,28595.578685
1 Jan 2020 10:26:58.000,156.667,-75.068,28451.941024
1 Jan 2020 10:27:28.000,155.681,-75.076,28303.931876
1 Jan 2020 10:27:58.000,154.688,-75.091,28156.300160
1 Jan 2020 10:28:28.000,153.685,-75.112,28009.136944
1 Jan 2020 10:28:58.000,152.673,-75.138,27862.534745
1 Jan 2020 10:29:28.000,151.651,-75.171,27716.587497
1 Jan 2020 10:29:58.000,150.617,-75.209,27571.390526
1 Jan 2020 10:30:28.000,149.570,-75.254,27427.040513
1 Jan 2020 10:30:58.000,148.510,-75.305,27283.635455
1 Jan 2020 10:31:28.000,147.437,-75.362,27141.274620
1 Jan 2020 10:31:58.000,146.348,-75.424,27000.058497
1 Jan 2020 10:32:28.000,145.242,-75.493,26860.088737
1 Jan 2020 10:32:58.000,144.119,-75.568,26721.468094
1 Jan 2020 10:33:28.000,142.978,-75.649,26584.300354
1 Jan 2020 10:33:58.000,141.817,-75.736,26448.690258
1 Jan 2020 10:34:28.000,140.634,-75.828,26314.743420
1 Jan 2020 10:34:58.000,139.429,-75.926,26182.566234
1 Jan 2020 10:35:28.000,138.201,-76.030,26052.265782
1 Jan 2020 10:35:58.000,136.947,-76.139,25923.949719
1 Jan 2020 10:36:28.000,135.666,-76.253,25797.726168
1 Jan 2020 10:36:58.000,134.357,-76.372,25673.703348
1 Jan 2020 10:37:28.000,133.017,-76.496,25551.990422
1 Jan 2020 10:37:58.000,131.646,-76.625,25432.695887
1 Jan 2020 10:38:28.000,130.242,-76.757,25315.928416
1 Jan 2020 10:38:58.000,128.801,-76.894,25201.796448
1 Jan 2020 10:39:28.000,127.324,-77.034,25090.408030
1 Jan 2020 10:39:58.000,125.807,-77.178,24981.870641
1 Jan 2020 10:40:28.000,124.249,-77.324,24876.291018
1 Jan 2020 10:40:58.000,122.647,-77.473,24773.774962
1 Jan 2020 10:41:28.000,121.000,-77.624,24674.427149
1 Jan 2020 10:41:58.000,119.305,-77.776,24578.350743
1 Jan 2020 10:42:28.000,117.561,-77.929,24485.647934
1 Jan 2020 10:42:58.000,115.765,-78.082,24396.418598
1 Jan 2020 10:43:28.000,113.916,-78.235,24310.760837
1 Jan 2020 10:43:58.000,112.011,-78.388,24228.770571
1 Jan 2020 10:44:28.000,110.050,-78.538,24150.541310
1 Jan 2020 10:44:58.000,108.030,-78.687,24076.163929
1 Jan 2020 10:45:28.000,105.951,-78.832,24005.726441
1 Jan 2020 10:45:58.000,103.811,-78.973,23939.313651
1 Jan 2020 10:46:28.000,101.610,-79.110,23877.007422
1 Jan 2020 10:46:58.000,99.349,-79.241,23818.885701
1 Jan 2020 10:47:28.000,97.027,-79.366,23765.022807
1 Jan 2020 10:47:58.000,94.646,-79.484,23715.489094
1 Jan 2020 10:48:28.000,92.207,-79.594,23670.350739
1 Jan 2020 10:48:58.000,89.714,-79.695,23629.669544
1 Jan 2020 10:49:28.000,87.168,-79.787,23593.502692
1 Jan 2020 10:49:58.000,84.575,-79.869,23561.902801
1 Jan 2020 10:50:28.000,81.939,-79.940,23534.917392
1 Jan 2020 10:50:58.000,79.265,-79.999,23512.588986
1 Jan 2020 10:51:28.000,76.559,-80.046,23494.954900
1 Jan 2020 10:51:58.000,73.829,-80.081,23482.047123
1 Jan 2020 10:52:28.000,71.081,-80.104,23473.892205
1 Jan 2020 10:52:58.000,68.323,-80.113,23470.511182
1 Jan 2020 10:53:28.000,65.564,-80.109,23471.919460
1 Jan 2020 10:53:58.000,62.810,-80.092,23478.126804
1 Jan 2020 10:54:28.000,60.070,-80.063,23489.137282
1 Jan 2020 10:54:58.000,57.352,-80.020,23504.949249
1 Jan 2020 10:55:28.000,54.662,-79.965,23525.555350
1 Jan 2020 10:55:58.000,52.008,-79.898,23550.942539
1 Jan 2020 10:56:28.000,49.395,-79.820,23581.092203
1 Jan 2020 10:56:58.000,46.829,-79.731,23615.979892
1 Jan 2020 10:57:28.000,44.315,-79.632,23655.575870
1 Jan 2020 10:57:58.000,41.856,-79.523,23699.844899
1 Jan 2020 10:58:28.000,39.455,-79.406,23748.746426
1 Jan 2020 10:58:58.000,37.116,-79.281,23802.234701
1 Jan 2020 10:59:28.000,34.838,-79.149,23860.258926
1 Jan 2020 10:59:58.000,32.625,-79.011,23922.763540
1 Jan 2020 11:00:28.000,30.475,-78.867,23989.687827
1 Jan 2020 11:00:58.000,28.390,-78.719,24060.966921
1 Jan 2020 11:01:28.000,26.368,-78.568,24136.531448
1 Jan 2020 11:01:58.000,24.408,-78.413,24216.307851
1 Jan 2020 11:02:28.000,22.510,-78.257,24300.218594
1 Jan 2020 11:02:58.000,20.672,-78.099,24388.182368
1 Jan 2020 11:03:28.000,18.892,-77.941,24480.114301
1 Jan 2020 11:03:58.000,17.168,-77.782,24575.926385
1 Jan 2020 11:04:28.000,15.499,-77.624,24675.526862
1 Jan 2020 11:04:58.000,13.883,-77.468,24778.821673
1 Jan 2020 11:05:28.000,12.317,-77.313,24885.713863
1 Jan 2020 11:05:58.000,10.800,-77.161,24996.103998
1 Jan 2020 11:06:28.000,9.329,-77.012,25109.890380
1 Jan 2020 11:06:58.000,7.902,-76.866,25226.969256
1 Jan 2020 11:07:28.000,6.518,-76.724,25347.235026
1 Jan 2020 11:07:58.000,5.174,-76.586,25470.580445
1 Jan 2020 11:08:28.000,3.868,-76.453,25596.896819
1 Jan 2020 11:08:58.000,2.600,-76.324,25726.074198
1 Jan 2020 11:09:28.000,1.366,-76.201,25858.001844
1 Jan 2020 11:09:58.000,0.165,-76.083,25992.567268
1 Jan 2020 11:10:28.000,358.996,-75.971,26129.658109
1 Jan 2020 11:10:58.000,357.857,-75.865,26269.161161
1 Jan 2020 11:11:28.000,356.747,-75.764,26410.962813
1 Jan 2020 11:11:58.000,355.663,-75.671,26554.949195
1 Jan 2020 11:12:28.000,354.605,-75.583,26701.006323
1 Jan 2020 11:12:58.000,353.572,-75.503,26849.020227
1 Jan 2020 11:13:28.000,352.561,-75.429,26998.877077
1 Jan 2020 11:13:58.000,351.573,-75.361,27150.463303
1 Jan 2020 11:14:28.000,350.605,-75.301,27303.665702
1 Jan 2020 11:14:58.000,349.656,-75.247,27458.371544
1 Jan 2020 11:15:28.000,348.727,-75.201,27614.468662
1 Jan 2020 11:15:58.000,347.815,-75.161,27771.845550
1 Jan 2020 11:16:28.000,346.919,-75.129,27930.391435
1 Jan 2020 11:16:58.000,346.039,-75.103,28089.996361
1 Jan 2020 11:17:28.000,345.174,-75.085,28250.551253
1 Jan 2020 11:17:58.000,344.323,-75.074,28411.947983
1 Jan 2020 11:18:28.000,343.485,-75.069,28574.079430
1 Jan 2020 11:18:31.702,343.383,-75.069,28594.133367
1 Jan 2020 12:32:40.498,141.974,-75.067,28593.108804
1 Jan 2020 12:33:10.000,141.661,-75.072,28406.766254
1 Jan 2020 12:33:40.000,141.344,-75.086,28217.270308
1 Jan 2020 12:34:10.000,141.030,-75.111,28027.889993
1 Jan 2020 12:34:40.000,140.717,-75.145,27838.754718
1 Jan 2020 12:35:10.000,140.405,-75.189,27649.996585
1 Jan 2020 12:35:40.000,140.095,-75.244,27461.750379
1 Jan 2020 12:36:10.000,139.785,-75.310,27274.153551
1 Jan 2020 12:36:40.000,139.475,-75.386,27087.346190
1 Jan 2020 12:37:10.000,139.164,-75.474,26901.470989
1 Jan 2020 12:37:40.000,138.853,-75.572,26716.673198
1 Jan 2020 12:38:10.000,138.540,-75.682,26533.100576
1 Jan 2020 12:38:40.000,138.226,-75.803,26350.903316
1 Jan 2020 12:39:10.000,137.909,-75.936,26170.233974
1 Jan 2020 12:39:40.000,137.589,-76.081,25991.247377
1 Jan 2020 12:40:10.000,137.266,-76.238,25814.100515
1 Jan 2020 12:40:40.000,136.938,-76.407,25638.952425
1 Jan 2020 12:41:10.000,136.605,-76.588,25465.964054
1 Jan 2020 12:41:40.000,136.266,-76.781,25295.298105
1 Jan 2020 12:42:10.000,135.920,-76.987,25127.118870
1 Jan 2020 12:42:40.000,135.566,-77.205,24961.591723
1 Jan 2020 12:43:10.000,135.203,-77.435,24798.884188
1 Jan 2020 12:43:40.000,134.829,-77.678,24639.163787
1 Jan 2020 12:44:10.000,134.444,-77.933,24482.599084
1 Jan 2020 12:44:40.000,134.044,-78.200,24329.359084
1 Jan 2020 12:45:10.000,133.629,-78.480,24179.612952
1 Jan 2020 12:45:40.000,133.197,-78.772,24033.529692
1 Jan 2020 12:46:10.000,132.744,-79.076,23891.277819
1 Jan 2020 12:46:40.000,132.267,-79.392,23753.024743
1 Jan 2020 12:47:10.000,131.764,-79.719,23618.937432
1 Jan 2020 12:47:40.000,131.230,-80.058,23489.180448
1 Jan 2020 12:48:10.000,130.661,-80.409,23363.916582
1 Jan 2020 12:48:40.000,130.050,-80.770,23243.306161
1 Jan 2020 12:49:10.000,129.392,-81.141,23127.506596
1 Jan 2020 12:49:40.000,128.678,-81.523,23016.671918
1 Jan 2020 12:50:10.000,127.897,-81.914,22910.952087
1 Jan 2020 12:50:40.000,127.039,-82.314,22810.493395
1 Jan 2020 12:51:10.000,126.086,-82.723,22715.436627
1 Jan 2020 12:51:40.000,125.021,-83.139,22625.917477
1 Jan 2020 12:52:10.000,123.817,-83.562,22542.065829
1 Jan 2020 12:52:40.000,122.444,-83.990,22464.005264
1 Jan 2020 12:53:10.000,120.858,-84.423,22391.852437
1 Jan 2020 12:53:40.000,119.004,-84.859,22325.717207
1 Jan 2020 12:54:10.000,116.805,-85.295,22265.701268
1 Jan 2020 12:54:40.000,114.155,-85.730,22211.898343
1 Jan 2020 12:55:10.000,110.903,-86.160,22164.393620
1 Jan 2020 12:55:40.000,106.839,-86.579,22123.263308
1 Jan 2020 12:56:10.000,101.658,-86.982,22088.574581
1 Jan 2020 12:56:40.000,94.941,-87.357,22060.384817
1 Jan 2020 12:57:10.000,86.153,-87.687,22038.741651
1 Jan 2020 12:57:40.000,74.787,-87.949,22023.682664
1 Jan 2020 12:58:10.000,60.807,-88.112,22015.235204
1 Jan 2020 12:58:40.000,45.274,-88.149,22013.416290
1 Jan 2020 12:59:10.000,30.230,-88.052,22018.232458
1 Jan 2020 12:59:40.000,17.386,-87.840,22029.679791
1 Jan 2020 13:00:10.000,7.246,-87.543,22047.743921
1 Jan 2020 13:00:40.000,359.482,-87.190,22072.400159
1 Jan 2020 13:01:10.000,353.543,-86.800,22103.613383
1 Jan 2020 13:01:40.000,348.940,-86.387,22141.338534
1 Jan 2020 13:02:10.000,345.308,-85.961,22185.520619
1 Jan 2020 13:02:40.000,342.389,-85.527,22236.095022
1 Jan 2020 13:03:10.000,340.002,-85.090,22292.987914
1 Jan 2020 13:03:40.000,338.019,-84.652,22356.116124
1 Jan 2020 13:04:10.000,336.349,-84.216,22425.388187
1 Jan 2020 13:04:40.000,334.925,-83.783,22500.704301
1 Jan 2020 13:05:10.000,333.698,-83.355,22581.956855
1 Jan 2020 13:05:40.000,332.631,-82.933,22669.030874
1 Jan 2020 13:06:10.000,331.694,-82.518,22761.804687
1 Jan 2020 13:06:40.000,330.867,-82.111,22860.149587
1 Jan 2020 13:07:10.000,330.132,-81.713,22963.931520
1 Jan 2020 13:07:40.000,329.474,-81.324,23073.010778
1 Jan 2020 13:08:10.000,328.883,-80.945,23187.242689
1 Jan 2020 13:08:40.000,328.349,-80.576,23306.478101
1 Jan 2020 13:09:10.000,327.866,-80.218,23430.563864
1 Jan 2020 13:09:40.000,327.427,-79.871,23559.343576
1 Jan 2020 13:10:10.000,327.026,-79.535,23692.656958
1 Jan 2020 13:10:40.000,326.660,-79.211,23830.341921
1 Jan 2020 13:11:10.000,326.325,-78.899,23972.233929
1 Jan 2020 13:11:40.000,326.018,-78.599,24118.166678
1 Jan 2020 13:12:10.000,325.735,-78.311,24267.972494
1 Jan 2020 13:12:40.000,325.476,-78.036,24421.482712
1 Jan 2020 13:13:10.000,325.237,-77.773,24578.528027
1 Jan 2020 13:13:40.000,325.017,-77.523,24738.938836
1 Jan 2020 13:14:10.000,324.814,-77.285,24902.545867
1 Jan 2020 13:14:40.000,324.628,-77.060,25069.179206
1 Jan 2020 13:15:10.000,324.456,-76.847,25238.670461
1 Jan 2020 13:15:40.000,324.299,-76.647,25410.851756
1 Jan 2020 13:16:10.000,324.155,-76.460,25585.556277
1 Jan 2020 13:16:40.000,324.022,-76.285,25762.618480
1 Jan 2020 13:17:10.000,323.902,-76.122,25941.874282
1 Jan 2020 13:17:40.000,323.792,-75.972,26123.161237
1 Jan 2020 13:18:10.000,323.693,-75.833,26306.318690
1 Jan 2020 13:18:40.000,323.603,-75.707,26491.187913
1 Jan 2020 13:19:10.000,323.523,-75.593,26677.612232
1 Jan 2020 13:19:40.000,323.452,-75.490,26865.437135
1 Jan 2020 13:20:10.000,323.390,-75.399,27054.510361
1 Jan 2020 13:20:40.000,323.336,-75.319,27244.681987
1 Jan 2020 13:21:10.000,323.289,-75.251,27435.804493
1 Jan 2020 13:21:40.000,323.251,-75.194,27627.732824
1 Jan 2020 13:22:10.000,323.220,-75.147,27820.324434
1 Jan 2020 13:22:40.000,323.197,-75.111,28013.439323
1 Jan 2020 13:23:10.000,323.181,-75.086,28206.940072
1 Jan 2020 13:23:40.000,323.172,-75.071,28400.691861
1 Jan 2020 13:24:09.878,323.170,-75.065,28593.774266
1 Jan 2020 14:36:53.404,153.372,-75.072,28597.819381
1 Jan 2020 14:37:23.000,153.960,-75.076,28421.689404
1 Jan 2020 14:37:53.000,154.570,-75.089,28243.709575
1 Jan 2020 14:38:23.000,155.193,-75.110,28066.412019
1 Jan 2020 14:38:53.000,155.830,-75.140,27889.920682
1 Jan 2020 14:39:23.000,156.483,-75.179,27714.361069
1 Jan 2020 14:39:53.000,157.153,-75.226,27539.860192
1 Jan 2020 14:40:23.000,157.840,-75.282,27366.546496
1 Jan 2020 14:40:53.000,158.545,-75.347,27194.549792
1 Jan 2020 14:41:23.000,159.269,-75.421,27024.001169
1 Jan 2020 14:41:53.000,160.014,-75.504,26855.032903
1 Jan 2020 14:42:23.000,160.781,-75.595,26687.778358
1 Jan 2020 14:42:53.000,161.572,-75.696,26522.371873
1 Jan 2020 14:43:23.000,162.387,-75.805,26358.948638
1 Jan 2020 14:43:53.000,163.229,-75.923,26197.644569
1 Jan 2020 14:44:23.000,164.098,-76.050,26038.596157
1 Jan 2020 14:44:53.000,164.997,-76.185,25881.940315
1 Jan 2020 14:45:23.000,165.928,-76.328,25727.813915
1 Jan 2020 14:45:53.000,166.893,-76.479,25576.354811
1 Jan 2020 14:46:23.000,167.893,-76.639,25427.699834
1 Jan 2020 14:46:53.000,168.933,-76.806,25281.985804
1 Jan 2020 14:47:23.000,170.013,-76.981,25139.349010
1 Jan 2020 14:47:53.000,171.136,-77.163,24999.924980
1 Jan 2020 14:48:23.000,172.307,-77.351,24863.848249
1 Jan 2020 14:48:53.000,173.527,-77.546,24731.252101
1 Jan 2020 14:49:23.000,174.801,-77.747,24602.268311
1 Jan 2020 14:49:53.000,176.131,-77.953,24477.026607
1 Jan 2020 14:50:23.000,177.523,-78.164,24355.655459
1 Jan 2020 14:50:53.000,178.979,-78.380,24238.280173
1 Jan 2020 14:51:23.000,180.504,-78.599,24125.023673
1 Jan 2020 14:51:53.000,182.104,-78.821,24016.005932
1 Jan 2020 14:52:23.000,183.782,-79.045,23911.343656
1 Jan 2020 14:52:53.000,185.545,-79.270,23811.149975
1 Jan 2020 14:53:23.000,187.396,-79.495,23715.533924
1 Jan 2020 14:53:53.000,189.341,-79.719,23624.600947
1 Jan 2020 14:54:23.000,191.386,-79.941,23538.451345
1 Jan 2020 14:54:53.000,193.536,-80.160,23457.180802
1 Jan 2020 14:55:23.000,195.794,-80.375,23380.879872
1 Jan 2020 14:55:53.000,198.166,-80.584,23309.633683
1 Jan 2020 14:56:23.000,200.656,-80.785,23243.521517
1 Jan 2020 14:56:53.000,203.265,-80.978,23182.617103
1 Jan 2020 14:57:23.000,205.995,-81.160,23126.987495
1 Jan 2020 14:57:53.000,208.846,-81.330,23076.693424
1 Jan 2020 14:58:23.000,211.815,-81.487,23031.788924
1 Jan 2020 14:58:53.000,214.898,-81.629,22992.321138
1 Jan 2020 14:59:23.000,218.087,-81.754,22958.330057
1 Jan 2020 14:59:53.000,221.374,-81.861,22929.848706
1 Jan 2020 15:00:23.000,224.745,-81.948,22906.902504
1 Jan 2020 15:00:53.000,228.186,-82.016,22889.509516
1 Jan 2020 15:01:23.000,231.678,-82.062,22877.680300
1 Jan 2020 15:01:53.000,235.204,-82.087,22871.417864
1 Jan 2020 15:02:23.000,238.741,-82.089,22870.717643
1 Jan 2020 15:02:53.000,242.271,-82.070,22875.567580
1 Jan 2020 15:03:23.000,245.772,-82.029,22885.948068
1 Jan 2020 15:03:53.000,249.225,-81.967,22901.832115
1 Jan 2020 15:04:23.000,252.614,-81.885,22923.185421
1 Jan 2020 15:04:53.000,255.922,-81.783,22949.966520
1 Jan 2020 15:05:23.000,259.137,-81.664,22982.126995
1 Jan 2020 15:05:53.000,262.250,-81.528,23019.611446
1 Jan 2020 15:06:23.000,265.254,-81.378,23062.358010
1 Jan 2020 15:06:53.000,268.143,-81.214,23110.298399
1 Jan 2020 15:07:23.000,270.916,-81.038,23163.358193
1 Jan 2020 15:07:53.000,273.573,-80.852,23221.457113
1 Jan 2020 15:08:23.000,276.114,-80.657,23284.509407
1 Jan 2020 15:08:53.000,278.542,-80.455,23352.423717
1 Jan 2020 15:09:23.000,280.861,-80.247,23425.104022
1 Jan 2020 15:09:53.000,283.075,-80.034,23502.449537
1 Jan 2020 15:10:23.000,285.190,-79.819,23584.355135
1 Jan 2020 15:10:53.000,287.209,-79.601,23670.711670
1 Jan 2020 15:11:23.000,289.138,-79.382,23761.406308
1 Jan 2020 15:11:53.000,290.983,-79.163,23856.323022
1 Jan 2020 15:12:23.000,292.748,-78.945,23955.342229
1 Jan 2020 15:12:53.000,294.439,-78.729,24058.342133
1 Jan 2020 15:13:23.000,296.061,-78.516,24165.198367
1 Jan 2020 15:13:53.000,297.618,-78.306,24275.784465
1 Jan 2020 15:14:23.000,299.114,-78.100,24389.972163
1 Jan 2020 15:14:53.000,300.555,-77.898,24507.631690
1 Jan 2020 15:15:23.000,301.943,-77.701,24628.632047
1 Jan 2020 15:15:53.000,303.282,-77.509,24752.841278
1 Jan 2020 15:16:23.000,304.577,-77.324,24880.126725
1 Jan 2020 15:16:53.000,305.829,-77.144,25010.355535
1 Jan 2020 15:17:23.000,307.042,-76.971,25143.393859
1 Jan 2020 15:17:53.000,308.220,-76.805,25279.108612
1 Jan 2020 15:18:23.000,309.363,-76.646,25417.366659
1 Jan 2020 15:18:53.000,310.476,-76.494,25558.035262
1 Jan 2020 15:19:23.000,311.560,-76.349,25700.982265
1 Jan 2020 15:19:53.000,312.617,-76.212,25846.076253
1 Jan 2020 15:20:23.000,313.649,-76.083,25993.186718
1 Jan 2020 15:20:53.000,314.659,-75.961,26142.184196
1 Jan 2020 15:21:23.000,315.647,-75.847,26292.940398
1 Jan 2020 15:21:53.000,316.616,-75.741,26445.328336
1 Jan 2020 15:22:23.000,317.567,-75.643,26599.222423
1 Jan 2020 15:22:53.000,318.501,-75.552,26754.498581
1 Jan 2020 15:23:23.000,319.420,-75.470,26911.034321
1 Jan 2020 15:23:53.000,320.325,-75.395,27068.708827
1 Jan 2020 15:24:23.000,321.217,-75.328,27227.403024
1 Jan 2020 15:24:53.000,322.097,-75.269,27386.999638
1 Jan 2020 15:25:23.000,322.966,-75.218,27547.383251
1 Jan 2020 15:25:53.000,323.826,-75.174,27708.440345
1 Jan 2020 15:26:23.000,324.677,-75.138,27870.059341
1 Jan 2020 15:26:53.000,325.521,-75.109,28032.130634
1 Jan 2020 15:27:23.000,326.357,-75.088,28194.546612
1 Jan 2020 15:27:53.000,327.187,-75.074,28357.201684
1 Jan 2020 15:28:23.000,328.012,-75.067,28519.992291
1 Jan 2020 15:28:37.751,328.416,-75.066,28600.056044
1 Jan 2020 16:46:56.150,190.190,-75.076,28606.247988
1 Jan 2020 16:47:26.000,191.217,-75.078,28464.404921
1 Jan 2020 16:47:56.000,192.258,-75.086,28322.374657
1 Jan 2020 16:48:26.000,193.310,-75.100,28180.955105
1 Jan 2020 16:48:56.000,194.372,-75.118,28040.232296
1 Jan 2020 16:49:26.000,195.446,-75.143,27900.293200
1 Jan 2020 16:49:56.000,196.533,-75.172,27761.225693
1 Jan 2020 16:50:26.000,197.632,-75.207,27623.118516
1 Jan 2020 16:50:56.000,198.746,-75.248,27486.061232
1 Jan 2020 16:51:26.000,199.874,-75.293,27350.144175
1 Jan 2020 16:51:56.000,201.018,-75.344,27215.458403
1 Jan 2020 16:52:26.000,202.179,-75.401,27082.095634
1 Jan 2020 16:52:56.000,203.357,-75.462,26950.148191
1 Jan 2020 16:53:26.000,204.554,-75.529,26819.708926
1 Jan 2020 16:53:56.000,205.770,-75.600,26690.871158
1 Jan 2020 16:54:26.000,207.006,-75.676,26563.728586
1 Jan 2020 16:54:56.000,208.265,-75.758,26438.375214
1 Jan 2020 16:55:26.000,209.546,-75.843,26314.905254
1 Jan 2020 16:55:56.000,210.851,-75.934,26193.413039
1 Jan 2020 16:56:26.000,212.181,-76.028,26073.992920
1 Jan 2020 16:56:56.000,213.537,-76.126,25956.738917
1 Jan 2020 16:57:26.000,214.921,-76.229,25841.745579
1 Jan 2020 16:57:56.000,216.334,-76.335,25729.106407
1 Jan 2020 16:58:26.000,217.777,-76.444,25618.914708
1 Jan 2020 16:58:56.000,219.251,-76.556,25511.263220
1 Jan 2020 16:59:26.000,220.757,-76.672,25406.243980
1 Jan 2020 16:59:56.000,222.298,-76.789,25303.948185
1 Jan 2020 17:00:26.000,223.873,-76.909,25204.466045
1 Jan 2020 17:00:56.000,225.486,-77.030,25107.886640
1 Jan 2020 17:01:26.000,227.136,-77.153,25014.297765
1 Jan 2020 17:01:56.000,228.825,-77.277,24923.785769
1 Jan 2020 17:02:26.000,230.554,-77.401,24836.435217
1 Jan 2020 17:02:56.000,232.325,-77.525,24752.329476
1 Jan 2020 17:03:26.000,234.138,-77.648,24671.549407
1 Jan 2020 17:03:56.000,235.993,-77.771,24594.173972
1 Jan 2020 17:04:26.000,237.893,-77.892,24520.279869
1 Jan 2020 17:04:56.000,239.837,-78.011,24449.941362
1 Jan 2020 17:05:26.000,241.825,-78.127,24383.230121
1 Jan 2020 17:05:56.000,243.858,-78.240,24320.215050
1 Jan 2020 17:06:26.000,245.935,-78.349,24260.962125
1 Jan 2020 17:06:56.000,248.057,-78.454,24205.534116
1 Jan 2020 17:07:26.000,250.221,-78.554,24153.990906
1 Jan 2020 17:07:56.000,252.428,-78.648,24106.388614
1 Jan 2020 17:08:26.000,254.675,-78.736,24062.779940
1 Jan 2020 17:08:56.000,256.960,-78.818,24023.213897
1 Jan 2020 17:09:26.000,259.281,-78.893,23987.735683
1 Jan 2020 17:09:56.000,261.636,-78.959,23956.386554
1 Jan 2020 17:10:26.000,264.021,-79.018,23929.203710
1 Jan 2020 17:10:56.000,266.432,-79.069,23906.220146
1 Jan 2020 17:11:26.000,268.866,-79.110,23887.464733
1 Jan 2020 17:11:56.000,271.319,-79.142,23872.961858
1 Jan 2020 17:12:26.000,273.785,-79.165,23862.731544
1 Jan 2020 17:12:56.000,276.261,-79.178,23856.789343
1 Jan 2020 17:13:26.000,278.741,-79.182,23855.146282
1 Jan 2020 17:13:56.000,281.221,-79.176,23857.808836
1 Jan 2020 17:14:26.000,283.695,-79.160,23864.778925
1 Jan 2020 17:14:56.000,286.159,-79.135,23876.053823
1 Jan 2020 17:15:26.000,288.607,-79.100,23891.626279
1 Jan 2020 17:15:56.000,291.037,-79.056,23911.484464
1 Jan 2020 17:16:26.000,293.442,-79.003,23935.612025
1 Jan 2020 17:16:56.000,295.820,-78.942,23963.988123
1 Jan 2020 17:17:26.000,298.167,-78.872,23996.587495
1 Jan 2020 17:17:56.000,300.479,-78.795,24033.380520
1 Jan 2020 17:18:26.000,302.754,-78.711,24074.333406
1 Jan 2020 17:18:56.000,304.990,-78.620,24119.407883
1 Jan 2020 17:19:26.000,307.184,-78.523,24168.561887
1 Jan 2020 17:19:56.000,309.334,-78.421,24221.749293
1 Jan 2020 17:20:26.000,311.441,-78.313,24278.920134
1 Jan 2020 17:20:56.000,313.502,-78.201,24340.020725
1 Jan 2020 17:21:26.000,315.518,-78.086,24404.993800
1 Jan 2020 17:21:56.000,317.487,-77.967,24473.778658
1 Jan 2020 17:22:26.000,319.411,-77.845,24546.311467
1 Jan 2020 17:22:56.000,321.289,-77.722,24622.524803
1 Jan 2020 17:23:26.000,323.122,-77.597,24702.348713
1 Jan 2020 17:23:56.000,324.911,-77.471,24785.710284
1 Jan 2020 17:24:26.000,326.657,-77.345,24872.533945
1 Jan 2020 17:24:56.000,328.359,-77.219,24962.741637
1 Jan 2020 17:25:26.000,330.021,-77.093,25056.252974
1 Jan 2020 17:25:56.000,331.642,-76.969,25152.985409
1 Jan 2020 17:26:26.000,333.224,-76.846,25252.854394
1 Jan 2020 17:26:56.000,334.768,-76.725,25355.773545
1 Jan 2020 17:27:26.000,336.275,-76.606,25461.655021
1 Jan 2020 17:27:56.000,337.748,-76.490,25570.408800
1 Jan 2020 17:28:26.000,339.186,-76.376,25681.944144
1 Jan 2020 17:28:56.000,340.591,-76.266,25796.168882
1 Jan 2020 17:29:26.000,341.966,-76.160,25912.989772
1 Jan 2020 17:29:56.000,343.310,-76.058,26032.312637
1 Jan 2020 17:30:26.000,344.625,-75.959,26154.042509
1 Jan 2020 17:30:56.000,345.913,-75.865,26278.083752
1 Jan 2020 17:31:26.000,347.174,-75.776,26404.340199
1 Jan 2020 17:31:56.000,348.411,-75.691,26532.715262
1 Jan 2020 17:32:26.000,349.623,-75.611,26663.112059
1 Jan 2020 17:32:56.000,350.812,-75.536,26795.433514
1 Jan 2020 17:33:26.000,351.979,-75.467,26929.582469
1 Jan 2020 17:33:56.000,353.126,-75.403,27065.461782
1 Jan 2020 17:34:26.000,354.253,-75.344,27202.974417
1 Jan 2020 17:34:56.000,355.360,-75.291,27342.023540
1 Jan 2020 17:35:26.000,356.450,-75.243,27482.512595
1 Jan 2020 17:35:56.000,357.523,-75.201,27624.345384
1 Jan 2020 17:36:26.000,358.580,-75.165,27767.426435
1 Jan 2020 17:36:56.000,359.622,-75.135,27911.659904
1 Jan 2020 17:37:26.000,0.649,-75.110,28056.951377
1 Jan 2020 17:37:56.000,1.663,-75.091,28203.206775
1 Jan 2020 17:38:26.000,2.663,-75.078,28350.332694
1 Jan 2020 17:38:56.000,3.652,-75.071,28498.236457
1 Jan 2020 17:39:18.207,4.377,-75.070,28608.167411
1 Jan 2020 18:55:24.866,216.505,-75.074,28610.961133
1 Jan 2020 18:55:54.000,217.078,-75.078,28437.587752
1 Jan 2020 18:56:24.000,217.669,-75.090,28259.038862
1 Jan 2020 18:56:54.000,218.262,-75.111,28080.585108
1 Jan 2020 18:57:24.000,218.859,-75.141,27902.345361
1 Jan 2020 18:57:54.000,219.459,-75.180,27724.440963
1 Jan 2020 18:58:24.000,220.064,-75.229,27546.995711
1 Jan 2020 18:58:54.000,220.674,-75.286,27370.135840
1 Jan 2020 18:59:24.000,221.290,-75.353,27193.990000
1 Jan 2020 18:59:54.000,221.912,-75.430,27018.689222
1 Jan 2020 19:00:24.000,222.543,-75.516,26844.366876
1 Jan 2020 19:00:54.000,223.183,-75.612,26671.158623
1 Jan 2020 19:01:24.000,223.833,-75.718,26499.202359
1 Jan 2020 19:01:54.000,224.494,-75.835,26328.638140
1 Jan 2020 19:02:24.000,225.167,-75.961,26159.608103
1 Jan 2020 19:02:54.000,225.854,-76.098,25992.256378
1 Jan 2020 19:03:24.000,226.556,-76.245,25826.728978
1 Jan 2020 19:03:54.000,227.275,-76.402,25663.173683
1 Jan 2020 19:04:24.000,228.013,-76.569,25501.739906
1 Jan 2020 19:04:54.000,228.771,-76.747,25342.578550
1 Jan 2020 19:05:24.000,229.552,-76.935,25185.841838
1 Jan 2020 19:05:54.000,230.358,-77.133,25031.682842
1 Jan 2020 19:06:24.000,231.191,-77.342,24880.256483
1 Jan 2020 19:06:54.000,232.054,-77.560,24731.717512
1 Jan 2020 19:07:24.000,232.951,-77.788,24586.221489
1 Jan 2020 19:07:54.000,233.885,-78.026,24443.924230
1 Jan 2020 19:08:24.000,234.860,-78.273,24304.981543
1 Jan 2020 19:08:54.000,235.880,-78.529,24169.548937
1 Jan 2020 19:09:24.000,236.950,-78.795,24037.781327
1 Jan 2020 19:09:54.000,238.075,-79.068,23909.832708
1 Jan 2020 19:10:24.000,239.263,-79.349,23785.855570
1 Jan 2020 19:10:54.000,240.518,-79.638,23666.001550
1 Jan 2020 19:11:24.000,241.851,-79.933,23550.419542
1 Jan 2020 19:11:54.000,243.269,-80.235,23439.256335
1 Jan 2020 19:12:24.000,244.782,-80.542,23332.655962
1 Jan 2020 19:12:54.000,246.402,-80.853,23230.759289
1 Jan 2020 19:13:24.000,248.142,-81.167,23133.703605
1 Jan 2020 19:13:54.000,250.016,-81.483,23041.622014
1 Jan 2020 19:14:24.000,252.041,-81.800,22954.643747
1 Jan 2020 19:14:54.000,254.235,-82.116,22872.892612
1 Jan 2020 19:15:24.000,256.618,-82.429,22796.487330
1 Jan 2020 19:15:54.000,259.212,-82.738,22725.540913
1 Jan 2020 19:16:24.000,262.041,-83.039,22660.160257
1 Jan 2020 19:16:54.000,265.130,-83.330,22600.445628
1 Jan 2020 19:17:24.000,268.502,-83.608,22546.490718
1 Jan 2020 19:17:54.000,272.180,-83.870,22498.381591
1 Jan 2020 19:18:24.000,276.182,-84.112,22456.196798
1 Jan 2020 19:18:54.000,280.517,-84.330,22420.006939
1 Jan 2020 19:19:24.000,285.183,-84.519,22389.874316
1 Jan 2020 19:19:54.000,290.159,-84.676,22365.852852
1 Jan 2020 19:20:24.000,295.407,-84.796,22347.987569
1 Jan 2020 19:20:54.000,300.866,-84.876,22336.314595
1 Jan 2020 19:21:24.000,306.455,-84.914,22330.860948
1 Jan 2020 19:21:54.000,312.082,-84.909,22331.644438
1 Jan 2020 19:22:24.000,317.647,-84.860,22338.673524
1 Jan 2020 19:22:54.000,323.061,-84.769,22351.947351
1 Jan 2020 19:23:24.000,328.246,-84.639,22371.455719
1 Jan 2020 19:23:54.000,333.145,-84.473,22397.179130
1 Jan 2020 19:24:24.000,337.723,-84.274,22429.088961
1 Jan 2020 19:24:54.000,341.964,-84.049,22467.147287
1 Jan 2020 19:25:24.000,345.868,-83.799,22511.307479
1 Jan 2020 19:25:54.000,349.447,-83.530,22561.514132
1 Jan 2020 19:26:24.000,352.718,-83.245,22617.703372
1 Jan 2020 19:26:54.000,355.706,-82.947,22679.803121
1 Jan 2020 19:27:24.000,358.434,-82.640,22747.733566
1 Jan 2020 19:27:54.000,0.926,-82.326,22821.406834
1 Jan 2020 19:28:24.000,3.207,-82.007,22900.728296
1 Jan 2020 19:28:54.000,5.298,-81.686,22985.596310
1 Jan 2020 19:29:24.000,7.219,-81.364,23075.902762
1 Jan 2020 19:29:54.000,8.987,-81.043,23171.533464
1 Jan 2020 19:30:24.000,10.619,-80.724,23272.368770
1 Jan 2020 19:30:54.000,12.128,-80.409,23378.283161
1 Jan 2020 19:31:24.000,13.528,-80.098,23489.146892
1 Jan 2020 19:31:54.000,14.829,-79.793,23604.825605
1 Jan 2020 19:32:24.000,16.041,-79.494,23725.180939
1 Jan 2020 19:32:54.000,17.173,-79.202,23850.070945
1 Jan 2020 19:33:24.000,18.233,-78.918,23979.350486
1 Jan 2020 19:33:54.000,19.227,-78.642,24112.871899
1 Jan 2020 19:34:24.000,20.161,-78.375,24250.484332
1 Jan 2020 19:34:54.000,21.040,-78.117,24392.035667
1 Jan 2020 19:35:24.000,21.870,-77.869,24537.371851
1 Jan 2020 19:35:54.000,22.654,-77.630,24686.337490
1 Jan 2020 19:36:24.000,23.396,-77.402,24838.776178
1 Jan 2020 19:36:54.000,24.099,-77.184,24994.530800
1 Jan 2020 19:37:24.000,24.767,-76.976,25153.443828
1 Jan 2020 19:37:54.000,25.403,-76.779,25315.357592
1 Jan 2020 19:38:24.000,26.008,-76.593,25480.114539
1 Jan 2020 19:38:54.000,26.585,-76.418,25647.557470
1 Jan 2020 19:39:24.000,27.135,-76.253,25817.530103
1 Jan 2020 19:39:54.000,27.661,-76.100,25989.875917
1 Jan 2020 19:40:24.000,28.165,-75.958,26164.440379
1 Jan 2020 19:40:54.000,28.647,-75.826,26341.069757
1 Jan 2020 19:41:24.000,29.109,-75.706,26519.611623
1 Jan 2020 19:41:54.000,29.553,-75.596,26699.914986
1 Jan 2020 19:42:24.000,29.979,-75.497,26881.830428
1 Jan 2020 19:42:54.000,30.388,-75.409,27065.210216
1 Jan 2020 19:43:24.000,30.782,-75.331,27249.908403
1 Jan 2020 19:43:54.000,31.161,-75.264,27435.780919
1 Jan 2020 19:44:24.000,31.526,-75.207,27622.685653
1 Jan 2020 19:44:54.000,31.878,-75.161,27810.482520
1 Jan 2020 19:45:24.000,32.217,-75.124,27999.033518
1 Jan 2020 19:45:54.000,32.545,-75.098,28188.202784
1 Jan 2020 19:46:24.000,32.861,-75.082,28377.856629
1 Jan 2020 19:46:54.000,33.167,-75.075,28567.863580
1 Jan 2020 19:47:00.808,33.235,-75.074,28611.020183
1 Jan 2020 20:59:14.532,212.957,-75.070,28608.429227
1 Jan 2020 20:59:44.000,212.643,-75.075,28422.190869
1 Jan 2020 21:00:14.000,212.313,-75.089,28232.924563
1 Jan 2020 21:00:44.000,211.972,-75.113,28044.122664
1 Jan 2020 21:01:14.000,211.618,-75.146,27855.917875
1 Jan 2020 21:01:44.000,211.252,-75.190,27668.445057
1 Jan 2020 21:02:14.000,210.873,-75.244,27481.841189
1 Jan 2020 21:02:44.000,210.479,-75.308,27296.245320
1 Jan 2020 21:03:14.000,210.071,-75.383,27111.798509
1 Jan 2020 21:03:44.000,209.647,-75.468,26928.643760
1 Jan 2020 21:04:14.000,209.207,-75.564,26746.925943
1 Jan 2020 21:04:44.000,208.749,-75.670,26566.791706
1 Jan 2020 21:05:14.000,208.272,-75.787,26388.389377
1 Jan 2020 21:05:44.000,207.775,-75.915,26211.868850
1 Jan 2020 21:06:14.000,207.256,-76.054,26037.381461
1 Jan 2020 21:06:44.000,206.715,-76.204,25865.079847
1 Jan 2020 21:07:14.000,206.150,-76.364,25695.117795
1 Jan 2020 21:07:44.000,205.558,-76.535,25527.650072
1 Jan 2020 21:08:14.000,204.937,-76.717,25362.831915
1 Jan 2020 21:08:44.000,204.287,-76.910,25200.820140
1 Jan 2020 21:09:14.000,203.603,-77.113,25041.770954
1 Jan 2020 21:09:44.000,202.884,-77.327,24885.841039
1 Jan 2020 21:10:14.000,202.127,-77.551,24733.186969
1 Jan 2020 21:10:44.000,201.328,-77.784,24583.964946
1 Jan 2020 21:11:14.000,200.483,-78.028,24438.330512
1 Jan 2020 21:11:44.000,199.589,-78.281,24296.438243
1 Jan 2020 21:12:14.000,198.641,-78.543,24158.441170
1 Jan 2020 21:12:44.000,197.634,-78.814,24024.491512
1 Jan 2020 21:13:14.000,196.561,-79.093,23894.738709
1 Jan 2020 21:13:44.000,195.417,-79.379,23769.330141
1 Jan 2020 21:14:14.000,194.194,-79.672,23648.410483
1 Jan 2020 21:14:44.000,192.884,-79.972,23532.121311
1 Jan 2020 21:15:14.000,191.477,-80.277,23420.600709
1 Jan 2020 21:15:44.000,189.963,-80.587,23313.982631
1 Jan 2020 21:16:14.000,188.331,-80.900,23212.397421
1 Jan 2020 21:16:44.000,186.566,-81.215,23115.969991
1 Jan 2020 21:17:14.000,184.654,-81.531,23024.820355
1 Jan 2020 21:17:44.000,182.578,-81.846,22939.062981
1 Jan 2020 21:18:14.000,180.320,-82.159,22858.806384
1 Jan 2020 21:18:44.000,177.861,-82.468,22784.152573
1 Jan 2020 21:19:14.000,175.178,-82.770,22715.197319
1 Jan 2020 21:19:44.000,172.250,-83.063,22652.028790
1 Jan 2020 21:20:14.000,169.055,-83.343,22594.727877
1 Jan 2020 21:20:44.000,165.573,-83.609,22543.367699
1 Jan 2020 21:21:14.000,161.787,-83.855,22498.013208
1 Jan 2020 21:21:44.000,157.687,-84.080,22458.721289
1 Jan 2020 21:22:14.000,153.273,-84.278,22425.539945
1 Jan 2020 21:22:44.000,148.559,-84.445,22398.508482
1 Jan 2020 21:23:14.000,143.575,-84.579,22377.657236
1 Jan 2020 21:23:44.000,138.370,-84.675,22363.007403
1 Jan 2020 21:24:14.000,133.010,-84.731,22354.571093
1 Jan 2020 21:24:44.000,127.575,-84.747,22352.351039
1 Jan 2020 21:25:14.000,122.153,-84.720,22356.340751
1 Jan 2020 21:25:44.000,116.829,-84.652,22366.524502
1 Jan 2020 21:26:14.000,111.680,-84.546,22382.877421
1 Jan 2020 21:26:44.000,106.765,-84.403,22405.365508
1 Jan 2020 21:27:14.000,102.129,-84.228,22433.945912
1 Jan 2020 21:27:44.000,97.795,-84.024,22468.567040
1 Jan 2020 21:28:14.000,93.770,-83.795,22509.168799
1 Jan 2020 21:28:44.000,90.053,-83.546,22555.682851
1 Jan 2020 21:29:14.000,86.629,-83.279,22608.033009
1 Jan 2020 21:29:44.000,83.481,-82.998,22666.135126
1 Jan 2020 21:30:14.000,80.587,-82.706,22729.898053
1 Jan 2020 21:30:44.000,77.926,-82.407,22799.223606
1 Jan 2020 21:31:14.000,75.476,-82.101,22874.007038
1 Jan 2020 21:31:44.000,73.216,-81.792,22954.137435
1 Jan 2020 21:32:14.000,71.127,-81.481,23039.498290
1 Jan 2020 21:32:44.000,69.190,-81.171,23129.967269
1 Jan 2020 21:33:14.000,67.391,-80.861,23225.417588
1 Jan 2020 21:33:44.000,65.713,-80.555,23325.717811
1 Jan 2020 21:34:14.000,64.146,-80.252,23430.732423
1 Jan 2020 21:34:44.000,62.676,-79.953,23540.322253
1 Jan 2020 21:35:14.000,61.295,-79.661,23654.344885
1 Jan 2020 21:35:44.000,59.992,-79.374,23772.655287
1 Jan 2020 21:36:14.000,58.761,-79.095,23895.105317
1 Jan 2020 21:36:44.000,57.593,-78.823,24021.545427
1 Jan 2020 21:37:14.000,56.484,-78.559,24151.824158
1 Jan 2020 21:37:44.000,55.426,-78.304,24285.788715
1 Jan 2020 21:38:14.000,54.415,-78.057,24423.285301
1 Jan 2020 21:38:44.000,53.447,-77.820,24564.159438
1 Jan 2020 21:39:14.000,52.517,-77.592,24708.256278
1 Jan 2020 21:39:44.000,51.622,-77.374,24855.420884
1 Jan 2020 21:40:14.000,50.759,-77.165,25005.498501
1 Jan 2020 21:40:44.000,49.925,-76.967,25158.335100
1 Jan 2020 21:41:14.000,49.117,-76.778,25313.776452
1 Jan 2020 21:41:44.000,48.333,-76.599,25471.670071
1 Jan 2020 21:42:14.000,47.570,-76.431,25631.864272
1 Jan 2020 21:42:44.000,46.827,-76.273,25794.208630
1 Jan 2020 21:43:14.000,46.101,-76.125,25958.554155
1 Jan 2020 21:43:44.000,45.392,-75.987,26124.753435
1 Jan 2020 21:44:14.000,44.697,-75.859,26292.660778
1 Jan 2020 21:44:44.000,44.015,-75.742,26462.132328
1 Jan 2020 21:45:14.000,43.345,-75.634,26633.026178
1 Jan 2020 21:45:44.000,42.686,-75.536,26805.202461
1 Jan 2020 21:46:14.000,42.036,-75.448,26978.523438
1 Jan 2020 21:46:44.000,41.395,-75.370,27152.853564
1 Jan 2020 21:47:14.000,40.761,-75.301,27328.059557
1 Jan 2020 21:47:44.000,40.134,-75.242,27504.010445
1 Jan 2020 21:48:14.000,39.512,-75.192,27680.577612
1 Jan 2020 21:48:44.000,38.896,-75.151,27857.634830
1 Jan 2020 21:49:14.000,38.283,-75.119,28035.058289
1 Jan 2020 21:49:44.000,37.674,-75.096,28212.726616
1 Jan 2020 21:50:14.000,37.068,-75.081,28390.520890
1 Jan 2020 21:50:44.000,36.464,-75.075,28568.324647
1 Jan 2020 21:50:50.444,36.334,-75.075,28606.508340
1 Jan 2020 23:07:05.826,183.595,-75.065,28600.476914
1 Jan 2020 23:07:35.000,182.637,-75.068,28456.750020
1 Jan 2020 23:08:05.000,181.640,-75.077,28309.644570
1 Jan 2020 23:08:35.000,180.631,-75.091,28163.331426
1 Jan 2020 23:09:05.000,179.609,-75.111,28017.902734
