STKdata/stk_90fov_4leo/Satellite-MEO_Satellite10204-To-Satellite-LEO_Satellite10000 AER.csv

"Time (UTCG)","Azimuth (deg)","Elevation (deg)","Range (km)"
1 Jan 2020 00:50:54.697,313.005,-75.065,28600.349393
1 Jan 2020 00:51:24.000,313.500,-75.072,28381.346171
1 Jan 2020 00:51:54.000,314.007,-75.091,28157.138307
1 Jan 2020 00:52:24.000,314.515,-75.125,27933.159927
1 Jan 2020 00:52:54.000,315.025,-75.173,27709.640371
1 Jan 2020 00:53:24.000,315.539,-75.235,27486.814429
1 Jan 2020 00:53:54.000,316.057,-75.313,27264.922288
1 Jan 2020 00:54:24.000,316.581,-75.405,27044.209459
1 Jan 2020 00:54:54.000,317.113,-75.513,26824.926669
1 Jan 2020 00:55:24.000,317.654,-75.636,26607.329740
1 Jan 2020 00:55:54.000,318.206,-75.775,26391.679414
1 Jan 2020 00:56:24.000,318.769,-75.931,26178.241162
1 Jan 2020 00:56:54.000,319.348,-76.103,25967.284944
1 Jan 2020 00:57:24.000,319.942,-76.291,25759.084931
1 Jan 2020 00:57:54.000,320.556,-76.496,25553.919177
1 Jan 2020 00:58:24.000,321.192,-76.717,25352.069254
1 Jan 2020 00:58:54.000,321.852,-76.955,25153.819506
1 Jan 2020 00:59:24.000,322.541,-77.210,24959.457832
1 Jan 2020 00:59:54.000,323.261,-77.481,24769.273256
1 Jan 2020 01:00:24.000,324.018,-77.769,24583.556601
1 Jan 2020 01:00:54.000,324.817,-78.073,24402.599512
1 Jan 2020 01:01:24.000,325.664,-78.394,24226.693742
1 Jan 2020 01:01:54.000,326.566,-78.729,24056.130113
1 Jan 2020 01:02:24.000,327.530,-79.080,23891.198700
1 Jan 2020 01:02:54.000,328.566,-79.446,23732.186376
1 Jan 2020 01:03:24.000,329.686,-79.826,23579.376893
1 Jan 2020 01:03:54.000,330.902,-80.218,23433.049598
1 Jan 2020 01:04:24.000,332.231,-80.623,23293.478147
1 Jan 2020 01:04:54.000,333.693,-81.038,23160.930290
1 Jan 2020 01:05:24.000,335.309,-81.463,23035.665356
1 Jan 2020 01:05:54.000,337.110,-81.896,22917.934000
1 Jan 2020 01:06:24.000,339.129,-82.334,22807.976612
1 Jan 2020 01:06:54.000,341.410,-82.775,22706.022766
1 Jan 2020 01:07:24.000,344.004,-83.217,22612.289034
1 Jan 2020 01:07:54.000,346.977,-83.654,22526.978479
1 Jan 2020 01:08:24.000,350.406,-84.083,22450.279224
1 Jan 2020 01:08:54.000,354.384,-84.498,22382.363840
1 Jan 2020 01:09:24.000,359.015,-84.892,22323.387563
1 Jan 2020 01:09:54.000,4.411,-85.254,22273.487851
1 Jan 2020 01:10:24.000,10.668,-85.576,22232.783331
1 Jan 2020 01:10:54.000,17.838,-85.843,22201.373275
1 Jan 2020 01:11:24.000,25.878,-86.042,22179.336567
1 Jan 2020 01:11:54.000,34.604,-86.162,22166.731457
1 Jan 2020 01:12:24.000,43.683,-86.192,22163.595116
1 Jan 2020 01:12:54.000,52.688,-86.131,22169.943355
1 Jan 2020 01:13:24.000,61.213,-85.984,22185.770549
1 Jan 2020 01:13:54.000,68.969,-85.760,22211.049685
1 Jan 2020 01:14:24.000,75.822,-85.472,22245.732635
1 Jan 2020 01:14:54.000,81.764,-85.134,22289.750161
1 Jan 2020 01:15:24.000,86.867,-84.759,22343.012849
1 Jan 2020 01:15:54.000,91.235,-84.355,22405.411419
1 Jan 2020 01:16:24.000,94.977,-83.933,22476.817658
1 Jan 2020 01:16:54.000,98.196,-83.498,22557.084663
1 Jan 2020 01:17:24.000,100.978,-83.056,22646.048615
1 Jan 2020 01:17:54.000,103.398,-82.611,22743.529223
1 Jan 2020 01:18:24.000,105.516,-82.168,22849.331130
1 Jan 2020 01:18:54.000,107.380,-81.728,22963.244254
1 Jan 2020 01:19:24.000,109.030,-81.295,23085.046089
1 Jan 2020 01:19:54.000,110.500,-80.869,23214.502139
1 Jan 2020 01:20:24.000,111.816,-80.454,23351.367294
1 Jan 2020 01:20:54.000,112.999,-80.050,23495.387301
1 Jan 2020 01:21:24.000,114.068,-79.659,23646.298818
1 Jan 2020 01:21:54.000,115.038,-79.281,23803.832227
1 Jan 2020 01:22:24.000,115.920,-78.918,23967.711655
1 Jan 2020 01:22:54.000,116.727,-78.569,24137.656318
1 Jan 2020 01:23:24.000,117.466,-78.236,24313.381551
1 Jan 2020 01:23:54.000,118.145,-77.919,24494.600111
1 Jan 2020 01:24:24.000,118.770,-77.619,24681.021775
1 Jan 2020 01:24:54.000,119.348,-77.335,24872.356165
1 Jan 2020 01:25:24.000,119.883,-77.068,25068.312242
1 Jan 2020 01:25:54.000,120.378,-76.818,25268.599362
1 Jan 2020 01:26:24.000,120.838,-76.586,25472.927949
1 Jan 2020 01:26:54.000,121.265,-76.370,25681.010111
1 Jan 2020 01:27:24.000,121.663,-76.172,25892.560184
1 Jan 2020 01:27:54.000,122.034,-75.991,26107.295235
1 Jan 2020 01:28:24.000,122.379,-75.826,26324.935863
1 Jan 2020 01:28:54.000,122.701,-75.679,26545.205142
1 Jan 2020 01:29:24.000,123.002,-75.548,26767.831123
1 Jan 2020 01:29:54.000,123.282,-75.434,26992.545692
1 Jan 2020 01:30:24.000,123.544,-75.335,27219.085179
1 Jan 2020 01:30:54.000,123.787,-75.253,27447.190573
1 Jan 2020 01:31:24.000,124.015,-75.186,27676.607696
1 Jan 2020 01:31:54.000,124.226,-75.135,27907.087351
1 Jan 2020 01:32:24.000,124.423,-75.099,28138.385432
1 Jan 2020 01:32:54.000,124.605,-75.078,28370.263012
1 Jan 2020 01:33:23.488,124.771,-75.071,28598.519647
1 Jan 2020 02:33:22.226,302.933,-75.063,28594.495934
1 Jan 2020 02:33:52.000,302.376,-75.070,28374.403658
1 Jan 2020 02:34:22.000,301.794,-75.089,28153.452342
1 Jan 2020 02:34:52.000,301.191,-75.122,27933.547526
1 Jan 2020 02:35:22.000,300.565,-75.168,27714.926421
1 Jan 2020 02:35:52.000,299.915,-75.228,27497.830367
1 Jan 2020 02:36:22.000,299.238,-75.301,27282.504665
1 Jan 2020 02:36:52.000,298.532,-75.389,27069.198382
1 Jan 2020 02:37:22.000,297.795,-75.490,26858.164122
1 Jan 2020 02:37:52.000,297.026,-75.605,26649.657761
1 Jan 2020 02:38:22.000,296.221,-75.734,26443.938151
1 Jan 2020 02:38:52.000,295.377,-75.876,26241.266779
1 Jan 2020 02:39:22.000,294.491,-76.033,26041.907386
1 Jan 2020 02:39:52.000,293.561,-76.202,25846.125231
1 Jan 2020 02:40:22.000,292.582,-76.385,25654.187873
1 Jan 2020 02:40:52.000,291.550,-76.580,25466.362773
1 Jan 2020 02:41:22.000,290.461,-76.788,25282.917982
1 Jan 2020 02:41:52.000,289.310,-77.008,25104.121220
1 Jan 2020 02:42:22.000,288.092,-77.240,24930.239207
1 Jan 2020 02:42:52.000,286.800,-77.482,24761.536690
1 Jan 2020 02:43:22.000,285.428,-77.734,24598.276749
1 Jan 2020 02:43:52.000,283.968,-77.995,24440.718380
1 Jan 2020 02:44:22.000,282.414,-78.264,24289.116728
1 Jan 2020 02:44:52.000,280.757,-78.540,24143.721932
1 Jan 2020 02:45:22.000,278.987,-78.821,24004.777963
1 Jan 2020 02:45:52.000,277.095,-79.107,23872.522623
1 Jan 2020 02:46:22.000,275.071,-79.394,23747.185133
1 Jan 2020 02:46:52.000,272.903,-79.682,23628.986110
1 Jan 2020 02:47:22.000,270.580,-79.969,23518.136328
1 Jan 2020 02:47:52.000,268.092,-80.251,23414.835514
1 Jan 2020 02:48:22.000,265.427,-80.526,23319.272210
1 Jan 2020 02:48:52.000,262.576,-80.792,23231.621524
1 Jan 2020 02:49:22.000,259.532,-81.046,23152.045079
1 Jan 2020 02:49:52.000,256.288,-81.285,23080.689774
1 Jan 2020 02:50:22.000,252.845,-81.504,23017.687497
1 Jan 2020 02:50:52.000,249.204,-81.702,22963.153540
1 Jan 2020 02:51:22.000,245.377,-81.875,22917.186480
1 Jan 2020 02:51:52.000,241.380,-82.019,22879.867359
1 Jan 2020 02:52:22.000,237.238,-82.132,22851.259512
1 Jan 2020 02:52:52.000,232.982,-82.212,22831.407657
1 Jan 2020 02:53:22.000,228.649,-82.257,22820.337961
1 Jan 2020 02:53:52.000,224.283,-82.267,22818.057759
1 Jan 2020 02:54:22.000,219.927,-82.240,22824.555576
1 Jan 2020 02:54:52.000,215.624,-82.178,22839.801038
1 Jan 2020 02:55:22.000,211.415,-82.083,22863.745163
1 Jan 2020 02:55:52.000,207.333,-81.955,22896.320664
1 Jan 2020 02:56:22.000,203.406,-81.799,22937.442183
1 Jan 2020 02:56:52.000,199.653,-81.615,22987.007019
1 Jan 2020 02:57:22.000,196.088,-81.409,23044.895598
1 Jan 2020 02:57:52.000,192.716,-81.183,23110.972287
1 Jan 2020 02:58:22.000,189.539,-80.940,23185.085778
1 Jan 2020 02:58:52.000,186.551,-80.684,23267.070483
1 Jan 2020 02:59:22.000,183.747,-80.418,23356.747066
1 Jan 2020 02:59:52.000,181.116,-80.143,23453.923609
1 Jan 2020 03:00:22.000,178.650,-79.864,23558.396043
1 Jan 2020 03:00:52.000,176.337,-79.582,23669.949942
1 Jan 2020 03:01:22.000,174.165,-79.299,23788.361016
1 Jan 2020 03:01:52.000,172.123,-79.018,23913.396249
1 Jan 2020 03:02:22.000,170.201,-78.740,24044.815118
1 Jan 2020 03:02:52.000,168.389,-78.466,24182.369764
1 Jan 2020 03:03:22.000,166.677,-78.199,24325.807175
1 Jan 2020 03:03:52.000,165.056,-77.938,24474.869328
1 Jan 2020 03:04:22.000,163.519,-77.686,24629.294295
1 Jan 2020 03:04:52.000,162.057,-77.443,24788.817103
1 Jan 2020 03:05:22.000,160.665,-77.210,24953.170807
1 Jan 2020 03:05:52.000,159.334,-76.987,25122.086285
1 Jan 2020 03:06:22.000,158.061,-76.776,25295.294420
1 Jan 2020 03:06:52.000,156.839,-76.576,25472.525818
1 Jan 2020 03:07:22.000,155.664,-76.388,25653.511669
1 Jan 2020 03:07:52.000,154.532,-76.212,25837.984326
1 Jan 2020 03:08:22.000,153.437,-76.048,26025.677832
1 Jan 2020 03:08:52.000,152.378,-75.897,26216.328402
1 Jan 2020 03:09:22.000,151.350,-75.759,26409.674848
1 Jan 2020 03:09:52.000,150.350,-75.634,26605.458976
1 Jan 2020 03:10:22.000,149.375,-75.521,26803.425922
1 Jan 2020 03:10:52.000,148.423,-75.421,27003.324766
1 Jan 2020 03:11:22.000,147.491,-75.334,27204.907588
1 Jan 2020 03:11:52.000,146.577,-75.260,27407.931503
1 Jan 2020 03:12:22.000,145.679,-75.197,27612.157661
1 Jan 2020 03:12:52.000,144.794,-75.147,27817.351715
1 Jan 2020 03:13:22.000,143.921,-75.110,28023.283957
1 Jan 2020 03:13:52.000,143.058,-75.084,28229.729431
1 Jan 2020 03:14:22.000,142.204,-75.070,28436.468030
1 Jan 2020 03:14:44.787,141.559,-75.066,28593.561658
1 Jan 2020 04:14:26.112,312.045,-75.064,28592.641095
1 Jan 2020 04:14:56.000,310.725,-75.067,28433.235417
1 Jan 2020 04:15:26.000,309.378,-75.077,28275.313241
1 Jan 2020 04:15:56.000,308.007,-75.094,28119.675914
1 Jan 2020 04:16:26.000,306.610,-75.116,27966.522952
1 Jan 2020 04:16:56.000,305.187,-75.145,27816.053717
1 Jan 2020 04:17:26.000,303.737,-75.180,27668.467065
1 Jan 2020 04:17:56.000,302.257,-75.220,27523.960969
1 Jan 2020 04:18:26.000,300.746,-75.265,27382.732131
1 Jan 2020 04:18:56.000,299.204,-75.316,27244.975556
1 Jan 2020 04:19:26.000,297.629,-75.370,27110.884130
1 Jan 2020 04:19:56.000,296.020,-75.429,26980.647946
1 Jan 2020 04:20:26.000,294.376,-75.491,26854.454698
1 Jan 2020 04:20:56.000,292.697,-75.557,26732.487899
1 Jan 2020 04:21:26.000,290.980,-75.625,26614.927258
1 Jan 2020 04:21:56.000,289.226,-75.695,26501.947948
1 Jan 2020 04:22:26.000,287.435,-75.767,26393.720094
1 Jan 2020 04:22:56.000,285.605,-75.839,26290.408250
1 Jan 2020 04:23:26.000,283.737,-75.912,26192.170706
1 Jan 2020 04:23:56.000,281.830,-75.985,26099.159652
1 Jan 2020 04:24:26.000,279.886,-76.056,26011.519616
1 Jan 2020 04:24:56.000,277.904,-76.126,25929.387659
1 Jan 2020 04:25:26.000,275.887,-76.194,25852.892697
1 Jan 2020 04:25:56.000,273.834,-76.259,25782.155023
1 Jan 2020 04:26:26.000,271.747,-76.321,25717.285723
1 Jan 2020 04:26:56.000,269.628,-76.379,25658.386725
1 Jan 2020 04:27:26.000,267.480,-76.432,25605.549653
1 Jan 2020 04:27:56.000,265.304,-76.480,25558.855950
1 Jan 2020 04:28:26.000,263.104,-76.522,25518.376413
1 Jan 2020 04:28:56.000,260.882,-76.559,25484.170832
1 Jan 2020 04:29:26.000,258.642,-76.589,25456.287983
1 Jan 2020 04:29:56.000,256.387,-76.613,25434.765024
1 Jan 2020 04:30:26.000,254.121,-76.629,25419.627601
1 Jan 2020 04:30:56.000,251.847,-76.639,25410.889665
1 Jan 2020 04:31:26.000,249.570,-76.641,25408.553389
1 Jan 2020 04:31:56.000,247.293,-76.637,25412.609226
1 Jan 2020 04:32:26.000,245.020,-76.625,25423.035831
1 Jan 2020 04:32:56.000,242.755,-76.607,25439.800237
1 Jan 2020 04:33:26.000,240.502,-76.582,25462.857975
1 Jan 2020 04:33:56.000,238.264,-76.550,25492.153291
1 Jan 2020 04:34:26.000,236.044,-76.512,25527.619266
1 Jan 2020 04:34:56.000,233.845,-76.469,25569.178264
1 Jan 2020 04:35:26.000,231.670,-76.420,25616.742152
1 Jan 2020 04:35:56.000,229.522,-76.366,25670.212688
1 Jan 2020 04:36:26.000,227.403,-76.309,25729.481912
1 Jan 2020 04:36:56.000,225.314,-76.247,25794.432679
1 Jan 2020 04:37:26.000,223.257,-76.183,25864.938730
1 Jan 2020 04:37:56.000,221.234,-76.116,25940.865730
1 Jan 2020 04:38:26.000,219.244,-76.047,26022.071398
1 Jan 2020 04:38:56.000,217.290,-75.976,26108.406117
1 Jan 2020 04:39:26.000,215.370,-75.905,26199.713452
1 Jan 2020 04:39:56.000,213.486,-75.834,26295.830811
1 Jan 2020 04:40:26.000,211.637,-75.764,26396.589475
1 Jan 2020 04:40:56.000,209.822,-75.694,26501.815877
1 Jan 2020 04:41:26.000,208.042,-75.626,26611.331641
1 Jan 2020 04:41:56.000,206.296,-75.560,26724.954229
1 Jan 2020 04:42:26.000,204.582,-75.496,26842.497453
1 Jan 2020 04:42:56.000,202.900,-75.436,26963.771977
1 Jan 2020 04:43:26.000,201.250,-75.379,27088.585805
1 Jan 2020 04:43:56.000,199.628,-75.325,27216.744753
1 Jan 2020 04:44:26.000,198.036,-75.276,27348.053097
1 Jan 2020 04:44:56.000,196.470,-75.231,27482.313234
1 Jan 2020 04:45:26.000,194.931,-75.191,27619.327253
1 Jan 2020 04:45:56.000,193.416,-75.156,27758.896562
1 Jan 2020 04:46:26.000,191.925,-75.127,27900.822452
1 Jan 2020 04:46:56.000,190.455,-75.102,28044.906451
1 Jan 2020 04:47:26.000,189.007,-75.084,28190.950650
1 Jan 2020 04:47:56.000,187.577,-75.071,28338.758016
1 Jan 2020 04:48:26.000,186.165,-75.064,28488.132678
1 Jan 2020 04:48:46.859,185.193,-75.062,28592.813343
1 Jan 2020 05:46:47.713,357.718,-75.070,28595.666707
1 Jan 2020 05:47:17.000,356.363,-75.073,28446.844537
1 Jan 2020 05:47:47.000,354.959,-75.082,28295.727144
1 Jan 2020 05:48:17.000,353.537,-75.097,28146.147869
1 Jan 2020 05:48:47.000,352.096,-75.117,27998.304412
1 Jan 2020 05:49:17.000,350.633,-75.144,27852.395780
1 Jan 2020 05:49:47.000,349.149,-75.176,27708.622004
1 Jan 2020 05:50:17.000,347.641,-75.214,27567.183830
1 Jan 2020 05:50:47.000,346.108,-75.257,27428.282389
1 Jan 2020 05:51:17.000,344.548,-75.305,27292.118846
1 Jan 2020 05:51:47.000,342.960,-75.357,27158.894027
1 Jan 2020 05:52:17.000,341.344,-75.414,27028.808022
1 Jan 2020 05:52:47.000,339.696,-75.475,26902.059769
1 Jan 2020 05:53:17.000,338.017,-75.539,26778.846442
1 Jan 2020 05:53:47.000,336.306,-75.606,26659.363684
1 Jan 2020 05:54:17.000,334.560,-75.676,26543.804085
1 Jan 2020 05:54:47.000,332.780,-75.749,26432.357390
1 Jan 2020 05:55:17.000,330.964,-75.823,26325.209812
1 Jan 2020 05:55:47.000,329.112,-75.897,26222.543507
1 Jan 2020 05:56:17.000,327.223,-75.973,26124.536043
1 Jan 2020 05:56:47.000,325.297,-76.048,26031.359732
1 Jan 2020 05:57:17.000,323.335,-76.123,25943.181583
1 Jan 2020 05:57:47.000,321.336,-76.197,25860.161995
1 Jan 2020 05:58:17.000,319.302,-76.268,25782.454723
1 Jan 2020 05:58:47.000,317.232,-76.337,25710.206208
1 Jan 2020 05:59:17.000,315.128,-76.403,25643.555048
1 Jan 2020 05:59:47.000,312.992,-76.464,25582.631405
1 Jan 2020 06:00:17.000,310.826,-76.522,25527.556816
1 Jan 2020 06:00:47.000,308.630,-76.574,25478.443243
1 Jan 2020 06:01:17.000,306.409,-76.621,25435.392954
1 Jan 2020 06:01:47.000,304.165,-76.662,25398.498018
1 Jan 2020 06:02:17.000,301.901,-76.697,25367.839903
1 Jan 2020 06:02:47.000,299.621,-76.724,25343.489239
1 Jan 2020 06:03:17.000,297.328,-76.745,25325.505348
1 Jan 2020 06:03:47.000,295.025,-76.758,25313.936108
1 Jan 2020 06:04:17.000,292.718,-76.764,25308.817721
1 Jan 2020 06:04:47.000,290.410,-76.763,25310.174574
1 Jan 2020 06:05:17.000,288.105,-76.753,25318.019056
1 Jan 2020 06:05:47.000,285.807,-76.737,25332.351614
1 Jan 2020 06:06:17.000,283.521,-76.713,25353.160696
1 Jan 2020 06:06:47.000,281.250,-76.681,25380.422814
1 Jan 2020 06:07:17.000,278.998,-76.643,25414.102731
1 Jan 2020 06:07:47.000,276.769,-76.599,25454.153335
1 Jan 2020 06:08:17.000,274.565,-76.549,25500.516258
1 Jan 2020 06:08:47.000,272.390,-76.493,25553.121871
1 Jan 2020 06:09:17.000,270.246,-76.432,25611.889645
1 Jan 2020 06:09:47.000,268.135,-76.367,25676.728609
1 Jan 2020 06:10:17.000,266.060,-76.298,25747.537287
1 Jan 2020 06:10:47.000,264.021,-76.226,25824.204761
1 Jan 2020 06:11:17.000,262.021,-76.152,25906.610692
1 Jan 2020 06:11:47.000,260.060,-76.076,25994.625895
1 Jan 2020 06:12:17.000,258.139,-75.999,26088.112827
1 Jan 2020 06:12:47.000,256.258,-75.921,26186.926268
1 Jan 2020 06:13:17.000,254.417,-75.843,26290.913166
1 Jan 2020 06:13:47.000,252.616,-75.767,26399.914173
1 Jan 2020 06:14:17.000,250.854,-75.691,26513.763516
1 Jan 2020 06:14:47.000,249.132,-75.618,26632.289703
1 Jan 2020 06:15:17.000,247.448,-75.547,26755.316051
1 Jan 2020 06:15:47.000,245.802,-75.480,26882.661219
1 Jan 2020 06:16:17.000,244.192,-75.416,27014.139935
1 Jan 2020 06:16:47.000,242.618,-75.356,27149.562686
1 Jan 2020 06:17:17.000,241.079,-75.301,27288.737433
1 Jan 2020 06:17:47.000,239.572,-75.251,27431.469288
1 Jan 2020 06:18:17.000,238.097,-75.206,27577.561173
1 Jan 2020 06:18:47.000,236.653,-75.166,27726.814270
1 Jan 2020 06:19:17.000,235.237,-75.133,27879.028441
1 Jan 2020 06:19:47.000,233.850,-75.106,28034.002638
1 Jan 2020 06:20:17.000,232.489,-75.085,28191.535282
1 Jan 2020 06:20:47.000,231.152,-75.071,28351.424629
1 Jan 2020 06:21:17.000,229.839,-75.064,28513.469106
1 Jan 2020 06:21:32.232,229.181,-75.063,28596.504960
1 Jan 2020 07:21:18.226,39.843,-75.074,28601.539254
1 Jan 2020 07:21:48.000,39.044,-75.080,28393.467099
1 Jan 2020 07:22:18.000,38.231,-75.098,28183.914782
1 Jan 2020 07:22:48.000,37.412,-75.127,27974.678267
1 Jan 2020 07:23:18.000,36.582,-75.169,27765.980257
1 Jan 2020 07:23:48.000,35.742,-75.224,27558.048406
1 Jan 2020 07:24:18.000,34.888,-75.291,27351.115234
1 Jan 2020 07:24:48.000,34.020,-75.371,27145.418015
1 Jan 2020 07:25:18.000,33.134,-75.464,26941.198635
1 Jan 2020 07:25:48.000,32.228,-75.570,26738.703426
1 Jan 2020 07:26:18.000,31.301,-75.690,26538.182972
1 Jan 2020 07:26:48.000,30.348,-75.823,26339.891869
1 Jan 2020 07:27:18.000,29.369,-75.969,26144.088460
1 Jan 2020 07:27:48.000,28.358,-76.128,25951.034528
1 Jan 2020 07:28:18.000,27.314,-76.301,25760.994943
1 Jan 2020 07:28:48.000,26.231,-76.487,25574.237268
1 Jan 2020 07:29:18.000,25.107,-76.685,25391.031040
1 Jan 2020 07:29:48.000,23.935,-76.896,25211.648402
1 Jan 2020 07:30:18.000,22.713,-77.120,25036.361872
1 Jan 2020 07:30:48.000,21.433,-77.355,24865.444888
1 Jan 2020 07:31:18.000,20.090,-77.601,24699.170875
1 Jan 2020 07:31:48.000,18.677,-77.858,24537.812556
1 Jan 2020 07:32:18.000,17.187,-78.125,24381.641201
1 Jan 2020 07:32:48.000,15.611,-78.401,24230.925581
1 Jan 2020 07:33:18.000,13.941,-78.685,24085.932130
1 Jan 2020 07:33:48.000,12.167,-78.975,23946.922528
1 Jan 2020 07:34:18.000,10.278,-79.271,23814.153793
1 Jan 2020 07:34:48.000,8.262,-79.571,23687.877052
1 Jan 2020 07:35:18.000,6.106,-79.873,23568.336366
1 Jan 2020 07:35:48.000,3.798,-80.174,23455.768425
1 Jan 2020 07:36:18.000,1.323,-80.474,23350.400409
1 Jan 2020 07:36:48.000,358.668,-80.768,23252.449687
1 Jan 2020 07:37:18.000,355.818,-81.056,23162.122469
1 Jan 2020 07:37:48.000,352.761,-81.332,23079.613256
1 Jan 2020 07:38:18.000,349.486,-81.595,23005.103101
1 Jan 2020 07:38:48.000,345.986,-81.840,22938.759144
1 Jan 2020 07:39:18.000,342.258,-82.064,22880.733492
1 Jan 2020 07:39:48.000,338.308,-82.263,22831.162670
1 Jan 2020 07:40:18.000,334.148,-82.433,22790.166355
1 Jan 2020 07:40:48.000,329.800,-82.572,22757.847004
1 Jan 2020 07:41:18.000,325.297,-82.675,22734.289146
1 Jan 2020 07:41:48.000,320.681,-82.740,22719.558944
1 Jan 2020 07:42:18.000,316.002,-82.766,22713.703663
1 Jan 2020 07:42:48.000,311.315,-82.752,22716.751490
1 Jan 2020 07:43:18.000,306.676,-82.699,22728.711385
1 Jan 2020 07:43:48.000,302.136,-82.607,22749.572860
1 Jan 2020 07:44:18.000,297.741,-82.478,22779.306302
1 Jan 2020 07:44:48.000,293.527,-82.316,22817.863024
1 Jan 2020 07:45:18.000,289.523,-82.124,22865.175725
1 Jan 2020 07:45:48.000,285.743,-81.905,22921.158496
1 Jan 2020 07:46:18.000,282.195,-81.663,22985.707968
1 Jan 2020 07:46:48.000,278.880,-81.402,23058.703548
1 Jan 2020 07:47:18.000,275.793,-81.126,23140.008405
1 Jan 2020 07:47:48.000,272.924,-80.837,23229.469629
1 Jan 2020 07:48:18.000,270.261,-80.540,23326.920031
1 Jan 2020 07:48:48.000,267.791,-80.237,23432.178457
1 Jan 2020 07:49:18.000,265.499,-79.931,23545.051099
1 Jan 2020 07:49:48.000,263.372,-79.623,23665.331725
1 Jan 2020 07:50:18.000,261.396,-79.317,23792.803830
1 Jan 2020 07:50:48.000,259.559,-79.015,23927.240926
1 Jan 2020 07:51:18.000,257.848,-78.717,24068.407748
1 Jan 2020 07:51:48.000,256.252,-78.426,24216.061545
1 Jan 2020 07:52:18.000,254.761,-78.142,24369.952018
1 Jan 2020 07:52:48.000,253.366,-77.868,24529.823871
1 Jan 2020 07:53:18.000,252.059,-77.603,24695.416712
1 Jan 2020 07:53:48.000,250.832,-77.349,24866.466218
1 Jan 2020 07:54:18.000,249.678,-77.107,25042.704996
1 Jan 2020 07:54:48.000,248.591,-76.877,25223.863695
1 Jan 2020 07:55:18.000,247.565,-76.660,25409.670592
1 Jan 2020 07:55:48.000,246.595,-76.456,25599.854078
1 Jan 2020 07:56:18.000,245.677,-76.265,25794.142151
1 Jan 2020 07:56:48.000,244.807,-76.088,25992.263323
1 Jan 2020 07:57:18.000,243.981,-75.925,26193.947189
1 Jan 2020 07:57:48.000,243.195,-75.777,26398.924938
1 Jan 2020 07:58:18.000,242.446,-75.642,26606.929818
1 Jan 2020 07:58:48.000,241.733,-75.522,26817.697562
1 Jan 2020 07:59:18.000,241.051,-75.416,27030.966759
1 Jan 2020 07:59:48.000,240.399,-75.324,27246.479187
1 Jan 2020 08:00:18.000,239.775,-75.247,27463.980455
1 Jan 2020 08:00:48.000,239.177,-75.184,27683.218868
1 Jan 2020 08:01:18.000,238.602,-75.134,27903.947728
1 Jan 2020 08:01:48.000,238.050,-75.099,28125.924138
1 Jan 2020 08:02:18.000,237.519,-75.077,28348.909506
1 Jan 2020 08:02:48.000,237.007,-75.068,28572.669676
1 Jan 2020 08:02:52.106,236.939,-75.068,28603.344289
1 Jan 2020 09:02:52.358,55.606,-75.077,28607.996542
1 Jan 2020 09:03:22.000,55.828,-75.084,28379.323800
1 Jan 2020 09:03:52.000,56.067,-75.105,28148.286765
1 Jan 2020 09:04:22.000,56.322,-75.141,27917.885886
1 Jan 2020 09:04:52.000,56.592,-75.192,27688.360399
1 Jan 2020 09:05:22.000,56.880,-75.259,27459.954631
1 Jan 2020 09:05:52.000,57.186,-75.341,27232.917897
1 Jan 2020 09:06:22.000,57.511,-75.438,27007.504381
1 Jan 2020 09:06:52.000,57.857,-75.552,26783.972979
1 Jan 2020 09:07:22.000,58.226,-75.681,26562.587113
1 Jan 2020 09:07:52.000,58.619,-75.828,26343.614506
1 Jan 2020 09:08:22.000,59.037,-75.990,26127.326920
1 Jan 2020 09:08:52.000,59.484,-76.169,25913.999848
1 Jan 2020 09:09:22.000,59.961,-76.365,25703.912165
1 Jan 2020 09:09:52.000,60.472,-76.578,25497.345722
1 Jan 2020 09:10:22.000,61.018,-76.807,25294.584541
1 Jan 2020 09:10:52.000,61.605,-77.053,25095.915747
1 Jan 2020 09:11:22.000,62.235,-77.316,24901.626830
1 Jan 2020 09:11:52.000,62.913,-77.595,24712.006480
1 Jan 2020 09:12:22.000,63.646,-77.890,24527.343538
1 Jan 2020 09:12:52.000,64.438,-78.200,24347.926257
1 Jan 2020 09:13:22.000,65.296,-78.526,24174.041209
1 Jan 2020 09:13:52.000,66.230,-78.866,24005.973580
1 Jan 2020 09:14:22.000,67.249,-79.221,23844.004501
1 Jan 2020 09:14:52.000,68.363,-79.589,23688.411250
1 Jan 2020 09:15:22.000,69.586,-79.969,23539.465928
1 Jan 2020 09:15:52.000,70.934,-80.360,23397.434137
1 Jan 2020 09:16:22.000,72.426,-80.761,23262.574892
1 Jan 2020 09:16:52.000,74.083,-81.170,23135.137933
1 Jan 2020 09:17:22.000,75.932,-81.585,23015.363610
1 Jan 2020 09:17:52.000,78.004,-82.004,22903.481260
1 Jan 2020 09:18:22.000,80.339,-82.425,22799.708788
1 Jan 2020 09:18:52.000,82.979,-82.843,22704.250363
1 Jan 2020 09:19:22.000,85.979,-83.256,22617.296067
1 Jan 2020 09:19:52.000,89.399,-83.659,22539.020462
1 Jan 2020 09:20:22.000,93.306,-84.045,22469.582140
1 Jan 2020 09:20:52.000,97.772,-84.409,22409.121857
1 Jan 2020 09:21:22.000,102.863,-84.742,22357.762264
1 Jan 2020 09:21:52.000,108.628,-85.035,22315.606881
1 Jan 2020 09:22:22.000,115.078,-85.278,22282.739767
1 Jan 2020 09:22:52.000,122.157,-85.461,22259.224406
1 Jan 2020 09:23:22.000,129.731,-85.575,22245.103664
1 Jan 2020 09:23:52.000,137.577,-85.614,22240.399377
1 Jan 2020 09:24:22.000,145.423,-85.575,22245.112265
1 Jan 2020 09:24:52.000,152.997,-85.461,22259.221785
1 Jan 2020 09:25:22.000,160.078,-85.278,22282.686371
1 Jan 2020 09:25:52.000,166.534,-85.035,22315.443727
1 Jan 2020 09:26:22.000,172.311,-84.743,22357.411025
1 Jan 2020 09:26:52.000,177.421,-84.412,22408.485739
1 Jan 2020 09:27:22.000,181.914,-84.050,22468.546120
1 Jan 2020 09:27:52.000,185.856,-83.665,22537.452140
1 Jan 2020 09:28:22.000,189.318,-83.266,22615.045883
1 Jan 2020 09:28:52.000,192.368,-82.856,22701.153189
1 Jan 2020 09:29:22.000,195.068,-82.440,22795.584247
1 Jan 2020 09:29:52.000,197.468,-82.023,22898.134951
1 Jan 2020 09:30:22.000,199.614,-81.607,23008.587386
1 Jan 2020 09:30:52.000,201.544,-81.196,23126.711947
1 Jan 2020 09:31:22.000,203.290,-80.790,23252.267896
1 Jan 2020 09:31:52.000,204.877,-80.393,23385.004696
1 Jan 2020 09:32:22.000,206.328,-80.006,23524.663436
1 Jan 2020 09:32:52.000,207.662,-79.630,23670.977003
1 Jan 2020 09:33:22.000,208.894,-79.265,23823.672670
1 Jan 2020 09:33:52.000,210.038,-78.914,23982.472221
1 Jan 2020 09:34:22.000,211.105,-78.576,24147.093239
1 Jan 2020 09:34:52.000,212.104,-78.253,24317.250098
1 Jan 2020 09:35:22.000,213.045,-77.945,24492.655202
1 Jan 2020 09:35:52.000,213.933,-77.652,24673.018699
1 Jan 2020 09:36:22.000,214.776,-77.375,24858.051043
1 Jan 2020 09:36:52.000,215.579,-77.114,25047.462608
1 Jan 2020 09:37:22.000,216.346,-76.869,25240.964672
1 Jan 2020 09:37:52.000,217.081,-76.640,25438.270061
1 Jan 2020 09:38:22.000,217.789,-76.427,25639.093727
1 Jan 2020 09:38:52.000,218.473,-76.230,25843.153269
1 Jan 2020 09:39:22.000,219.135,-76.050,26050.169406
1 Jan 2020 09:39:52.000,219.779,-75.885,26259.866383
1 Jan 2020 09:40:22.000,220.405,-75.737,26471.972684
1 Jan 2020 09:40:52.000,221.018,-75.604,26686.219982
1 Jan 2020 09:41:22.000,221.618,-75.486,26902.345448
1 Jan 2020 09:41:52.000,222.208,-75.384,27120.090632
1 Jan 2020 09:42:22.000,222.789,-75.297,27339.201989
1 Jan 2020 09:42:52.000,223.363,-75.224,27559.431046
1 Jan 2020 09:43:22.000,223.930,-75.166,27780.534524
1 Jan 2020 09:43:52.000,224.493,-75.123,28002.274440
1 Jan 2020 09:44:22.000,225.053,-75.093,28224.418180
1 Jan 2020 09:44:52.000,225.611,-75.076,28446.738554
1 Jan 2020 09:45:13.940,226.018,-75.073,28609.310951
1 Jan 2020 10:45:11.421,53.891,-75.077,28611.404386
1 Jan 2020 10:45:41.000,55.025,-75.081,28433.144600
1 Jan 2020 10:46:11.000,56.198,-75.094,28254.124022
1 Jan 2020 10:46:41.000,57.397,-75.116,28077.107701
1 Jan 2020 10:47:11.000,58.624,-75.145,27902.310303
1 Jan 2020 10:47:41.000,59.879,-75.183,27729.947559
1 Jan 2020 10:48:11.000,61.165,-75.229,27560.235932
1 Jan 2020 10:48:41.000,62.484,-75.283,27393.392274
1 Jan 2020 10:49:11.000,63.836,-75.344,27229.633445
1 Jan 2020 10:49:41.000,65.225,-75.412,27069.175913
1 Jan 2020 10:50:11.000,66.652,-75.487,26912.235319
1 Jan 2020 10:50:41.000,68.118,-75.568,26759.025787
1 Jan 2020 10:51:11.000,69.627,-75.655,26609.760409
1 Jan 2020 10:51:41.000,71.178,-75.748,26464.649275
1 Jan 2020 10:52:11.000,72.775,-75.845,26323.899923
1 Jan 2020 10:52:41.000,74.419,-75.946,26187.716542
1 Jan 2020 10:53:11.000,76.111,-76.051,26056.299401
1 Jan 2020 10:53:41.000,77.853,-76.159,25929.844259
1 Jan 2020 10:54:11.000,79.647,-76.269,25808.541542
1 Jan 2020 10:54:41.000,81.493,-76.381,25692.576611
1 Jan 2020 10:55:11.000,83.392,-76.493,25582.127805
1 Jan 2020 10:55:41.000,85.346,-76.604,25477.366709
1 Jan 2020 10:56:11.000,87.353,-76.715,25378.457310
1 Jan 2020 10:56:41.000,89.415,-76.823,25285.555370
1 Jan 2020 10:57:11.000,91.531,-76.928,25198.807650
1 Jan 2020 10:57:41.000,93.700,-77.030,25118.352011
1 Jan 2020 10:58:11.000,95.920,-77.126,25044.315786
1 Jan 2020 10:58:41.000,98.189,-77.217,24976.815950
1 Jan 2020 10:59:11.000,100.506,-77.302,24915.958426
1 Jan 2020 10:59:41.000,102.866,-77.378,24861.837504
1 Jan 2020 11:00:11.000,105.267,-77.447,24814.535843
1 Jan 2020 11:00:41.000,107.703,-77.507,24774.123419
1 Jan 2020 11:01:11.000,110.171,-77.557,24740.657647
1 Jan 2020 11:01:41.000,112.664,-77.598,24714.182988
1 Jan 2020 11:02:11.000,115.178,-77.628,24694.730674
1 Jan 2020 11:02:41.000,117.706,-77.647,24682.318773
1 Jan 2020 11:03:11.000,120.243,-77.655,24676.951752
1 Jan 2020 11:03:41.000,122.781,-77.653,24678.620683
1 Jan 2020 11:04:11.000,125.315,-77.639,24687.303223
1 Jan 2020 11:04:41.000,127.839,-77.615,24702.963720
1 Jan 2020 11:05:11.000,130.347,-77.580,24725.553355
1 Jan 2020 11:05:41.000,132.833,-77.536,24755.010390
1 Jan 2020 11:06:11.000,135.291,-77.481,24791.260449
1 Jan 2020 11:06:41.000,137.718,-77.418,24834.216861
1 Jan 2020 11:07:11.000,140.109,-77.347,24883.781122
1 Jan 2020 11:07:41.000,142.460,-77.268,24939.843085
1 Jan 2020 11:08:11.000,144.769,-77.183,25002.281808
1 Jan 2020 11:08:41.000,147.032,-77.091,25070.965846
1 Jan 2020 11:09:11.000,149.249,-76.995,25145.753868
1 Jan 2020 11:09:41.000,151.417,-76.894,25226.495346
1 Jan 2020 11:10:11.000,153.536,-76.791,25313.030749
1 Jan 2020 11:10:41.000,155.605,-76.684,25405.192771
1 Jan 2020 11:11:11.000,157.625,-76.577,25502.806574
1 Jan 2020 11:11:41.000,159.595,-76.468,25605.690523
1 Jan 2020 11:12:11.000,161.516,-76.360,25713.656829
1 Jan 2020 11:12:41.000,163.390,-76.253,25826.512342
1 Jan 2020 11:13:11.000,165.218,-76.147,25944.058572
1 Jan 2020 11:13:41.000,167.000,-76.043,26066.093212
1 Jan 2020 11:14:11.000,168.739,-75.943,26192.410147
1 Jan 2020 11:14:41.000,170.436,-75.846,26322.800191
1 Jan 2020 11:15:11.000,172.093,-75.753,26457.051649
1 Jan 2020 11:15:41.000,173.712,-75.664,26594.950863
1 Jan 2020 11:16:11.000,175.294,-75.581,26736.282735
1 Jan 2020 11:16:41.000,176.842,-75.503,26880.831214
1 Jan 2020 11:17:11.000,178.357,-75.431,27028.379986
1 Jan 2020 11:17:41.000,179.841,-75.364,27178.712053
1 Jan 2020 11:18:11.000,181.297,-75.305,27331.611426
1 Jan 2020 11:18:41.000,182.726,-75.252,27486.862664
1 Jan 2020 11:19:11.000,184.130,-75.205,27644.251440
1 Jan 2020 11:19:41.000,185.510,-75.166,27803.564874
1 Jan 2020 11:20:11.000,186.869,-75.134,27964.591840
1 Jan 2020 11:20:41.000,188.208,-75.109,28127.123239
1 Jan 2020 11:21:11.000,189.530,-75.091,28290.952263
1 Jan 2020 11:21:41.000,190.835,-75.080,28455.874617
1 Jan 2020 11:22:09.155,192.046,-75.077,28611.466484
1 Jan 2020 12:20:30.787,20.227,-75.073,28609.737473
1 Jan 2020 12:21:00.000,21.633,-75.075,28470.279875
1 Jan 2020 12:21:30.000,23.094,-75.083,28328.875882
1 Jan 2020 12:22:00.000,24.575,-75.097,28189.492903
1 Jan 2020 12:22:30.000,26.076,-75.115,28052.321560
1 Jan 2020 12:23:00.000,27.599,-75.138,27917.552524
1 Jan 2020 12:23:30.000,29.145,-75.166,27785.376182
1 Jan 2020 12:24:00.000,30.715,-75.198,27655.982287
1 Jan 2020 12:24:30.000,32.310,-75.234,27529.559591
1 Jan 2020 12:25:00.000,33.932,-75.274,27406.295457
1 Jan 2020 12:25:30.000,35.580,-75.317,27286.375458
1 Jan 2020 12:26:00.000,37.256,-75.363,27169.982955
1 Jan 2020 12:26:30.000,38.961,-75.413,27057.298498
1 Jan 2020 12:27:00.000,40.695,-75.464,26948.500044
1 Jan 2020 12:27:30.000,42.459,-75.517,26843.761487
1 Jan 2020 12:28:00.000,44.253,-75.572,26743.252864
1 Jan 2020 12:28:30.000,46.077,-75.628,26647.139708
1 Jan 2020 12:29:00.000,47.932,-75.684,26555.582558
1 Jan 2020 12:29:30.000,49.818,-75.740,26468.736482
1 Jan 2020 12:30:00.000,51.733,-75.796,26386.750465
1 Jan 2020 12:30:30.000,53.678,-75.850,26309.767393
1 Jan 2020 12:31:00.000,55.652,-75.903,26237.922874
1 Jan 2020 12:31:30.000,57.654,-75.954,26171.345241
1 Jan 2020 12:32:00.000,59.683,-76.003,26110.154983
1 Jan 2020 12:32:30.000,61.736,-76.048,26054.464305
1 Jan 2020 12:33:00.000,63.813,-76.090,26004.376648
1 Jan 2020 12:33:30.000,65.912,-76.128,25959.986567
1 Jan 2020 12:34:00.000,68.030,-76.162,25921.378949
1 Jan 2020 12:34:30.000,70.166,-76.191,25888.628964
1 Jan 2020 12:35:00.000,72.316,-76.216,25861.801697
1 Jan 2020 12:35:30.000,74.477,-76.235,25840.951883
1 Jan 2020 12:36:00.000,76.648,-76.249,25826.123671
1 Jan 2020 12:36:30.000,78.824,-76.257,25817.350500
1 Jan 2020 12:37:00.000,81.004,-76.259,25814.654865
1 Jan 2020 12:37:30.000,83.183,-76.256,25818.048293
1 Jan 2020 12:38:00.000,85.358,-76.248,25827.531282
1 Jan 2020 12:38:30.000,87.528,-76.233,25843.093327
1 Jan 2020 12:39:00.000,89.687,-76.214,25864.712844
1 Jan 2020 12:39:30.000,91.835,-76.189,25892.357432
1 Jan 2020 12:40:00.000,93.967,-76.159,25925.983903
1 Jan 2020 12:40:30.000,96.081,-76.125,25965.538483
1 Jan 2020 12:41:00.000,98.175,-76.086,26010.957035
1 Jan 2020 12:41:30.000,100.247,-76.044,26062.165411
1 Jan 2020 12:42:00.000,102.294,-75.997,26119.079376
1 Jan 2020 12:42:30.000,104.315,-75.948,26181.605483
1 Jan 2020 12:43:00.000,106.308,-75.897,26249.641083
1 Jan 2020 12:43:30.000,108.273,-75.843,26323.074794
1 Jan 2020 12:44:00.000,110.207,-75.788,26401.786915
1 Jan 2020 12:44:30.000,112.111,-75.732,26485.649993
1 Jan 2020 12:45:00.000,113.983,-75.675,26574.528744
1 Jan 2020 12:45:30.000,115.824,-75.618,26668.281299
1 Jan 2020 12:46:00.000,117.633,-75.562,26766.759159
1 Jan 2020 12:46:30.000,119.410,-75.507,26869.807804
1 Jan 2020 12:47:00.000,121.155,-75.454,26977.267174
1 Jan 2020 12:47:30.000,122.869,-75.402,27088.972152
1 Jan 2020 12:48:00.000,124.552,-75.353,27204.753213
1 Jan 2020 12:48:30.000,126.205,-75.307,27324.436224
1 Jan 2020 12:49:00.000,127.829,-75.264,27447.843915
1 Jan 2020 12:49:30.000,129.423,-75.225,27574.795671
1 Jan 2020 12:50:00.000,130.990,-75.189,27705.108139
1 Jan 2020 12:50:30.000,132.531,-75.159,27838.595664
1 Jan 2020 12:51:00.000,134.045,-75.132,27975.070700
1 Jan 2020 12:51:30.000,135.535,-75.111,28114.344211
1 Jan 2020 12:52:00.000,137.001,-75.095,28256.226057
1 Jan 2020 12:52:30.000,138.445,-75.084,28400.525352
1 Jan 2020 12:53:00.000,139.868,-75.079,28547.050818
1 Jan 2020 12:53:12.594,140.459,-75.078,28609.179460
1 Jan 2020 13:52:29.091,330.162,-75.067,28604.618662
1 Jan 2020 13:52:59.000,331.215,-75.072,28414.464361
1 Jan 2020 13:53:29.000,332.282,-75.087,28224.088859
1 Jan 2020 13:53:59.000,333.361,-75.111,28034.278432
1 Jan 2020 13:54:29.000,334.454,-75.145,27845.247456
1 Jan 2020 13:54:59.000,335.564,-75.190,27657.214382
1 Jan 2020 13:55:29.000,336.693,-75.244,27470.401589
1 Jan 2020 13:55:59.000,337.842,-75.309,27285.035221
1 Jan 2020 13:56:29.000,339.014,-75.384,27101.344984
1 Jan 2020 13:56:59.000,340.211,-75.469,26919.563934
1 Jan 2020 13:57:29.000,341.435,-75.564,26739.928215
1 Jan 2020 13:57:59.000,342.690,-75.669,26562.676785
1 Jan 2020 13:58:29.000,343.978,-75.784,26388.051091
1 Jan 2020 13:58:59.000,345.302,-75.908,26216.294718
1 Jan 2020 13:59:29.000,346.666,-76.041,26047.653006
1 Jan 2020 13:59:59.000,348.072,-76.184,25882.372613
1 Jan 2020 14:00:29.000,349.523,-76.335,25720.700804
1 Jan 2020 14:00:59.000,351.025,-76.494,25562.885959
1 Jan 2020 14:01:29.000,352.579,-76.660,25409.175490
1 Jan 2020 14:01:59.000,354.191,-76.833,25259.816292
1 Jan 2020 14:02:29.000,355.865,-77.013,25115.053851
1 Jan 2020 14:02:59.000,357.604,-77.198,24975.131585
1 Jan 2020 14:03:29.000,359.414,-77.387,24840.290142
1 Jan 2020 14:03:59.000,1.298,-77.579,24710.766468
1 Jan 2020 14:04:29.000,3.261,-77.774,24586.793847
1 Jan 2020 14:04:59.000,5.308,-77.970,24468.599884
1 Jan 2020 14:05:29.000,7.442,-78.166,24356.406514
1 Jan 2020 14:05:59.000,9.667,-78.361,24250.428958
1 Jan 2020 14:06:29.000,11.987,-78.552,24150.874751
1 Jan 2020 14:06:59.000,14.404,-78.738,24057.943417
1 Jan 2020 14:07:29.000,16.921,-78.919,23971.824805
1 Jan 2020 14:07:59.000,19.537,-79.091,23892.698805
1 Jan 2020 14:08:29.000,22.253,-79.253,23820.734378
1 Jan 2020 14:08:59.000,25.066,-79.404,23756.088675
1 Jan 2020 14:09:29.000,27.972,-79.541,23698.906626
1 Jan 2020 14:09:59.000,30.965,-79.664,23649.319668
1 Jan 2020 14:10:29.000,34.038,-79.769,23607.445450
1 Jan 2020 14:10:59.000,37.180,-79.857,23573.387107
1 Jan 2020 14:11:29.000,40.380,-79.926,23547.232817
1 Jan 2020 14:11:59.000,43.624,-79.974,23529.055153
1 Jan 2020 14:12:29.000,46.897,-80.001,23518.910820
1 Jan 2020 14:12:59.000,50.181,-80.006,23516.840343
1 Jan 2020 14:13:29.000,53.462,-79.991,23522.867758
1 Jan 2020 14:13:59.000,56.721,-79.953,23537.000601
1 Jan 2020 14:14:29.000,59.943,-79.895,23559.229815
1 Jan 2020 14:14:59.000,63.113,-79.816,23589.529900
1 Jan 2020 14:15:29.000,66.217,-79.719,23627.858772
1 Jan 2020 14:15:59.000,69.244,-79.603,23674.158434
1 Jan 2020 14:16:29.000,72.184,-79.472,23728.355038
1 Jan 2020 14:16:59.000,75.030,-79.325,23790.359487
1 Jan 2020 14:17:29.000,77.776,-79.166,23860.067443
1 Jan 2020 14:17:59.000,80.418,-78.995,23937.360595
1 Jan 2020 14:18:29.000,82.956,-78.815,24022.106825
1 Jan 2020 14:18:59.000,85.387,-78.627,24114.160995
1 Jan 2020 14:19:29.000,87.715,-78.434,24213.365883
1 Jan 2020 14:19:59.000,89.939,-78.236,24319.552126
1 Jan 2020 14:20:29.000,92.064,-78.036,24432.540224
1 Jan 2020 14:20:59.000,94.092,-77.834,24552.140559
1 Jan 2020 14:21:29.000,96.027,-77.633,24678.154421
1 Jan 2020 14:21:59.000,97.873,-77.434,24810.375066
1 Jan 2020 14:22:29.000,99.636,-77.238,24948.587641
1 Jan 2020 14:22:59.000,101.318,-77.046,25092.571358
1 Jan 2020 14:23:29.000,102.925,-76.859,25242.099412
1 Jan 2020 14:23:59.000,104.460,-76.678,25396.939985
1 Jan 2020 14:24:29.000,105.928,-76.504,25556.857018
1 Jan 2020 14:24:59.000,107.333,-76.338,25721.611206
1 Jan 2020 14:25:29.000,108.679,-76.181,25890.959646
1 Jan 2020 14:25:59.000,109.969,-76.032,26064.658086
1 Jan 2020 14:26:29.000,111.207,-75.893,26242.460511
1 Jan 2020 14:26:59.000,112.395,-75.764,26424.119999
1 Jan 2020 14:27:29.000,113.539,-75.645,26609.389276
1 Jan 2020 14:27:59.000,114.639,-75.537,26798.021240
1 Jan 2020 14:28:29.000,115.699,-75.440,26989.769433
1 Jan 2020 14:28:59.000,116.722,-75.354,27184.388486
1 Jan 2020 14:29:29.000,117.711,-75.280,27381.634526
1 Jan 2020 14:29:59.000,118.666,-75.217,27581.265853
1 Jan 2020 14:30:29.000,119.591,-75.165,27783.042021
1 Jan 2020 14:30:59.000,120.488,-75.125,27986.726016
1 Jan 2020 14:31:29.000,121.358,-75.097,28192.083275
1 Jan 2020 14:31:59.000,122.203,-75.080,28398.882235
1 Jan 2020 14:32:28.444,123.011,-75.074,28603.028614
1 Jan 2020 15:32:27.760,307.449,-75.064,28597.969590
1 Jan 2020 15:32:57.000,307.572,-75.071,28371.167707
1 Jan 2020 15:33:27.000,307.691,-75.092,28138.584573
1 Jan 2020 15:33:57.000,307.801,-75.129,27906.349011
1 Jan 2020 15:34:27.000,307.905,-75.180,27674.696843
1 Jan 2020 15:34:57.000,308.001,-75.247,27443.869413
1 Jan 2020 15:35:27.000,308.089,-75.330,27214.113531
1 Jan 2020 15:35:57.000,308.170,-75.430,26985.681401
1 Jan 2020 15:36:27.000,308.244,-75.546,26758.830506
1 Jan 2020 15:36:57.000,308.310,-75.679,26533.823482
1 Jan 2020 15:37:27.000,308.369,-75.829,26310.927939
1 Jan 2020 15:37:57.000,308.420,-75.997,26090.416257
1 Jan 2020 15:38:27.000,308.463,-76.183,25872.565336
1 Jan 2020 15:38:57.000,308.497,-76.386,25657.656304
1 Jan 2020 15:39:27.000,308.524,-76.608,25445.974172
1 Jan 2020 15:39:57.000,308.542,-76.848,25237.807126
1 Jan 2020 15:40:27.000,308.550,-77.106,25033.447358
1 Jan 2020 15:40:57.000,308.549,-77.383,24833.188630
1 Jan 2020 15:41:27.000,308.538,-77.679,24637.327004
1 Jan 2020 15:41:57.000,308.516,-77.993,24446.159882
1 Jan 2020 15:42:27.000,308.482,-78.326,24259.985316
1 Jan 2020 15:42:57.000,308.436,-78.677,24079.100969
1 Jan 2020 15:43:27.000,308.375,-79.046,23903.804410
1 Jan 2020 15:43:57.000,308.299,-79.434,23734.390523
1 Jan 2020 15:44:27.000,308.205,-79.840,23571.151693
1 Jan 2020 15:44:57.000,308.092,-80.263,23414.376500
1 Jan 2020 15:45:27.000,307.956,-80.703,23264.348390
1 Jan 2020 15:45:57.000,307.795,-81.160,23121.345562
1 Jan 2020 15:46:27.000,307.603,-81.633,22985.638257
1 Jan 2020 15:46:57.000,307.374,-82.122,22857.488586
1 Jan 2020 15:47:27.000,307.101,-82.625,22737.148840
1 Jan 2020 15:47:57.000,306.774,-83.143,22624.860999
1 Jan 2020 15:48:27.000,306.379,-83.673,22520.854313
1 Jan 2020 15:48:57.000,305.895,-84.216,22425.344844
1 Jan 2020 15:49:27.000,305.293,-84.770,22338.533890
1 Jan 2020 15:49:57.000,304.532,-85.333,22260.607416
1 Jan 2020 15:50:27.000,303.541,-85.905,22191.733988
1 Jan 2020 15:50:57.000,302.207,-86.484,22132.064357
1 Jan 2020 15:51:27.000,300.322,-87.068,22081.730239
1 Jan 2020 15:51:57.000,297.475,-87.652,22040.843820
1 Jan 2020 15:52:27.000,292.719,-88.232,22009.496418
1 Jan 2020 15:52:57.000,283.414,-88.792,21987.758269
1 Jan 2020 15:53:27.000,260.265,-89.271,21975.677916
1 Jan 2020 15:53:57.000,206.243,-89.412,21973.281956
1 Jan 2020 15:54:27.000,167.933,-89.049,21980.574696
1 Jan 2020 15:54:57.000,153.743,-88.516,21997.538244
1 Jan 2020 15:55:27.000,147.244,-87.943,22024.132655
1 Jan 2020 15:55:57.000,143.600,-87.360,22060.295990
1 Jan 2020 15:56:27.000,141.278,-86.775,22105.945045
1 Jan 2020 15:56:57.000,139.668,-86.194,22160.975736
1 Jan 2020 15:57:27.000,138.482,-85.619,22225.263968
1 Jan 2020 15:57:57.000,137.568,-85.051,22298.665959
1 Jan 2020 15:58:27.000,136.837,-84.493,22381.019891
1 Jan 2020 15:58:57.000,136.237,-83.945,22472.146467
1 Jan 2020 15:59:27.000,135.732,-83.409,22571.850309
1 Jan 2020 15:59:57.000,135.297,-82.885,22679.920399
1 Jan 2020 16:00:27.000,134.917,-82.375,22796.132345
1 Jan 2020 16:00:57.000,134.578,-81.880,22920.248931
1 Jan 2020 16:01:27.000,134.273,-81.399,23052.021757
1 Jan 2020 16:01:57.000,133.994,-80.935,23191.191655
1 Jan 2020 16:02:27.000,133.736,-80.487,23337.491181
1 Jan 2020 16:02:57.000,133.496,-80.055,23490.645018
1 Jan 2020 16:03:27.000,133.269,-79.642,23650.371376
1 Jan 2020 16:03:57.000,133.053,-79.245,23816.383410
1 Jan 2020 16:04:27.000,132.846,-78.867,23988.389226
1 Jan 2020 16:04:57.000,132.646,-78.507,24166.094559
1 Jan 2020 16:05:27.000,132.451,-78.166,24349.202675
1 Jan 2020 16:05:57.000,132.261,-77.843,24537.415561
1 Jan 2020 16:06:27.000,132.075,-77.538,24730.434779
1 Jan 2020 16:06:57.000,131.890,-77.252,24927.962259
1 Jan 2020 16:07:27.000,131.707,-76.985,25129.701352
1 Jan 2020 16:07:57.000,131.525,-76.736,25335.356151
1 Jan 2020 16:08:27.000,131.343,-76.505,25544.634083
1 Jan 2020 16:08:57.000,131.160,-76.293,25757.245114
1 Jan 2020 16:09:27.000,130.977,-76.098,25972.902552
1 Jan 2020 16:09:57.000,130.791,-75.922,26191.323462
1 Jan 2020 16:10:27.000,130.604,-75.763,26412.229027
1 Jan 2020 16:10:57.000,130.415,-75.621,26635.344867
1 Jan 2020 16:11:27.000,130.222,-75.496,26860.401300
1 Jan 2020 16:11:57.000,130.026,-75.388,27087.133571
1 Jan 2020 16:12:27.000,129.827,-75.296,27315.282038
1 Jan 2020 16:12:57.000,129.624,-75.220,27544.592321
1 Jan 2020 16:13:27.000,129.416,-75.161,27774.815422
1 Jan 2020 16:13:57.000,129.204,-75.116,28005.707811
1 Jan 2020 16:14:27.000,128.987,-75.086,28237.031496
1 Jan 2020 16:14:57.000,128.764,-75.071,28468.554057
1 Jan 2020 16:15:13.555,128.639,-75.069,28596.315862
1 Jan 2020 17:15:12.439,303.348,-75.063,28593.202743
1 Jan 2020 17:15:42.000,302.457,-75.068,28393.857622
1 Jan 2020 17:16:12.000,301.530,-75.084,28192.897094
1 Jan 2020 17:16:42.000,300.577,-75.111,27993.514946
1 Jan 2020 17:17:12.000,299.597,-75.149,27795.939352
1 Jan 2020 17:17:42.000,298.588,-75.197,27600.401050
1 Jan 2020 17:18:12.000,297.548,-75.256,27407.133085
1 Jan 2020 17:18:42.000,296.475,-75.326,27216.370518
1 Jan 2020 17:19:12.000,295.367,-75.406,27028.350106
1 Jan 2020 17:19:42.000,294.221,-75.497,26843.309950
1 Jan 2020 17:20:12.000,293.034,-75.597,26661.489109
1 Jan 2020 17:20:42.000,291.805,-75.707,26483.127181
1 Jan 2020 17:21:12.000,290.530,-75.826,26308.463560
1 Jan 2020 17:21:42.000,289.206,-75.954,26137.738100
1 Jan 2020 17:22:12.000,287.831,-76.090,25971.188849
1 Jan 2020 17:22:42.000,286.401,-76.235,25809.052654
1 Jan 2020 17:23:12.000,284.914,-76.386,25651.564270
1 Jan 2020 17:23:42.000,283.365,-76.543,25498.955734
1 Jan 2020 17:24:12.000,281.752,-76.707,25351.455704
1 Jan 2020 17:24:42.000,280.071,-76.875,25209.288502
1 Jan 2020 17:25:12.000,278.318,-77.047,25072.674474
1 Jan 2020 17:25:42.000,276.491,-77.222,24941.827630
1 Jan 2020 17:26:12.000,274.587,-77.398,24816.955973
1 Jan 2020 17:26:42.000,272.601,-77.575,24698.260461
1 Jan 2020 17:27:12.000,270.532,-77.751,24585.934036
1 Jan 2020 17:27:42.000,268.378,-77.925,24480.161621
1 Jan 2020 17:28:12.000,266.136,-78.096,24381.118164
1 Jan 2020 17:28:42.000,263.806,-78.262,24288.968673
1 Jan 2020 17:29:12.000,261.387,-78.421,24203.867269
1 Jan 2020 17:29:42.000,258.881,-78.572,24125.956312
1 Jan 2020 17:30:12.000,256.289,-78.714,24055.366351
1 Jan 2020 17:30:42.000,253.614,-78.845,23992.214511
1 Jan 2020 17:31:12.000,250.862,-78.963,23936.604557
1 Jan 2020 17:31:42.000,248.038,-79.068,23888.626102
1 Jan 2020 17:32:12.000,245.150,-79.158,23848.354496
1 Jan 2020 17:32:42.000,242.207,-79.232,23815.849856
1 Jan 2020 17:33:12.000,239.219,-79.288,23791.157121
1 Jan 2020 17:33:42.000,236.197,-79.328,23774.305659
1 Jan 2020 17:34:12.000,233.154,-79.349,23765.309277
1 Jan 2020 17:34:42.000,230.102,-79.351,23764.165845
1 Jan 2020 17:35:12.000,227.055,-79.336,23770.857503
1 Jan 2020 17:35:42.000,224.024,-79.302,23785.350697
1 Jan 2020 17:36:12.000,221.022,-79.251,23807.596343
1 Jan 2020 17:36:42.000,218.060,-79.182,23837.530076
1 Jan 2020 17:37:12.000,215.149,-79.098,23875.072602
1 Jan 2020 17:37:42.000,212.296,-78.999,23920.130153
1 Jan 2020 17:38:12.000,209.511,-78.887,23972.594766
1 Jan 2020 17:38:42.000,206.798,-78.762,24032.345113
1 Jan 2020 17:39:12.000,204.163,-78.626,24099.246926
1 Jan 2020 17:39:42.000,201.607,-78.480,24173.153692
1 Jan 2020 17:40:12.000,199.134,-78.327,24253.907468
1 Jan 2020 17:40:42.000,196.744,-78.167,24341.339142
1 Jan 2020 17:41:12.000,194.437,-78.002,24435.269885
1 Jan 2020 17:41:42.000,192.211,-77.834,24535.511482
1 Jan 2020 17:42:12.000,190.065,-77.663,24641.867231
1 Jan 2020 17:42:42.000,187.996,-77.491,24754.132897
1 Jan 2020 17:43:12.000,186.002,-77.320,24872.096899
1 Jan 2020 17:43:42.000,184.080,-77.150,24995.542000
1 Jan 2020 17:44:12.000,182.226,-76.982,25124.245491
1 Jan 2020 17:44:42.000,180.438,-76.817,25257.980097
1 Jan 2020 17:45:12.000,178.710,-76.657,25396.514708
1 Jan 2020 17:45:42.000,177.041,-76.501,25539.615093
1 Jan 2020 17:46:12.000,175.427,-76.352,25687.044801
1 Jan 2020 17:46:42.000,173.864,-76.209,25838.564913
1 Jan 2020 17:47:12.000,172.349,-76.072,25993.935993
1 Jan 2020 17:47:42.000,170.879,-75.944,26152.917781
1 Jan 2020 17:48:12.000,169.450,-75.823,26315.269951
1 Jan 2020 17:48:42.000,168.060,-75.710,26480.752621
1 Jan 2020 17:49:12.000,166.706,-75.606,26649.126820
1 Jan 2020 17:49:42.000,165.385,-75.510,26820.154917
1 Jan 2020 17:50:12.000,164.094,-75.424,26993.601023
1 Jan 2020 17:50:42.000,162.832,-75.347,27169.231345
1 Jan 2020 17:51:12.000,161.595,-75.279,27346.814522
1 Jan 2020 17:51:42.000,160.382,-75.220,27526.121918
1 Jan 2020 17:52:12.000,159.189,-75.171,27706.927887
1 Jan 2020 17:52:42.000,158.016,-75.131,27889.010008
1 Jan 2020 17:53:12.000,156.860,-75.101,28072.149564
1 Jan 2020 17:53:42.000,155.718,-75.080,28256.130664
1 Jan 2020 17:54:12.000,154.591,-75.068,28440.741986
1 Jan 2020 17:54:36.658,153.672,-75.065,28592.803901
1 Jan 2020 18:53:39.845,324.168,-75.066,28593.256842
1 Jan 2020 18:54:09.000,322.778,-75.068,28452.613622
1 Jan 2020 18:54:39.000,321.327,-75.076,28309.979254
1 Jan 2020 18:55:09.000,319.855,-75.089,28169.648287
1 Jan 2020 18:55:39.000,318.361,-75.108,28031.810195
1 Jan 2020 18:56:09.000,316.844,-75.131,27896.653870
1 Jan 2020 18:56:39.000,315.301,-75.158,27764.367265
1 Jan 2020 18:57:09.000,313.734,-75.190,27635.137025
1 Jan 2020 18:57:39.000,312.140,-75.226,27509.148099
1 Jan 2020 18:58:09.000,310.518,-75.266,27386.583335
1 Jan 2020 18:58:39.000,308.868,-75.309,27267.623064
1 Jan 2020 18:59:09.000,307.190,-75.354,27152.444490
1 Jan 2020 18:59:39.000,305.482,-75.403,27041.221947
1 Jan 2020 19:00:09.000,303.743,-75.453,26934.125381
1 Jan 2020 19:00:39.000,301.975,-75.505,26831.320604
1 Jan 2020 19:01:09.000,300.176,-75.558,26732.968635
1 Jan 2020 19:01:39.000,298.346,-75.612,26639.225232
1 Jan 2020 19:02:09.000,296.485,-75.666,26550.240415
1 Jan 2020 19:02:39.000,294.595,-75.720,26466.157862
1 Jan 2020 19:03:09.000,292.674,-75.773,26387.114964
1 Jan 2020 19:03:39.000,290.725,-75.824,26313.241567
1 Jan 2020 19:04:09.000,288.747,-75.874,26244.660068
1 Jan 2020 19:04:39.000,286.743,-75.922,26181.484834
1 Jan 2020 19:05:09.000,284.713,-75.967,26123.821795
1 Jan 2020 19:05:39.000,282.660,-76.008,26071.767971
1 Jan 2020 19:06:09.000,280.584,-76.046,26025.411424
1 Jan 2020 19:06:39.000,278.488,-76.080,25984.830425
1 Jan 2020 19:07:09.000,276.375,-76.110,25950.093482
1 Jan 2020 19:07:39.000,274.247,-76.135,25921.258986
1 Jan 2020 19:08:09.000,272.106,-76.155,25898.374973
1 Jan 2020 19:08:39.000,269.955,-76.170,25881.478899
1 Jan 2020 19:09:09.000,267.797,-76.179,25870.597611
1 Jan 2020 19:09:39.000,265.635,-76.184,25865.747034
1 Jan 2020 19:10:09.000,263.473,-76.183,25866.932253
1 Jan 2020 19:10:39.000,261.312,-76.176,25874.147447
1 Jan 2020 19:11:09.000,259.156,-76.164,25887.375935
1 Jan 2020 19:11:39.000,257.009,-76.147,25906.590176
1 Jan 2020 19:12:09.000,254.872,-76.125,25931.751971
1 Jan 2020 19:12:39.000,252.748,-76.098,25962.812570
1 Jan 2020 19:13:09.000,250.641,-76.067,25999.712877
1 Jan 2020 19:13:39.000,248.552,-76.031,26042.383692
1 Jan 2020 19:14:09.000,246.483,-75.992,26090.746060
1 Jan 2020 19:14:39.000,244.437,-75.949,26144.711280
1 Jan 2020 19:15:09.000,242.414,-75.903,26204.181687
1 Jan 2020 19:15:39.000,240.418,-75.855,26269.050737
1 Jan 2020 19:16:09.000,238.448,-75.804,26339.203472
1 Jan 2020 19:16:39.000,236.506,-75.752,26414.516940
1 Jan 2020 19:17:09.000,234.593,-75.699,26494.860743
1 Jan 2020 19:17:39.000,232.709,-75.646,26580.097035
1 Jan 2020 19:18:09.000,230.855,-75.592,26670.081659
1 Jan 2020 19:18:39.000,229.031,-75.538,26764.664177
1 Jan 2020 19:19:09.000,227.237,-75.486,26863.688453
1 Jan 2020 19:19:39.000,225.472,-75.435,26966.993131
1 Jan 2020 19:20:09.000,223.737,-75.385,27074.412114
1 Jan 2020 19:20:39.000,222.031,-75.338,27185.775040
1 Jan 2020 19:21:09.000,220.353,-75.293,27300.907915
1 Jan 2020 19:21:39.000,218.703,-75.252,27419.632885
1 Jan 2020 19:22:09.000,217.080,-75.213,27541.769716
1 Jan 2020 19:22:39.000,215.483,-75.179,27667.135541
1 Jan 2020 19:23:09.000,213.911,-75.148,27795.545455
1 Jan 2020 19:23:39.000,212.363,-75.122,27926.812920
1 Jan 2020 19:24:09.000,210.838,-75.100,28060.750155
1 Jan 2020 19:24:39.000,209.336,-75.083,28197.168504
1 Jan 2020 19:25:09.000,207.854,-75.071,28335.878797
1 Jan 2020 19:25:39.000,206.392,-75.064,28476.691681
1 Jan 2020 19:26:03.613,205.206,-75.062,28593.656739
1 Jan 2020 20:24:35.721,16.600,-75.072,28597.551640
1 Jan 2020 20:25:05.000,15.383,-75.075,28430.465406
1 Jan 2020 20:25:35.000,14.122,-75.087,28260.012759
1 Jan 2020 20:26:05.000,12.846,-75.106,28090.519724
1 Jan 2020 20:26:35.000,11.552,-75.133,27922.193083
1 Jan 2020 20:27:05.000,10.239,-75.168,27755.242513
1 Jan 2020 20:27:35.000,8.905,-75.210,27589.880381
1 Jan 2020 20:28:05.000,7.547,-75.261,27426.321498
1 Jan 2020 20:28:35.000,6.165,-75.318,27264.782866
1 Jan 2020 20:29:05.000,4.756,-75.383,27105.483387
1 Jan 2020 20:29:35.000,3.318,-75.455,26948.643549
1 Jan 2020 20:30:05.000,1.849,-75.534,26794.485082
1 Jan 2020 20:30:35.000,0.347,-75.620,26643.230584
1 Jan 2020 20:31:05.000,358.809,-75.711,26495.103125
1 Jan 2020 20:31:35.000,357.234,-75.809,26350.325811
1 Jan 2020 20:32:05.000,355.619,-75.912,26209.121112
1 Jan 2020 20:32:35.000,353.962,-76.020,26071.711223
1 Jan 2020 20:33:05.000,352.261,-76.132,25938.316259
1 Jan 2020 20:33:35.000,350.513,-76.248,25809.154567
1 Jan 2020 20:34:05.000,348.718,-76.367,25684.441940
1 Jan 2020 20:34:35.000,346.872,-76.489,25564.391012
1 Jan 2020 20:35:05.000,344.974,-76.612,25449.210640
1 Jan 2020 20:35:35.000,343.023,-76.736,25339.105108
1 Jan 2020 20:36:05.000,341.016,-76.860,25234.274095
1 Jan 2020 20:36:35.000,338.954,-76.982,25134.911053
1 Jan 2020 20:37:05.000,336.836,-77.103,25041.203170
1 Jan 2020 20:37:35.000,334.660,-77.222,24953.330527
1 Jan 2020 20:38:05.000,332.428,-77.336,24871.465414
1 Jan 2020 20:38:35.000,330.141,-77.445,24795.771555
1 Jan 2020 20:39:05.000,327.799,-77.549,24726.403865
1 Jan 2020 20:39:35.000,325.405,-77.645,24663.507155
1 Jan 2020 20:40:05.000,322.962,-77.734,24607.215958
1 Jan 2020 20:40:35.000,320.473,-77.814,24557.653824
1 Jan 2020 20:41:05.000,317.943,-77.884,24514.932723
1 Jan 2020 20:41:35.000,315.376,-77.944,24479.152711
1 Jan 2020 20:42:05.000,312.778,-77.993,24450.401182
1 Jan 2020 20:42:35.000,310.155,-78.030,24428.752656
1 Jan 2020 20:43:05.000,307.515,-78.055,24414.268371
1 Jan 2020 20:43:35.000,304.863,-78.067,24406.996009
1 Jan 2020 20:44:05.000,302.209,-78.067,24406.969407
1 Jan 2020 20:44:35.000,299.558,-78.055,24414.208468
1 Jan 2020 20:45:05.000,296.919,-78.029,24428.719034
1 Jan 2020 20:45:35.000,294.299,-77.992,24450.492871
1 Jan 2020 20:46:05.000,291.705,-77.942,24479.507803
1 Jan 2020 20:46:35.000,289.144,-77.881,24515.727513
1 Jan 2020 20:47:05.000,286.620,-77.810,24559.102186
1 Jan 2020 20:47:35.000,284.141,-77.728,24609.568474
1 Jan 2020 20:48:05.000,281.710,-77.638,24667.049880
1 Jan 2020 20:48:35.000,279.332,-77.539,24731.457271
1 Jan 2020 20:49:05.000,277.009,-77.433,24802.688766
1 Jan 2020 20:49:35.000,274.744,-77.320,24880.631013
1 Jan 2020 20:50:05.000,272.539,-77.203,24965.159187
1 Jan 2020 20:50:35.000,270.395,-77.081,25056.137680
1 Jan 2020 20:51:05.000,268.313,-76.956,25153.420871
1 Jan 2020 20:51:35.000,266.292,-76.829,25256.853050
1 Jan 2020 20:52:05.000,264.333,-76.701,25366.270081
1 Jan 2020 20:52:35.000,262.434,-76.573,25481.499388
1 Jan 2020 20:53:05.000,260.595,-76.445,25602.360774
1 Jan 2020 20:53:35.000,258.813,-76.320,25728.667097
1 Jan 2020 20:54:05.000,257.088,-76.197,25860.225158
1 Jan 2020 20:54:35.000,255.418,-76.077,25996.835444
1 Jan 2020 20:55:05.000,253.800,-75.962,26138.294142
1 Jan 2020 20:55:35.000,252.233,-75.851,26284.392864
1 Jan 2020 20:56:05.000,250.714,-75.746,26434.919491
1 Jan 2020 20:56:35.000,249.242,-75.647,26589.658766
1 Jan 2020 20:57:05.000,247.814,-75.554,26748.392864
1 Jan 2020 20:57:35.000,246.429,-75.468,26910.901937
1 Jan 2020 20:58:05.000,245.083,-75.390,27076.964910
1 Jan 2020 20:58:35.000,243.776,-75.320,27246.358884
1 Jan 2020 20:59:05.000,242.504,-75.257,27418.861224
1 Jan 2020 20:59:35.000,241.267,-75.203,27594.248914
1 Jan 2020 21:00:05.000,240.062,-75.158,27772.299235
1 Jan 2020 21:00:35.000,238.887,-75.121,27952.790138
1 Jan 2020 21:01:05.000,237.740,-75.094,28135.500596
1 Jan 2020 21:01:35.000,236.620,-75.075,28320.210925
1 Jan 2020 21:02:05.000,235.524,-75.066,28506.703077
1 Jan 2020 21:02:19.719,234.995,-75.065,28598.788062
1 Jan 2020 22:02:18.310,47.810,-75.075,28603.972613
1 Jan 2020 22:02:48.000,47.352,-75.082,28380.500106
1 Jan 2020 22:03:18.000,46.890,-75.102,28154.704063
1 Jan 2020 22:03:48.000,46.428,-75.137,27929.143894
1 Jan 2020 22:04:18.000,45.965,-75.186,27704.050426
1 Jan 2020 22:04:48.000,45.499,-75.250,27479.659986
1 Jan 2020 22:05:18.000,45.030,-75.328,27256.214352
1 Jan 2020 22:05:48.000,44.557,-75.422,27033.960675
1 Jan 2020 22:06:18.000,44.077,-75.532,26813.151378
1 Jan 2020 22:06:48.000,43.591,-75.658,26594.044023
1 Jan 2020 22:07:18.000,43.095,-75.800,26376.901149
1 Jan 2020 22:07:48.000,42.590,-75.958,26161.990071
1 Jan 2020 22:08:18.000,42.072,-76.133,25949.582643
1 Jan 2020 22:08:48.000,41.541,-76.325,25739.954970
1 Jan 2020 22:09:18.000,40.993,-76.533,25533.387091
1 Jan 2020 22:09:48.000,40.426,-76.759,25330.162595
1 Jan 2020 22:10:18.000,39.838,-77.002,25130.567877
1 Jan 2020 22:10:48.000,39.226,-77.262,24934.892930
1 Jan 2020 22:11:18.000,38.585,-77.539,24743.428881
1 Jan 2020 22:11:48.000,37.913,-77.833,24556.468678
1 Jan 2020 22:12:18.000,37.203,-78.144,24374.306098
1 Jan 2020 22:12:48.000,36.451,-78.472,24197.235024
1 Jan 2020 22:13:18.000,35.650,-78.815,24025.548393
1 Jan 2020 22:13:48.000,34.793,-79.175,23859.538390
1 Jan 2020 22:14:18.000,33.871,-79.550,23699.493942
1 Jan 2020 22:14:48.000,32.873,-79.940,23545.700815
1 Jan 2020 22:15:18.000,31.787,-80.344,23398.440307
1 Jan 2020 22:15:48.000,30.597,-80.761,23257.987943
1 Jan 2020 22:16:18.000,29.285,-81.190,23124.613258
1 Jan 2020 22:16:48.000,27.828,-81.629,22998.577246
1 Jan 2020 22:17:18.000,26.196,-82.078,22880.132100
1 Jan 2020 22:17:48.000,24.355,-82.534,22769.519604
1 Jan 2020 22:18:18.000,22.259,-82.996,22666.970575
1 Jan 2020 22:18:48.000,19.852,-83.459,22572.702637
1 Jan 2020 22:19:18.000,17.062,-83.921,22486.919718
1 Jan 2020 22:19:48.000,13.796,-84.378,22409.810597
1 Jan 2020 22:20:18.000,9.941,-84.823,22341.548287
1 Jan 2020 22:20:48.000,5.355,-85.250,22282.288229
1 Jan 2020 22:21:18.000,359.873,-85.648,22232.167846
1 Jan 2020 22:21:48.000,353.325,-86.005,22191.305477
1 Jan 2020 22:22:18.000,345.578,-86.307,22159.799868
1 Jan 2020 22:22:48.000,336.614,-86.535,22137.729109
1 Jan 2020 22:23:18.000,326.639,-86.673,22125.150410
1 Jan 2020 22:23:48.000,316.131,-86.707,22122.099650
1 Jan 2020 22:24:18.000,305.748,-86.634,22128.591109
1 Jan 2020 22:24:48.000,296.104,-86.461,22144.617395
1 Jan 2020 22:25:18.000,287.582,-86.204,22170.149512
1 Jan 2020 22:25:48.000,280.297,-85.879,22205.137140
1 Jan 2020 22:26:18.000,274.178,-85.503,22249.508663
1 Jan 2020 22:26:48.000,269.072,-85.092,22303.172122
1 Jan 2020 22:27:18.000,264.807,-84.656,22366.015539
1 Jan 2020 22:27:48.000,261.226,-84.204,22437.907883
1 Jan 2020 22:28:18.000,258.197,-83.742,22518.699325
1 Jan 2020 22:28:48.000,255.614,-83.277,22608.223040
1 Jan 2020 22:29:18.000,253.393,-82.811,22706.295677
1 Jan 2020 22:29:48.000,251.469,-82.349,22812.718781
1 Jan 2020 22:30:18.000,249.788,-81.892,22927.279163
1 Jan 2020 22:30:48.000,248.310,-81.443,23049.751218
1 Jan 2020 22:31:18.000,247.002,-81.005,23179.897383
1 Jan 2020 22:31:48.000,245.837,-80.577,23317.469528
1 Jan 2020 22:32:18.000,244.795,-80.162,23462.210446
1 Jan 2020 22:32:48.000,243.857,-79.760,23613.853921
1 Jan 2020 22:33:18.000,243.011,-79.373,23772.127557
1 Jan 2020 22:33:48.000,242.243,-79.001,23936.752810
1 Jan 2020 22:34:18.000,241.544,-78.645,24107.446341
1 Jan 2020 22:34:48.000,240.906,-78.304,24283.921056
1 Jan 2020 22:35:18.000,240.322,-77.981,24465.887414
1 Jan 2020 22:35:48.000,239.787,-77.675,24653.053029
1 Jan 2020 22:36:18.000,239.294,-77.385,24845.125503
1 Jan 2020 22:36:48.000,238.840,-77.113,25041.811915
1 Jan 2020 22:37:18.000,238.421,-76.859,25242.819885
1 Jan 2020 22:37:48.000,238.035,-76.622,25447.858243
1 Jan 2020 22:38:18.000,237.677,-76.402,25656.637640
1 Jan 2020 22:38:48.000,237.346,-76.200,25868.871098
1 Jan 2020 22:39:18.000,237.039,-76.016,26084.274504
1 Jan 2020 22:39:48.000,236.755,-75.848,26302.567406
1 Jan 2020 22:40:18.000,236.493,-75.697,26523.471959
1 Jan 2020 22:40:48.000,236.249,-75.564,26746.715414
1 Jan 2020 22:41:18.000,236.024,-75.447,26972.028976
1 Jan 2020 22:41:48.000,235.817,-75.346,27199.148409
1 Jan 2020 22:42:18.000,235.625,-75.261,27427.814241
1 Jan 2020 22:42:48.000,235.449,-75.193,27657.771937
1 Jan 2020 22:43:18.000,235.287,-75.139,27888.772036
1 Jan 2020 22:43:48.000,235.139,-75.101,28120.570262
1 Jan 2020 22:44:18.000,235.004,-75.078,28352.927605
1 Jan 2020 22:44:48.000,234.882,-75.070,28585.610377
1 Jan 2020 22:44:50.603,234.872,-75.070,28605.806974
1 Jan 2020 23:44:51.080,57.137,-75.077,28609.756836
1 Jan 2020 23:45:21.000,57.741,-75.084,28390.464338
1 Jan 2020 23:45:51.000,58.368,-75.103,28171.462988
1 Jan 2020 23:46:21.000,59.017,-75.136,27953.572602
1 Jan 2020 23:46:51.000,59.689,-75.181,27737.030139
1 Jan 2020 23:47:21.000,60.387,-75.240,27522.076534
1 Jan 2020 23:47:51.000,61.113,-75.313,27308.956519
1 Jan 2020 23:48:21.000,61.868,-75.398,27097.918410
1 Jan 2020 23:48:51.000,62.655,-75.498,26889.213870
1 Jan 2020 23:49:21.000,63.475,-75.610,26683.097631
1 Jan 2020 23:49:51.000,64.333,-75.736,26479.827178
1 Jan 2020 23:50:21.000,65.231,-75.876,26279.662398
1 Jan 2020 23:50:51.000,66.171,-76.028,26082.865190
1 Jan 2020 23:51:21.000,67.157,-76.193,25889.698706
1 Jan 2020 23:51:51.000,68.194,-76.371,25700.428142
1 Jan 2020 23:52:21.000,69.284,-76.561,25515.318297
1 Jan 2020 23:52:51.000,70.433,-76.763,25334.634280
1 Jan 2020 23:53:21.000,71.645,-76.976,25158.640566
1 Jan 2020 23:53:51.000,72.926,-77.200,24987.600324
1 Jan 2020 23:54:21.000,74.281,-77.434,24821.774441
1 Jan 2020 23:54:51.000,75.716,-77.676,24661.421818
1 Jan 2020 23:55:21.000,77.240,-77.927,24506.796965
1 Jan 2020 23:55:51.000,78.857,-78.186,24358.150230
1 Jan 2020 23:56:21.000,80.578,-78.449,24215.726650
1 Jan 2020 23:56:51.000,82.409,-78.718,24079.764802
1 Jan 2020 23:57:21.000,84.360,-78.989,23950.496805
1 Jan 2020 23:57:51.000,86.440,-79.262,23828.145942
1 Jan 2020 23:58:21.000,88.658,-79.534,23712.926645
1 Jan 2020 23:58:51.000,91.023,-79.803,23605.043282
1 Jan 2020 23:59:21.000,93.546,-80.067,23504.688988
1 Jan 2020 23:59:51.000,96.233,-80.323,23412.045538
2 Jan 2020 00:00:21.000,99.091,-80.570,23327.281163
2 Jan 2020 00:00:51.000,102.126,-80.804,23250.550514
2 Jan 2020 00:01:21.000,105.338,-81.021,23181.993480
