STKdata/stk_90fov_4leo/Satellite-MEO_Satellite10205-To-Satellite-LEO_Satellite10000 AER.csv

"Time (UTCG)","Azimuth (deg)","Elevation (deg)","Range (km)"
1 Jan 2020 00:43:07.496,303.043,-75.063,28594.689741
1 Jan 2020 00:43:37.000,302.537,-75.070,28374.776734
1 Jan 2020 00:44:07.000,302.003,-75.089,28151.906926
1 Jan 2020 00:44:37.000,301.448,-75.123,27930.017661
1 Jan 2020 00:45:07.000,300.871,-75.170,27709.346676
1 Jan 2020 00:45:37.000,300.270,-75.230,27490.135999
1 Jan 2020 00:46:07.000,299.643,-75.305,27272.631797
1 Jan 2020 00:46:37.000,298.989,-75.394,27057.084191
1 Jan 2020 00:47:07.000,298.306,-75.498,26843.747036
1 Jan 2020 00:47:37.000,297.590,-75.615,26632.877676
1 Jan 2020 00:48:07.000,296.840,-75.747,26424.736653
1 Jan 2020 00:48:37.000,296.053,-75.893,26219.587379
1 Jan 2020 00:49:07.000,295.226,-76.053,26017.695770
1 Jan 2020 00:49:37.000,294.355,-76.227,25819.329830
1 Jan 2020 00:50:07.000,293.437,-76.415,25624.758847
1 Jan 2020 00:50:37.000,292.468,-76.616,25434.254275
1 Jan 2020 00:51:07.000,291.443,-76.830,25248.087085
1 Jan 2020 00:51:37.000,290.358,-77.057,25066.528556
1 Jan 2020 00:52:07.000,289.206,-77.296,24889.849268
1 Jan 2020 00:52:37.000,287.982,-77.547,24718.318391
1 Jan 2020 00:53:07.000,286.679,-77.809,24552.202658
1 Jan 2020 00:53:37.000,285.290,-78.080,24391.766652
1 Jan 2020 00:54:07.000,283.806,-78.361,24237.270294
1 Jan 2020 00:54:37.000,282.218,-78.649,24088.969063
1 Jan 2020 00:55:07.000,280.517,-78.944,23947.112784
1 Jan 2020 00:55:37.000,278.692,-79.244,23811.944421
1 Jan 2020 00:56:07.000,276.731,-79.547,23683.700044
1 Jan 2020 00:56:37.000,274.622,-79.852,23562.606364
1 Jan 2020 00:57:07.000,272.351,-80.157,23448.880688
1 Jan 2020 00:57:37.000,269.905,-80.458,23342.729481
1 Jan 2020 00:58:07.000,267.271,-80.754,23244.348043
1 Jan 2020 00:58:37.000,264.435,-81.041,23153.918451
1 Jan 2020 00:59:07.000,261.385,-81.317,23071.609313
1 Jan 2020 00:59:37.000,258.113,-81.577,22997.574528
1 Jan 2020 01:00:07.000,254.612,-81.819,22931.952971
1 Jan 2020 01:00:37.000,250.884,-82.039,22874.866833
1 Jan 2020 01:01:07.000,246.933,-82.233,22826.421481
1 Jan 2020 01:01:37.000,242.777,-82.398,22786.704578
1 Jan 2020 01:02:07.000,238.439,-82.529,22755.785887
1 Jan 2020 01:02:37.000,233.955,-82.625,22733.716291
1 Jan 2020 01:03:07.000,229.367,-82.684,22720.527833
1 Jan 2020 01:03:37.000,224.726,-82.703,22716.233390
1 Jan 2020 01:04:07.000,220.086,-82.682,22720.826670
1 Jan 2020 01:04:37.000,215.499,-82.623,22734.282080
1 Jan 2020 01:05:07.000,211.016,-82.526,22756.554991
1 Jan 2020 01:05:37.000,206.678,-82.394,22787.582025
1 Jan 2020 01:06:07.000,202.519,-82.230,22827.281269
1 Jan 2020 01:06:37.000,198.563,-82.037,22875.552989
1 Jan 2020 01:07:07.000,194.823,-81.819,22932.280091
1 Jan 2020 01:07:37.000,191.306,-81.579,22997.328941
1 Jan 2020 01:08:07.000,188.010,-81.321,23070.549746
1 Jan 2020 01:08:37.000,184.930,-81.049,23151.777958
1 Jan 2020 01:09:07.000,182.056,-80.766,23240.834819
1 Jan 2020 01:09:37.000,179.376,-80.474,23337.528546
1 Jan 2020 01:10:07.000,176.876,-80.178,23441.654772
1 Jan 2020 01:10:37.000,174.543,-79.879,23552.998377
1 Jan 2020 01:11:07.000,172.363,-79.579,23671.333995
1 Jan 2020 01:11:37.000,170.324,-79.281,23796.427184
1 Jan 2020 01:12:07.000,168.412,-78.987,23928.035676
1 Jan 2020 01:12:37.000,166.616,-78.697,24065.909557
1 Jan 2020 01:13:07.000,164.926,-78.414,24209.793513
1 Jan 2020 01:13:37.000,163.331,-78.139,24359.426978
1 Jan 2020 01:14:07.000,161.823,-77.872,24514.545273
1 Jan 2020 01:14:37.000,160.393,-77.616,24674.880500
1 Jan 2020 01:15:07.000,159.034,-77.369,24840.162642
1 Jan 2020 01:15:37.000,157.738,-77.133,25010.119361
1 Jan 2020 01:16:07.000,156.501,-76.910,25184.478244
1 Jan 2020 01:16:37.000,155.316,-76.698,25362.966516
1 Jan 2020 01:17:07.000,154.179,-76.498,25545.311932
1 Jan 2020 01:17:37.000,153.084,-76.312,25731.243370
1 Jan 2020 01:18:07.000,152.028,-76.138,25920.491380
1 Jan 2020 01:18:37.000,151.007,-75.978,26112.788678
1 Jan 2020 01:19:07.000,150.017,-75.830,26307.870591
1 Jan 2020 01:19:37.000,149.055,-75.696,26505.475457
1 Jan 2020 01:20:07.000,148.118,-75.576,26705.345281
1 Jan 2020 01:20:37.000,147.204,-75.468,26907.224857
1 Jan 2020 01:21:07.000,146.310,-75.373,27110.863822
1 Jan 2020 01:21:37.000,145.434,-75.292,27316.015708
1 Jan 2020 01:22:07.000,144.573,-75.223,27522.438448
1 Jan 2020 01:22:37.000,143.725,-75.167,27729.894536
1 Jan 2020 01:23:07.000,142.889,-75.124,27938.151180
1 Jan 2020 01:23:37.000,142.063,-75.093,28146.980412
1 Jan 2020 01:24:07.000,141.245,-75.074,28356.159182
1 Jan 2020 01:24:37.000,140.433,-75.067,28565.469428
1 Jan 2020 01:24:41.046,140.324,-75.067,28593.697015
1 Jan 2020 02:24:25.359,310.960,-75.064,28592.619733
1 Jan 2020 02:24:55.000,309.671,-75.067,28431.872865
1 Jan 2020 02:25:25.000,308.344,-75.078,28271.220579
1 Jan 2020 02:25:55.000,306.993,-75.095,28112.824687
1 Jan 2020 02:26:25.000,305.616,-75.118,27956.886653
1 Jan 2020 02:26:55.000,304.212,-75.148,27803.607923
1 Jan 2020 02:27:25.000,302.780,-75.184,27653.189573
1 Jan 2020 02:27:55.000,301.318,-75.225,27505.831941
1 Jan 2020 02:28:25.000,299.826,-75.273,27361.734230
1 Jan 2020 02:28:55.000,298.300,-75.325,27221.094092
1 Jan 2020 02:29:25.000,296.742,-75.382,27084.107197
1 Jan 2020 02:29:55.000,295.148,-75.443,26950.966559
1 Jan 2020 02:30:25.000,293.519,-75.508,26821.862942
1 Jan 2020 02:30:55.000,291.853,-75.577,26696.983048
1 Jan 2020 02:31:25.000,290.149,-75.648,26576.509904
1 Jan 2020 02:31:55.000,288.406,-75.722,26460.622126
1 Jan 2020 02:32:25.000,286.624,-75.797,26349.493390
1 Jan 2020 02:32:55.000,284.803,-75.874,26243.291908
1 Jan 2020 02:33:25.000,282.941,-75.951,26142.179716
1 Jan 2020 02:33:55.000,281.040,-76.027,26046.312848
1 Jan 2020 02:34:25.000,279.099,-76.103,25955.839728
1 Jan 2020 02:34:55.000,277.119,-76.178,25870.901373
1 Jan 2020 02:35:25.000,275.101,-76.250,25791.630699
1 Jan 2020 02:35:55.000,273.045,-76.320,25718.152016
1 Jan 2020 02:36:25.000,270.954,-76.386,25650.580434
1 Jan 2020 02:36:55.000,268.828,-76.449,25589.021910
1 Jan 2020 02:37:25.000,266.670,-76.506,25533.572049
1 Jan 2020 02:37:55.000,264.483,-76.559,25484.316233
1 Jan 2020 02:38:25.000,262.269,-76.605,25441.329133
1 Jan 2020 02:38:55.000,260.031,-76.646,25404.674319
1 Jan 2020 02:39:25.000,257.773,-76.680,25374.404262
1 Jan 2020 02:39:55.000,255.498,-76.707,25350.559673
1 Jan 2020 02:40:25.000,253.210,-76.727,25333.169619
1 Jan 2020 02:40:55.000,250.912,-76.740,25322.251315
1 Jan 2020 02:41:25.000,248.610,-76.745,25317.810019
1 Jan 2020 02:41:55.000,246.306,-76.742,25319.839100
1 Jan 2020 02:42:25.000,244.006,-76.732,25328.319913
1 Jan 2020 02:42:55.000,241.712,-76.715,25343.221985
1 Jan 2020 02:43:25.000,239.430,-76.691,25364.503120
1 Jan 2020 02:43:55.000,237.162,-76.660,25392.109610
1 Jan 2020 02:44:25.000,234.912,-76.622,25425.976353
1 Jan 2020 02:44:55.000,232.684,-76.578,25466.027283
1 Jan 2020 02:45:25.000,230.481,-76.528,25512.175601
1 Jan 2020 02:45:55.000,228.304,-76.474,25564.324156
1 Jan 2020 02:46:25.000,226.157,-76.414,25622.365842
1 Jan 2020 02:46:55.000,224.041,-76.351,25686.184128
1 Jan 2020 02:47:25.000,221.958,-76.284,25755.653143
1 Jan 2020 02:47:55.000,219.909,-76.214,25830.638707
1 Jan 2020 02:48:25.000,217.896,-76.142,25910.998483
1 Jan 2020 02:48:55.000,215.919,-76.068,25996.582583
1 Jan 2020 02:49:25.000,213.979,-75.993,26087.234105
1 Jan 2020 02:49:55.000,212.075,-75.918,26182.789800
1 Jan 2020 02:50:25.000,210.207,-75.843,26283.080114
1 Jan 2020 02:50:55.000,208.376,-75.770,26387.930481
1 Jan 2020 02:51:25.000,206.580,-75.697,26497.161373
1 Jan 2020 02:51:55.000,204.819,-75.626,26610.588959
1 Jan 2020 02:52:25.000,203.093,-75.558,26728.025630
1 Jan 2020 02:52:55.000,201.399,-75.493,26849.280516
1 Jan 2020 02:53:25.000,199.738,-75.431,26974.159984
1 Jan 2020 02:53:55.000,198.107,-75.373,27102.468300
1 Jan 2020 02:54:25.000,196.507,-75.318,27234.007393
1 Jan 2020 02:54:55.000,194.934,-75.269,27368.578345
1 Jan 2020 02:55:25.000,193.389,-75.224,27505.981130
1 Jan 2020 02:55:55.000,191.870,-75.184,27646.015186
1 Jan 2020 02:56:25.000,190.374,-75.150,27788.479801
1 Jan 2020 02:56:55.000,188.902,-75.121,27933.174472
1 Jan 2020 02:57:25.000,187.451,-75.097,28079.899247
1 Jan 2020 02:57:55.000,186.020,-75.080,28228.455037
1 Jan 2020 02:58:25.000,184.607,-75.068,28378.643918
1 Jan 2020 02:58:55.000,183.212,-75.063,28530.269397
1 Jan 2020 02:59:07.291,182.645,-75.063,28592.762290
1 Jan 2020 03:57:08.031,355.173,-75.070,28595.480186
1 Jan 2020 03:57:38.000,353.775,-75.073,28445.034838
1 Jan 2020 03:58:08.000,352.358,-75.081,28295.853898
1 Jan 2020 03:58:38.000,350.923,-75.096,28148.290057
1 Jan 2020 03:59:08.000,349.469,-75.116,28002.539925
1 Jan 2020 03:59:38.000,347.993,-75.143,27858.801214
1 Jan 2020 04:00:08.000,346.496,-75.174,27717.272441
1 Jan 2020 04:00:38.000,344.974,-75.211,27578.152619
1 Jan 2020 04:01:08.000,343.428,-75.252,27441.640914
1 Jan 2020 04:01:38.000,341.855,-75.299,27307.936289
1 Jan 2020 04:02:08.000,340.254,-75.349,27177.237125
1 Jan 2020 04:02:38.000,338.624,-75.404,27049.740819
1 Jan 2020 04:03:08.000,336.965,-75.463,26925.643363
1 Jan 2020 04:03:38.000,335.274,-75.524,26805.138727
1 Jan 2020 04:04:08.000,333.550,-75.589,26688.419100
1 Jan 2020 04:04:38.000,331.794,-75.656,26575.673353
1 Jan 2020 04:05:08.000,330.003,-75.725,26467.087260
1 Jan 2020 04:05:38.000,328.178,-75.796,26362.842807
1 Jan 2020 04:06:08.000,326.318,-75.867,26263.117677
1 Jan 2020 04:06:38.000,324.422,-75.938,26168.084721
1 Jan 2020 04:07:08.000,322.492,-76.010,26077.911305
1 Jan 2020 04:07:38.000,320.525,-76.080,25992.759260
1 Jan 2020 04:08:08.000,318.524,-76.149,25912.783605
1 Jan 2020 04:08:38.000,316.489,-76.216,25838.132517
1 Jan 2020 04:09:08.000,314.421,-76.280,25768.946683
1 Jan 2020 04:09:38.000,312.321,-76.341,25705.358782
1 Jan 2020 04:10:08.000,310.190,-76.398,25647.492926
1 Jan 2020 04:10:38.000,308.031,-76.450,25595.464472
1 Jan 2020 04:11:08.000,305.847,-76.498,25549.379122
1 Jan 2020 04:11:38.000,303.638,-76.540,25509.332810
1 Jan 2020 04:12:08.000,301.409,-76.577,25475.411233
1 Jan 2020 04:12:38.000,299.162,-76.607,25447.689476
1 Jan 2020 04:13:08.000,296.902,-76.630,25426.231793
1 Jan 2020 04:13:38.000,294.630,-76.647,25411.091179
1 Jan 2020 04:14:08.000,292.352,-76.657,25402.309260
1 Jan 2020 04:14:38.000,290.070,-76.659,25399.916082
1 Jan 2020 04:15:08.000,287.789,-76.655,25403.930014
1 Jan 2020 04:15:38.000,285.513,-76.643,25414.357567
1 Jan 2020 04:16:08.000,283.245,-76.624,25431.193509
1 Jan 2020 04:16:38.000,280.990,-76.599,25454.420807
1 Jan 2020 04:17:08.000,278.751,-76.566,25484.010724
1 Jan 2020 04:17:38.000,276.531,-76.528,25519.923027
1 Jan 2020 04:18:08.000,274.334,-76.483,25562.105873
1 Jan 2020 04:18:38.000,272.162,-76.433,25610.496453
1 Jan 2020 04:19:08.000,270.018,-76.378,25665.020996
1 Jan 2020 04:19:38.000,267.905,-76.319,25725.595143
1 Jan 2020 04:20:08.000,265.825,-76.256,25792.124304
1 Jan 2020 04:20:38.000,263.779,-76.189,25864.504180
1 Jan 2020 04:21:08.000,261.769,-76.120,25942.620626
1 Jan 2020 04:21:38.000,259.796,-76.049,26026.350922
1 Jan 2020 04:22:08.000,257.860,-75.976,26115.563700
1 Jan 2020 04:22:38.000,255.963,-75.903,26210.119564
1 Jan 2020 04:23:08.000,254.104,-75.829,26309.871598
1 Jan 2020 04:23:38.000,252.284,-75.756,26414.666045
1 Jan 2020 04:24:08.000,250.502,-75.684,26524.342160
1 Jan 2020 04:24:38.000,248.758,-75.614,26638.733734
1 Jan 2020 04:25:08.000,247.051,-75.546,26757.668961
1 Jan 2020 04:25:38.000,245.381,-75.480,26880.971121
1 Jan 2020 04:26:08.000,243.747,-75.418,27008.459097
1 Jan 2020 04:26:38.000,242.148,-75.360,27139.947883
1 Jan 2020 04:27:08.000,240.583,-75.306,27275.249077
1 Jan 2020 04:27:38.000,239.051,-75.256,27414.171586
1 Jan 2020 04:28:08.000,237.550,-75.212,27556.521206
1 Jan 2020 04:28:38.000,236.079,-75.172,27702.102390
1 Jan 2020 04:29:08.000,234.637,-75.139,27850.717805
1 Jan 2020 04:29:38.000,233.223,-75.111,28002.168958
1 Jan 2020 04:30:08.000,231.835,-75.089,28156.256588
1 Jan 2020 04:30:38.000,230.472,-75.074,28312.781033
1 Jan 2020 04:31:08.000,229.133,-75.065,28471.542581
1 Jan 2020 04:31:31.302,228.108,-75.063,28596.273325
1 Jan 2020 05:31:14.332,38.617,-75.074,28601.216980
1 Jan 2020 05:31:44.000,37.781,-75.080,28396.340604
1 Jan 2020 05:32:14.000,36.930,-75.097,28189.296173
1 Jan 2020 05:32:44.000,36.070,-75.126,27982.592111
1 Jan 2020 05:33:14.000,35.199,-75.167,27776.450009
1 Jan 2020 05:33:44.000,34.317,-75.220,27571.096311
1 Jan 2020 05:34:14.000,33.420,-75.285,27366.762213
1 Jan 2020 05:34:44.000,32.508,-75.363,27163.683550
1 Jan 2020 05:35:14.000,31.577,-75.453,26962.100646
1 Jan 2020 05:35:44.000,30.625,-75.557,26762.258142
1 Jan 2020 05:36:14.000,29.651,-75.673,26564.404792
1 Jan 2020 05:36:44.000,28.650,-75.802,26368.793222
1 Jan 2020 05:37:14.000,27.621,-75.944,26175.679653
1 Jan 2020 05:37:44.000,26.559,-76.098,25985.323592
1 Jan 2020 05:38:14.000,25.463,-76.266,25797.987474
1 Jan 2020 05:38:44.000,24.327,-76.445,25613.936261
1 Jan 2020 05:39:14.000,23.148,-76.637,25433.436730
1 Jan 2020 05:39:44.000,21.921,-76.841,25256.758079
1 Jan 2020 05:40:14.000,20.641,-77.056,25084.169723
1 Jan 2020 05:40:44.000,19.303,-77.283,24915.941823
1 Jan 2020 05:41:14.000,17.901,-77.520,24752.344361
1 Jan 2020 05:41:44.000,16.428,-77.767,24593.646453
1 Jan 2020 05:42:14.000,14.879,-78.022,24440.115603
1 Jan 2020 05:42:44.000,13.243,-78.286,24292.016673
1 Jan 2020 05:43:14.000,11.514,-78.557,24149.612030
1 Jan 2020 05:43:44.000,9.683,-78.834,24013.159176
1 Jan 2020 05:44:14.000,7.738,-79.115,23882.910838
1 Jan 2020 05:44:44.000,5.671,-79.399,23759.113752
1 Jan 2020 05:45:14.000,3.470,-79.683,23642.007523
1 Jan 2020 05:45:44.000,1.123,-79.967,23531.824311
1 Jan 2020 05:46:14.000,358.619,-80.248,23428.786758
1 Jan 2020 05:46:44.000,355.947,-80.523,23333.107689
1 Jan 2020 05:47:14.000,353.097,-80.790,23244.988800
1 Jan 2020 05:47:44.000,350.058,-81.046,23164.620119
1 Jan 2020 05:48:14.000,346.824,-81.288,23092.178331
1 Jan 2020 05:48:44.000,343.393,-81.512,23027.826322
1 Jan 2020 05:49:14.000,339.766,-81.715,22971.712103
1 Jan 2020 05:49:44.000,335.949,-81.895,22923.968271
1 Jan 2020 05:50:14.000,331.957,-82.047,22884.710805
1 Jan 2020 05:50:44.000,327.813,-82.168,22854.038708
1 Jan 2020 05:51:14.000,323.545,-82.258,22832.033329
1 Jan 2020 05:51:44.000,319.190,-82.312,22818.757941
1 Jan 2020 05:52:14.000,314.790,-82.330,22814.257254
1 Jan 2020 05:52:44.000,310.391,-82.312,22818.557237
1 Jan 2020 05:53:14.000,306.036,-82.258,22831.664995
1 Jan 2020 05:53:44.000,301.769,-82.169,22853.568552
1 Jan 2020 05:54:14.000,297.627,-82.047,22884.237192
1 Jan 2020 05:54:44.000,293.641,-81.894,22923.621507
1 Jan 2020 05:55:14.000,289.833,-81.714,22971.653865
1 Jan 2020 05:55:44.000,286.219,-81.508,23028.248399
1 Jan 2020 05:56:14.000,282.807,-81.282,23093.302160
1 Jan 2020 05:56:44.000,279.599,-81.037,23166.695339
1 Jan 2020 05:57:14.000,276.592,-80.778,23248.292226
1 Jan 2020 05:57:44.000,273.781,-80.507,23337.941369
1 Jan 2020 05:58:14.000,271.155,-80.227,23435.477339
1 Jan 2020 05:58:44.000,268.706,-79.941,23540.721025
1 Jan 2020 05:59:14.000,266.422,-79.652,23653.480921
1 Jan 2020 05:59:44.000,264.290,-79.361,23773.553334
1 Jan 2020 06:00:14.000,262.301,-79.072,23900.724499
1 Jan 2020 06:00:44.000,260.443,-78.785,24034.770846
1 Jan 2020 06:01:14.000,258.705,-78.503,24175.460183
1 Jan 2020 06:01:44.000,257.078,-78.227,24322.552945
1 Jan 2020 06:02:14.000,255.553,-77.958,24475.802138
1 Jan 2020 06:02:44.000,254.121,-77.697,24634.955825
1 Jan 2020 06:03:14.000,252.775,-77.445,24799.757029
1 Jan 2020 06:03:44.000,251.507,-77.204,24969.944869
1 Jan 2020 06:04:14.000,250.311,-76.974,25145.255400
1 Jan 2020 06:04:44.000,249.181,-76.756,25325.422702
1 Jan 2020 06:05:14.000,248.112,-76.549,25510.178468
1 Jan 2020 06:05:44.000,247.100,-76.355,25699.254445
1 Jan 2020 06:06:14.000,246.139,-76.175,25892.381932
1 Jan 2020 06:06:44.000,245.226,-76.007,26089.292676
1 Jan 2020 06:07:14.000,244.357,-75.853,26289.719422
1 Jan 2020 06:07:44.000,243.528,-75.713,26493.396421
1 Jan 2020 06:08:14.000,242.738,-75.587,26700.059891
1 Jan 2020 06:08:44.000,241.982,-75.474,26909.448430
1 Jan 2020 06:09:14.000,241.259,-75.375,27121.303388
1 Jan 2020 06:09:44.000,240.566,-75.291,27335.369194
1 Jan 2020 06:10:14.000,239.901,-75.220,27551.393994
1 Jan 2020 06:10:44.000,239.262,-75.162,27769.128537
1 Jan 2020 06:11:14.000,238.647,-75.119,27988.328436
1 Jan 2020 06:11:44.000,238.055,-75.089,28208.753004
1 Jan 2020 06:12:14.000,237.484,-75.072,28430.165747
1 Jan 2020 06:12:37.347,237.053,-75.068,28603.013944
1 Jan 2020 07:12:37.641,55.273,-75.077,28607.748554
1 Jan 2020 07:13:07.000,55.444,-75.084,28380.562975
1 Jan 2020 07:13:37.000,55.633,-75.105,28148.766233
1 Jan 2020 07:14:07.000,55.836,-75.141,27917.554234
1 Jan 2020 07:14:37.000,56.053,-75.193,27687.165998
1 Jan 2020 07:15:07.000,56.287,-75.259,27457.845725
1 Jan 2020 07:15:37.000,56.538,-75.342,27229.842710
1 Jan 2020 07:16:07.000,56.806,-75.440,27003.411224
1 Jan 2020 07:16:37.000,57.094,-75.554,26778.810377
1 Jan 2020 07:17:07.000,57.402,-75.685,26556.303930
1 Jan 2020 07:17:37.000,57.732,-75.833,26336.160087
1 Jan 2020 07:18:07.000,58.085,-75.997,26118.651242
1 Jan 2020 07:18:37.000,58.464,-76.178,25904.053677
1 Jan 2020 07:19:07.000,58.871,-76.376,25692.647228
1 Jan 2020 07:19:37.000,59.307,-76.591,25484.714888
1 Jan 2020 07:20:07.000,59.777,-76.824,25280.542014
1 Jan 2020 07:20:37.000,60.282,-77.073,25080.417250
1 Jan 2020 07:21:07.000,60.827,-77.339,24884.629829
1 Jan 2020 07:21:37.000,61.416,-77.623,24693.470397
1 Jan 2020 07:22:07.000,62.054,-77.923,24507.229975
1 Jan 2020 07:22:37.000,62.745,-78.239,24326.199223
1 Jan 2020 07:23:07.000,63.498,-78.571,24150.667357
1 Jan 2020 07:23:37.000,64.319,-78.919,23980.922444
1 Jan 2020 07:24:07.000,65.217,-79.282,23817.248738
1 Jan 2020 07:24:37.000,66.203,-79.658,23659.926874
1 Jan 2020 07:25:07.000,67.289,-80.049,23509.232548
1 Jan 2020 07:25:37.000,68.492,-80.451,23365.435185
1 Jan 2020 07:26:07.000,69.828,-80.865,23228.797849
1 Jan 2020 07:26:37.000,71.320,-81.289,23099.574532
1 Jan 2020 07:27:07.000,72.994,-81.720,22978.010036
1 Jan 2020 07:27:37.000,74.884,-82.158,22864.338324
1 Jan 2020 07:28:07.000,77.029,-82.599,22758.782090
1 Jan 2020 07:28:37.000,79.477,-83.041,22661.550426
1 Jan 2020 07:29:07.000,82.289,-83.479,22572.838440
1 Jan 2020 07:29:37.000,85.537,-83.911,22492.825802
1 Jan 2020 07:30:07.000,89.307,-84.329,22421.676268
1 Jan 2020 07:30:37.000,93.696,-84.728,22359.535764
1 Jan 2020 07:31:07.000,98.811,-85.099,22306.532099
1 Jan 2020 07:31:37.000,104.748,-85.431,22262.773893
1 Jan 2020 07:32:07.000,111.569,-85.713,22228.350223
1 Jan 2020 07:32:37.000,119.260,-85.932,22203.329462
1 Jan 2020 07:33:07.000,127.682,-86.075,22187.759208
1 Jan 2020 07:33:37.000,136.554,-86.132,22181.665836
1 Jan 2020 07:34:07.000,145.485,-86.100,22185.054385
1 Jan 2020 07:34:37.000,154.070,-85.981,22197.908380
1 Jan 2020 07:35:07.000,161.992,-85.783,22220.190040
1 Jan 2020 07:35:37.000,169.073,-85.518,22251.840563
1 Jan 2020 07:36:07.000,175.272,-85.199,22292.780291
1 Jan 2020 07:36:37.000,180.632,-84.840,22342.909537
1 Jan 2020 07:37:07.000,185.246,-84.450,22402.109051
1 Jan 2020 07:37:37.000,189.219,-84.038,22470.240950
1 Jan 2020 07:38:07.000,192.650,-83.612,22547.149113
1 Jan 2020 07:38:37.000,195.631,-83.178,22632.660824
1 Jan 2020 07:39:07.000,198.236,-82.739,22726.587368
1 Jan 2020 07:39:37.000,200.529,-82.301,22828.725406
1 Jan 2020 07:40:07.000,202.562,-81.865,22938.857450
1 Jan 2020 07:40:37.000,204.376,-81.435,23056.754021
1 Jan 2020 07:41:07.000,206.006,-81.012,23182.174209
1 Jan 2020 07:41:37.000,207.481,-80.599,23314.867026
1 Jan 2020 07:42:07.000,208.823,-80.196,23454.572858
1 Jan 2020 07:42:37.000,210.052,-79.805,23601.023640
1 Jan 2020 07:43:07.000,211.183,-79.427,23753.945484
1 Jan 2020 07:43:37.000,212.231,-79.064,23913.058819
1 Jan 2020 07:44:07.000,213.206,-78.714,24078.079695
1 Jan 2020 07:44:37.000,214.117,-78.380,24248.720805
1 Jan 2020 07:45:07.000,214.974,-78.061,24424.692740
1 Jan 2020 07:45:37.000,215.783,-77.758,24605.703704
1 Jan 2020 07:46:07.000,216.549,-77.472,24791.462132
1 Jan 2020 07:46:37.000,217.278,-77.202,24981.676290
1 Jan 2020 07:47:07.000,217.975,-76.948,25176.055292
1 Jan 2020 07:47:37.000,218.643,-76.711,25374.309746
1 Jan 2020 07:48:07.000,219.287,-76.491,25576.152356
1 Jan 2020 07:48:37.000,219.908,-76.287,25781.298450
1 Jan 2020 07:49:07.000,220.510,-76.100,25989.466462
1 Jan 2020 07:49:37.000,221.095,-75.930,26200.378681
1 Jan 2020 07:50:07.000,221.666,-75.775,26413.760322
1 Jan 2020 07:50:37.000,222.224,-75.637,26629.341795
1 Jan 2020 07:51:07.000,222.771,-75.514,26846.857689
1 Jan 2020 07:51:37.000,223.309,-75.407,27066.047337
1 Jan 2020 07:52:07.000,223.840,-75.316,27286.655006
1 Jan 2020 07:52:37.000,224.364,-75.239,27508.430067
1 Jan 2020 07:53:07.000,224.884,-75.178,27731.127122
1 Jan 2020 07:53:37.000,225.400,-75.131,27954.506109
1 Jan 2020 07:54:07.000,225.913,-75.098,28178.332373
1 Jan 2020 07:54:37.000,226.425,-75.078,28402.376723
1 Jan 2020 07:55:04.686,226.898,-75.073,28609.143109
1 Jan 2020 08:55:03.078,54.448,-75.077,28611.345918
1 Jan 2020 08:55:33.000,55.565,-75.082,28427.907443
1 Jan 2020 08:56:03.000,56.708,-75.095,28245.726356
1 Jan 2020 08:56:33.000,57.877,-75.118,28065.498476
1 Jan 2020 08:57:03.000,59.073,-75.148,27887.440652
1 Jan 2020 08:57:33.000,60.299,-75.188,27711.770994
1 Jan 2020 08:58:03.000,61.555,-75.236,27538.708558
1 Jan 2020 08:58:33.000,62.844,-75.292,27368.473001
1 Jan 2020 08:59:03.000,64.168,-75.355,27201.284211
1 Jan 2020 08:59:33.000,65.529,-75.427,27037.361906
1 Jan 2020 09:00:03.000,66.928,-75.505,26876.925210
1 Jan 2020 09:00:33.000,68.367,-75.590,26720.191951
1 Jan 2020 09:01:03.000,69.850,-75.681,26567.379170
1 Jan 2020 09:01:33.000,71.376,-75.778,26418.701122
1 Jan 2020 09:02:03.000,72.949,-75.881,26274.369743
1 Jan 2020 09:02:33.000,74.570,-75.988,26134.593841
1 Jan 2020 09:03:03.000,76.242,-76.099,25999.578519
1 Jan 2020 09:03:33.000,77.965,-76.213,25869.524577
1 Jan 2020 09:04:03.000,79.741,-76.330,25744.627673
1 Jan 2020 09:04:33.000,81.572,-76.448,25625.078603
1 Jan 2020 09:05:03.000,83.460,-76.568,25511.061285
1 Jan 2020 09:05:33.000,85.404,-76.687,25402.753046
1 Jan 2020 09:06:03.000,87.405,-76.805,25300.323739
1 Jan 2020 09:06:33.000,89.465,-76.922,25203.934949
1 Jan 2020 09:07:03.000,91.581,-77.036,25113.739990
1 Jan 2020 09:07:33.000,93.755,-77.146,25029.882326
1 Jan 2020 09:08:03.000,95.984,-77.251,24952.495621
1 Jan 2020 09:08:33.000,98.267,-77.350,24881.703004
1 Jan 2020 09:09:03.000,100.602,-77.442,24817.616399
1 Jan 2020 09:09:33.000,102.985,-77.527,24760.336519
1 Jan 2020 09:10:03.000,105.413,-77.604,24709.951643
1 Jan 2020 09:10:33.000,107.881,-77.671,24666.537712
1 Jan 2020 09:11:03.000,110.385,-77.729,24630.157836
1 Jan 2020 09:11:33.000,112.920,-77.776,24600.861916
1 Jan 2020 09:12:03.000,115.478,-77.812,24578.686681
1 Jan 2020 09:12:33.000,118.054,-77.836,24563.655055
1 Jan 2020 09:13:03.000,120.642,-77.849,24555.776347
1 Jan 2020 09:13:33.000,123.234,-77.850,24555.046118
1 Jan 2020 09:14:03.000,125.824,-77.840,24561.446184
1 Jan 2020 09:14:33.000,128.404,-77.818,24574.944748
1 Jan 2020 09:15:03.000,130.969,-77.784,24595.496459
1 Jan 2020 09:15:33.000,133.512,-77.740,24623.042697
1 Jan 2020 09:16:03.000,136.028,-77.686,24657.511829
1 Jan 2020 09:16:33.000,138.511,-77.621,24698.819597
1 Jan 2020 09:17:03.000,140.956,-77.548,24746.869311
1 Jan 2020 09:17:33.000,143.360,-77.466,24801.552575
1 Jan 2020 09:18:03.000,145.718,-77.377,24862.749597
1 Jan 2020 09:18:33.000,148.029,-77.281,24930.329762
1 Jan 2020 09:19:03.000,150.290,-77.180,25004.152299
1 Jan 2020 09:19:33.000,152.500,-77.074,25084.066491
1 Jan 2020 09:20:03.000,154.657,-76.964,25169.912857
1 Jan 2020 09:20:33.000,156.761,-76.852,25261.523426
1 Jan 2020 09:21:03.000,158.813,-76.737,25358.722482
1 Jan 2020 09:21:33.000,160.812,-76.622,25461.327216
1 Jan 2020 09:22:03.000,162.759,-76.506,25569.148550
1 Jan 2020 09:22:33.000,164.656,-76.391,25681.991177
1 Jan 2020 09:23:03.000,166.503,-76.277,25799.655124
1 Jan 2020 09:23:33.000,168.303,-76.166,25921.935795
1 Jan 2020 09:24:03.000,170.056,-76.058,26048.624744
1 Jan 2020 09:24:33.000,171.765,-75.953,26179.510282
1 Jan 2020 09:25:03.000,173.432,-75.852,26314.378067
1 Jan 2020 09:25:33.000,175.058,-75.755,26453.011661
1 Jan 2020 09:26:03.000,176.646,-75.664,26595.193286
1 Jan 2020 09:26:33.000,178.197,-75.578,26740.703504
1 Jan 2020 09:27:03.000,179.714,-75.498,26889.322933
1 Jan 2020 09:27:33.000,181.199,-75.425,27040.831891
1 Jan 2020 09:28:03.000,182.653,-75.358,27195.011028
1 Jan 2020 09:28:33.000,184.079,-75.297,27351.641721
1 Jan 2020 09:29:03.000,185.479,-75.244,27510.506448
1 Jan 2020 09:29:33.000,186.854,-75.198,27671.389129
1 Jan 2020 09:30:03.000,188.207,-75.159,27834.075446
1 Jan 2020 09:30:33.000,189.538,-75.128,27998.353126
1 Jan 2020 09:31:03.000,190.851,-75.104,28164.012210
1 Jan 2020 09:31:33.000,192.147,-75.087,28330.845288
1 Jan 2020 09:32:03.000,193.427,-75.079,28498.647718
1 Jan 2020 09:32:23.090,194.276,-75.077,28611.461845
1 Jan 2020 10:30:50.322,22.655,-75.073,28609.909303
1 Jan 2020 10:31:20.000,24.086,-75.076,28468.746322
1 Jan 2020 10:31:50.000,25.550,-75.084,28327.929737
1 Jan 2020 10:32:20.000,27.034,-75.097,28189.192628
1 Jan 2020 10:32:50.000,28.539,-75.115,28052.724976
1 Jan 2020 10:33:20.000,30.066,-75.138,27918.716662
1 Jan 2020 10:33:50.000,31.616,-75.166,27787.357134
1 Jan 2020 10:34:20.000,33.190,-75.197,27658.835056
1 Jan 2020 10:34:50.000,34.789,-75.233,27533.337932
1 Jan 2020 10:35:20.000,36.415,-75.272,27411.051718
1 Jan 2020 10:35:50.000,38.067,-75.315,27292.160415
1 Jan 2020 10:36:20.000,39.748,-75.361,27176.845647
1 Jan 2020 10:36:50.000,41.457,-75.409,27065.286055
1 Jan 2020 10:37:20.000,43.195,-75.460,26957.657528
1 Jan 2020 10:37:50.000,44.963,-75.512,26854.131716
1 Jan 2020 10:38:20.000,46.761,-75.566,26754.876245
1 Jan 2020 10:38:50.000,48.588,-75.620,26660.054073
1 Jan 2020 10:39:20.000,50.446,-75.675,26569.823004
1 Jan 2020 10:39:50.000,52.334,-75.730,26484.335208
1 Jan 2020 10:40:20.000,54.252,-75.784,26403.736625
1 Jan 2020 10:40:50.000,56.199,-75.837,26328.166945
1 Jan 2020 10:41:20.000,58.174,-75.889,26257.758443
1 Jan 2020 10:41:50.000,60.176,-75.938,26192.635993
1 Jan 2020 10:42:20.000,62.204,-75.985,26132.916500
1 Jan 2020 10:42:50.000,64.257,-76.029,26078.708483
1 Jan 2020 10:43:20.000,66.332,-76.069,26030.111598
1 Jan 2020 10:43:50.000,68.428,-76.105,25987.216532
1 Jan 2020 10:44:20.000,70.543,-76.137,25950.104236
1 Jan 2020 10:44:50.000,72.674,-76.165,25918.845895
1 Jan 2020 10:45:20.000,74.819,-76.188,25893.502567
1 Jan 2020 10:45:50.000,76.974,-76.205,25874.124939
1 Jan 2020 10:46:20.000,79.138,-76.217,25860.753111
1 Jan 2020 10:46:50.000,81.307,-76.224,25853.416482
1 Jan 2020 10:47:20.000,83.478,-76.225,25852.133535
1 Jan 2020 10:47:50.000,85.648,-76.221,25856.911836
1 Jan 2020 10:48:20.000,87.814,-76.211,25867.747977
1 Jan 2020 10:48:50.000,89.973,-76.196,25884.627632
1 Jan 2020 10:49:20.000,92.122,-76.176,25907.525483
1 Jan 2020 10:49:50.000,94.258,-76.150,25936.405509
1 Jan 2020 10:50:20.000,96.379,-76.120,25971.221020
1 Jan 2020 10:50:50.000,98.482,-76.086,26011.914877
1 Jan 2020 10:51:20.000,100.565,-76.047,26058.419722
1 Jan 2020 10:51:50.000,102.625,-76.005,26110.658345
1 Jan 2020 10:52:20.000,104.661,-75.959,26168.543614
1 Jan 2020 10:52:50.000,106.671,-75.910,26231.979359
1 Jan 2020 10:53:20.000,108.653,-75.859,26300.860387
1 Jan 2020 10:53:50.000,110.607,-75.807,26375.072958
1 Jan 2020 10:54:20.000,112.531,-75.753,26454.495203
1 Jan 2020 10:54:50.000,114.425,-75.698,26538.997689
1 Jan 2020 10:55:20.000,116.288,-75.642,26628.443354
1 Jan 2020 10:55:50.000,118.120,-75.587,26722.688733
1 Jan 2020 10:56:20.000,119.921,-75.533,26821.583928
1 Jan 2020 10:56:50.000,121.691,-75.479,26924.973210
1 Jan 2020 10:57:20.000,123.429,-75.428,27032.695496
1 Jan 2020 10:57:50.000,125.137,-75.378,27144.584826
1 Jan 2020 10:58:20.000,126.815,-75.331,27260.470843
1 Jan 2020 10:58:50.000,128.464,-75.287,27380.179449
1 Jan 2020 10:59:20.000,130.084,-75.246,27503.532505
1 Jan 2020 10:59:50.000,131.675,-75.209,27630.349416
1 Jan 2020 11:00:20.000,133.240,-75.176,27760.446819
1 Jan 2020 11:00:50.000,134.779,-75.147,27893.639188
1 Jan 2020 11:01:20.000,136.293,-75.123,28029.739249
1 Jan 2020 11:01:50.000,137.783,-75.104,28168.558367
1 Jan 2020 11:02:20.000,139.250,-75.090,28309.906925
1 Jan 2020 11:02:50.000,140.695,-75.081,28453.594678
1 Jan 2020 11:03:20.000,142.120,-75.078,28599.431094
1 Jan 2020 11:03:22.031,142.216,-75.078,28609.378476
1 Jan 2020 12:02:32.865,331.835,-75.068,28604.876616
1 Jan 2020 12:03:02.000,332.890,-75.072,28422.370808
1 Jan 2020 12:03:32.000,333.988,-75.086,28234.844236
1 Jan 2020 12:04:02.000,335.098,-75.109,28047.925226
1 Jan 2020 12:04:32.000,336.224,-75.142,27861.826931
1 Jan 2020 12:05:02.000,337.366,-75.185,27676.766430
1 Jan 2020 12:05:32.000,338.527,-75.237,27492.964577
1 Jan 2020 12:06:02.000,339.710,-75.300,27310.645825
1 Jan 2020 12:06:32.000,340.915,-75.372,27130.038021
1 Jan 2020 12:07:02.000,342.146,-75.454,26951.372180
1 Jan 2020 12:07:32.000,343.405,-75.545,26774.882219
1 Jan 2020 12:08:02.000,344.695,-75.646,26600.804672
1 Jan 2020 12:08:32.000,346.018,-75.756,26429.378360
1 Jan 2020 12:09:02.000,347.377,-75.875,26260.844037
1 Jan 2020 12:09:32.000,348.776,-76.003,26095.443992
1 Jan 2020 12:10:02.000,350.216,-76.139,25933.421396
1 Jan 2020 12:10:32.000,351.703,-76.283,25775.020732
1 Jan 2020 12:11:02.000,353.238,-76.435,25620.485931
1 Jan 2020 12:11:32.000,354.826,-76.593,25470.060732
1 Jan 2020 12:12:02.000,356.470,-76.758,25323.987877
1 Jan 2020 12:12:32.000,358.175,-76.928,25182.508481
1 Jan 2020 12:13:02.000,359.943,-77.103,25045.861382
1 Jan 2020 12:13:32.000,1.780,-77.282,24914.282250
1 Jan 2020 12:14:02.000,3.688,-77.464,24788.003646
1 Jan 2020 12:14:32.000,5.672,-77.647,24667.253089
1 Jan 2020 12:15:02.000,7.736,-77.831,24552.253070
1 Jan 2020 12:15:32.000,9.882,-78.015,24443.220058
1 Jan 2020 12:16:02.000,12.113,-78.196,24340.363554
1 Jan 2020 12:16:32.000,14.433,-78.374,24243.885801
1 Jan 2020 12:17:02.000,16.843,-78.547,24153.980144
1 Jan 2020 12:17:32.000,19.344,-78.713,24070.830761
1 Jan 2020 12:18:02.000,21.936,-78.871,23994.611711
1 Jan 2020 12:18:32.000,24.618,-79.020,23925.486052
1 Jan 2020 12:19:02.000,27.386,-79.157,23863.605449
1 Jan 2020 12:19:32.000,30.236,-79.281,23809.108867
1 Jan 2020 12:20:02.000,33.163,-79.391,23762.122283
1 Jan 2020 12:20:32.000,36.158,-79.485,23722.757911
1 Jan 2020 12:21:02.000,39.212,-79.562,23691.113775
1 Jan 2020 12:21:32.000,42.314,-79.620,23667.272961
1 Jan 2020 12:22:02.000,45.451,-79.660,23651.303350
1 Jan 2020 12:22:32.000,48.610,-79.680,23643.257226
1 Jan 2020 12:23:02.000,51.775,-79.681,23643.170950
1 Jan 2020 12:23:32.000,54.934,-79.661,23651.064825
1 Jan 2020 12:24:02.000,58.070,-79.622,23666.942969
1 Jan 2020 12:24:32.000,61.170,-79.563,23690.793368
1 Jan 2020 12:25:02.000,64.221,-79.486,23722.587710
1 Jan 2020 12:25:32.000,67.212,-79.392,23762.281902
1 Jan 2020 12:26:02.000,70.131,-79.281,23809.816102
1 Jan 2020 12:26:32.000,72.972,-79.155,23865.115213
1 Jan 2020 12:27:02.000,75.726,-79.016,23928.088871
1 Jan 2020 12:27:32.000,78.390,-78.865,23998.632555
1 Jan 2020 12:28:02.000,80.959,-78.704,24076.627740
1 Jan 2020 12:28:32.000,83.432,-78.534,24161.942596
1 Jan 2020 12:29:02.000,85.809,-78.357,24254.432859
1 Jan 2020 12:29:32.000,88.089,-78.175,24353.941756
1 Jan 2020 12:30:02.000,90.275,-77.989,24460.301895
1 Jan 2020 12:30:32.000,92.368,-77.800,24573.335282
1 Jan 2020 12:31:02.000,94.371,-77.611,24692.854299
1 Jan 2020 12:31:32.000,96.288,-77.423,24818.662730
1 Jan 2020 12:32:02.000,98.122,-77.236,24950.555679
1 Jan 2020 12:32:32.000,99.877,-77.052,25088.321691
1 Jan 2020 12:33:02.000,101.556,-76.872,25231.742684
1 Jan 2020 12:33:32.000,103.163,-76.697,25380.594942
1 Jan 2020 12:34:02.000,104.703,-76.528,25534.649877
1 Jan 2020 12:34:32.000,106.179,-76.366,25693.675039
1 Jan 2020 12:35:02.000,107.594,-76.211,25857.433768
1 Jan 2020 12:35:32.000,108.953,-76.065,26025.687452
1 Jan 2020 12:36:02.000,110.258,-75.927,26198.195128
1 Jan 2020 12:36:32.000,111.513,-75.798,26374.714360
1 Jan 2020 12:37:02.000,112.720,-75.679,26555.001813
1 Jan 2020 12:37:32.000,113.884,-75.570,26738.813797
1 Jan 2020 12:38:02.000,115.006,-75.472,26925.906767
1 Jan 2020 12:38:32.000,116.089,-75.384,27116.037789
1 Jan 2020 12:39:02.000,117.135,-75.306,27308.964975
1 Jan 2020 12:39:32.000,118.148,-75.240,27504.448195
1 Jan 2020 12:40:02.000,119.129,-75.185,27702.248143
1 Jan 2020 12:40:32.000,120.080,-75.140,27902.128605
1 Jan 2020 12:41:02.000,121.004,-75.108,28103.855458
1 Jan 2020 12:41:32.000,121.902,-75.086,28307.197257
1 Jan 2020 12:42:02.000,122.776,-75.075,28511.925468
1 Jan 2020 12:42:15.336,123.157,-75.074,28603.318749
1 Jan 2020 13:42:14.654,308.014,-75.064,28598.267571
1 Jan 2020 13:42:44.000,308.185,-75.071,28371.131045
1 Jan 2020 13:43:14.000,308.354,-75.092,28139.027879
1 Jan 2020 13:43:44.000,308.516,-75.129,27907.245993
1 Jan 2020 13:44:14.000,308.672,-75.180,27676.020564
1 Jan 2020 13:44:44.000,308.821,-75.247,27445.592313
1 Jan 2020 13:45:14.000,308.965,-75.330,27216.207457
1 Jan 2020 13:45:44.000,309.104,-75.429,26988.117630
1 Jan 2020 13:46:14.000,309.236,-75.545,26761.579782
1 Jan 2020 13:46:44.000,309.364,-75.677,26536.856046
1 Jan 2020 13:47:14.000,309.486,-75.827,26314.213573
1 Jan 2020 13:47:44.000,309.604,-75.995,26093.924324
1 Jan 2020 13:48:14.000,309.716,-76.180,25876.264830
1 Jan 2020 13:48:44.000,309.824,-76.383,25661.515898
1 Jan 2020 13:49:14.000,309.927,-76.604,25449.962279
1 Jan 2020 13:49:44.000,310.025,-76.843,25241.892278
1 Jan 2020 13:50:14.000,310.119,-77.101,25037.596959
1 Jan 2020 13:50:44.000,310.209,-77.378,24837.371060
1 Jan 2020 13:51:14.000,310.294,-77.673,24641.510302
1 Jan 2020 13:51:44.000,310.375,-77.986,24450.312190
1 Jan 2020 13:52:14.000,310.452,-78.319,24264.074970
1 Jan 2020 13:52:44.000,310.525,-78.669,24083.096870
1 Jan 2020 13:53:14.000,310.593,-79.039,23907.675000
1 Jan 2020 13:53:44.000,310.658,-79.426,23738.105601
1 Jan 2020 13:54:14.000,310.719,-79.831,23574.681373
1 Jan 2020 13:54:44.000,310.776,-80.254,23417.691616
1 Jan 2020 13:55:14.000,310.829,-80.695,23267.420868
1 Jan 2020 13:55:44.000,310.877,-81.152,23124.147534
1 Jan 2020 13:56:14.000,310.922,-81.625,22988.143710
1 Jan 2020 13:56:44.000,310.963,-82.114,22859.672461
1 Jan 2020 13:57:14.000,310.999,-82.618,22738.987607
1 Jan 2020 13:57:44.000,311.031,-83.137,22626.332028
1 Jan 2020 13:58:14.000,311.058,-83.669,22521.937133
1 Jan 2020 13:58:44.000,311.081,-84.214,22426.020496
1 Jan 2020 13:59:14.000,311.097,-84.770,22338.785388
1 Jan 2020 13:59:44.000,311.107,-85.337,22260.419254
1 Jan 2020 14:00:14.000,311.109,-85.914,22191.093136
1 Jan 2020 14:00:44.000,311.101,-86.499,22130.959750
1 Jan 2020 14:01:14.000,311.078,-87.092,22080.153097
1 Jan 2020 14:01:44.000,311.031,-87.691,22038.787357
1 Jan 2020 14:02:14.000,310.938,-88.295,22006.956429
1 Jan 2020 14:02:44.000,310.727,-88.902,21984.732815
1 Jan 2020 14:03:14.000,309.968,-89.512,21972.167451
1 Jan 2020 14:03:44.000,136.780,-89.877,21969.289273
1 Jan 2020 14:04:14.000,132.252,-89.266,21976.105016
1 Jan 2020 14:04:44.000,131.832,-88.657,21992.599130
1 Jan 2020 14:05:14.000,131.667,-88.051,22018.733932
1 Jan 2020 14:05:44.000,131.574,-87.449,22054.449932
1 Jan 2020 14:06:14.000,131.508,-86.853,22099.665948
1 Jan 2020 14:06:44.000,131.456,-86.263,22154.280081
1 Jan 2020 14:07:14.000,131.410,-85.681,22218.170141
1 Jan 2020 14:07:44.000,131.367,-85.108,22291.194666
1 Jan 2020 14:08:14.000,131.324,-84.545,22373.193273
1 Jan 2020 14:08:44.000,131.281,-83.993,22463.988501
1 Jan 2020 14:09:14.000,131.237,-83.454,22563.386367
1 Jan 2020 14:09:44.000,131.191,-82.927,22671.177852
1 Jan 2020 14:10:14.000,131.143,-82.414,22787.139344
1 Jan 2020 14:10:44.000,131.093,-81.916,22911.034996
1 Jan 2020 14:11:14.000,131.040,-81.433,23042.617248
1 Jan 2020 14:11:44.000,130.984,-80.966,23181.628272
1 Jan 2020 14:12:14.000,130.925,-80.516,23327.801496
1 Jan 2020 14:12:44.000,130.863,-80.083,23480.861723
1 Jan 2020 14:13:14.000,130.797,-79.667,23640.527971
1 Jan 2020 14:13:44.000,130.729,-79.269,23806.513549
1 Jan 2020 14:14:14.000,130.657,-78.889,23978.527420
1 Jan 2020 14:14:44.000,130.581,-78.527,24156.275260
1 Jan 2020 14:15:14.000,130.501,-78.184,24339.460769
1 Jan 2020 14:15:44.000,130.418,-77.859,24527.785301
1 Jan 2020 14:16:14.000,130.331,-77.553,24720.950664
1 Jan 2020 14:16:44.000,130.240,-77.266,24918.658628
1 Jan 2020 14:17:14.000,130.145,-76.997,25120.611978
1 Jan 2020 14:17:44.000,130.046,-76.747,25326.515174
1 Jan 2020 14:18:14.000,129.942,-76.515,25536.074951
1 Jan 2020 14:18:44.000,129.834,-76.301,25749.000855
1 Jan 2020 14:19:14.000,129.721,-76.106,25965.005723
1 Jan 2020 14:19:44.000,129.604,-75.928,26183.806450
1 Jan 2020 14:20:14.000,129.482,-75.768,26405.122966
1 Jan 2020 14:20:44.000,129.354,-75.625,26628.680638
1 Jan 2020 14:21:14.000,129.222,-75.500,26854.209155
1 Jan 2020 14:21:44.000,129.085,-75.391,27081.443103
1 Jan 2020 14:22:14.000,128.942,-75.298,27310.122155
1 Jan 2020 14:22:44.000,128.793,-75.222,27539.991223
1 Jan 2020 14:23:14.000,128.638,-75.162,27770.800583
1 Jan 2020 14:23:44.000,128.478,-75.117,28002.305961
1 Jan 2020 14:24:14.000,128.311,-75.087,28234.268606
1 Jan 2020 14:24:44.000,128.137,-75.072,28466.455325
1 Jan 2020 14:25:00.811,128.037,-75.070,28596.580589
1 Jan 2020 15:24:59.773,303.158,-75.063,28593.345928
1 Jan 2020 15:25:29.000,302.316,-75.068,28393.504643
1 Jan 2020 15:25:59.000,301.428,-75.085,28189.644624
1 Jan 2020 15:26:29.000,300.516,-75.112,27987.294003
1 Jan 2020 15:26:59.000,299.577,-75.151,27786.682480
1 Jan 2020 15:27:29.000,298.609,-75.201,27588.042538
1 Jan 2020 15:27:59.000,297.610,-75.262,27391.609195
1 Jan 2020 15:28:29.000,296.579,-75.334,27197.619722
1 Jan 2020 15:28:59.000,295.512,-75.417,27006.313337
1 Jan 2020 15:29:29.000,294.407,-75.510,26817.930863
1 Jan 2020 15:29:59.000,293.263,-75.614,26632.714351
1 Jan 2020 15:30:29.000,292.075,-75.728,26450.906668
1 Jan 2020 15:30:59.000,290.842,-75.852,26272.750763
1 Jan 2020 15:31:29.000,289.561,-75.985,26098.490338
1 Jan 2020 15:31:59.000,288.227,-76.127,25928.367584
1 Jan 2020 15:32:29.000,286.838,-76.278,25762.623792
1 Jan 2020 15:32:59.000,285.390,-76.436,25601.498461
1 Jan 2020 15:33:29.000,283.881,-76.602,25445.228669
1 Jan 2020 15:33:59.000,282.305,-76.774,25294.048412
1 Jan 2020 15:34:29.000,280.660,-76.951,25148.187632
1 Jan 2020 15:34:59.000,278.941,-77.132,25007.872590
1 Jan 2020 15:35:29.000,277.146,-77.317,24873.323458
1 Jan 2020 15:35:59.000,275.269,-77.505,24744.754662
1 Jan 2020 15:36:29.000,273.307,-77.693,24622.373811
1 Jan 2020 15:36:59.000,271.258,-77.882,24506.380702
1 Jan 2020 15:37:29.000,269.118,-78.068,24396.967315
1 Jan 2020 15:37:59.000,266.885,-78.252,24294.315791
1 Jan 2020 15:38:29.000,264.556,-78.431,24198.598463
1 Jan 2020 15:38:59.000,262.131,-78.604,24109.976862
1 Jan 2020 15:39:29.000,259.610,-78.769,24028.600806
1 Jan 2020 15:39:59.000,256.995,-78.925,23954.608337
1 Jan 2020 15:40:29.000,254.287,-79.069,23888.124018
1 Jan 2020 15:40:59.000,251.491,-79.201,23829.258996
1 Jan 2020 15:41:29.000,248.613,-79.319,23778.110141
1 Jan 2020 15:41:59.000,245.660,-79.421,23734.759924
1 Jan 2020 15:42:29.000,242.642,-79.506,23699.275364
1 Jan 2020 15:42:59.000,239.570,-79.573,23671.708070
1 Jan 2020 15:43:29.000,236.456,-79.622,23652.093791
1 Jan 2020 15:43:59.000,233.313,-79.651,23640.452413
1 Jan 2020 15:44:29.000,230.156,-79.660,23636.787513
1 Jan 2020 15:44:59.000,226.999,-79.649,23641.086559
1 Jan 2020 15:45:29.000,223.856,-79.619,23653.320907
1 Jan 2020 15:45:59.000,220.742,-79.569,23673.445949
1 Jan 2020 15:46:29.000,217.670,-79.501,23701.401336
1 Jan 2020 15:46:59.000,214.651,-79.416,23737.111311
1 Jan 2020 15:47:29.000,211.696,-79.314,23780.485159
1 Jan 2020 15:47:59.000,208.813,-79.197,23831.417487
1 Jan 2020 15:48:29.000,206.009,-79.066,23889.789036
1 Jan 2020 15:48:59.000,203.290,-78.924,23955.467120
1 Jan 2020 15:49:29.000,200.658,-78.770,24028.306325
1 Jan 2020 15:49:59.000,198.116,-78.608,24108.149343
1 Jan 2020 15:50:29.000,195.665,-78.439,24194.827229
1 Jan 2020 15:50:59.000,193.304,-78.264,24288.160893
1 Jan 2020 15:51:29.000,191.031,-78.085,24387.961440
1 Jan 2020 15:51:59.000,188.845,-77.903,24494.031092
1 Jan 2020 15:52:29.000,186.744,-77.720,24606.164176
1 Jan 2020 15:52:59.000,184.722,-77.537,24724.147317
1 Jan 2020 15:53:29.000,182.778,-77.355,24847.761185
1 Jan 2020 15:53:59.000,180.908,-77.175,24976.780683
1 Jan 2020 15:54:29.000,179.107,-76.999,25110.975893
1 Jan 2020 15:54:59.000,177.372,-76.827,25250.112833
1 Jan 2020 15:55:29.000,175.698,-76.660,25393.954194
1 Jan 2020 15:55:59.000,174.083,-76.499,25542.260286
1 Jan 2020 15:56:29.000,172.522,-76.345,25694.788772
1 Jan 2020 15:56:59.000,171.011,-76.197,25851.296700
1 Jan 2020 15:57:29.000,169.548,-76.058,26011.540185
1 Jan 2020 15:57:59.000,168.128,-75.926,26175.275199
1 Jan 2020 15:58:29.000,166.749,-75.804,26342.258098
1 Jan 2020 15:58:59.000,165.408,-75.690,26512.246109
1 Jan 2020 15:59:29.000,164.101,-75.585,26684.997777
1 Jan 2020 15:59:59.000,162.826,-75.490,26860.273382
1 Jan 2020 16:00:29.000,161.580,-75.404,27037.835312
1 Jan 2020 16:00:59.000,160.361,-75.328,27217.448400
1 Jan 2020 16:01:29.000,159.166,-75.261,27398.880241
1 Jan 2020 16:01:59.000,157.993,-75.204,27581.901456
1 Jan 2020 16:02:29.000,156.840,-75.157,27766.286219
1 Jan 2020 16:02:59.000,155.705,-75.120,27951.811377
1 Jan 2020 16:03:29.000,154.586,-75.092,28138.258274
1 Jan 2020 16:03:59.000,153.480,-75.074,28325.411833
1 Jan 2020 16:04:29.000,152.387,-75.066,28513.060959
1 Jan 2020 16:04:41.741,151.926,-75.065,28592.851897
1 Jan 2020 17:03:50.958,322.305,-75.066,28593.166222
1 Jan 2020 17:04:20.000,320.928,-75.068,28451.916306
1 Jan 2020 17:04:50.000,319.485,-75.076,28308.106366
1 Jan 2020 17:05:20.000,318.020,-75.089,28166.616200
1 Jan 2020 17:05:50.000,316.533,-75.108,28027.635876
1 Jan 2020 17:06:20.000,315.022,-75.131,27891.354867
1 Jan 2020 17:06:50.000,313.486,-75.159,27757.961697
1 Jan 2020 17:07:20.000,311.924,-75.192,27627.643565
1 Jan 2020 17:07:50.000,310.336,-75.228,27500.585962
1 Jan 2020 17:08:20.000,308.720,-75.269,27376.972261
1 Jan 2020 17:08:50.000,307.075,-75.312,27256.983296
1 Jan 2020 17:09:20.000,305.400,-75.359,27140.796751
1 Jan 2020 17:09:50.000,303.696,-75.408,27028.587427
1 Jan 2020 17:10:20.000,301.962,-75.459,26920.525703
1 Jan 2020 17:10:50.000,300.196,-75.512,26816.777795
1 Jan 2020 17:11:20.000,298.399,-75.567,26717.505100
1 Jan 2020 17:11:50.000,296.572,-75.621,26622.863719
1 Jan 2020 17:12:20.000,294.713,-75.677,26533.003980
1 Jan 2020 17:12:50.000,292.823,-75.731,26448.069827
1 Jan 2020 17:13:20.000,290.903,-75.785,26368.198890
1 Jan 2020 17:13:50.000,288.954,-75.838,26293.521202
1 Jan 2020 17:14:20.000,286.976,-75.889,26224.159301
1 Jan 2020 17:14:50.000,284.970,-75.938,26160.227653
1 Jan 2020 17:15:20.000,282.938,-75.984,26101.832238
1 Jan 2020 17:15:50.000,280.882,-76.026,26049.070069
1 Jan 2020 17:16:20.000,278.804,-76.065,26002.029166
1 Jan 2020 17:16:50.000,276.705,-76.100,25960.787689
1 Jan 2020 17:17:20.000,274.588,-76.131,25925.413989
1 Jan 2020 17:17:50.000,272.455,-76.157,25895.966245
1 Jan 2020 17:18:20.000,270.309,-76.178,25872.492224
1 Jan 2020 17:18:50.000,268.153,-76.193,25855.029060
1 Jan 2020 17:19:20.000,265.989,-76.204,25843.603230
1 Jan 2020 17:19:50.000,263.822,-76.208,25838.230231
1 Jan 2020 17:20:20.000,261.653,-76.208,25838.914666
1 Jan 2020 17:20:50.000,259.486,-76.201,25845.650188
1 Jan 2020 17:21:20.000,257.323,-76.190,25858.419534
1 Jan 2020 17:21:50.000,255.169,-76.173,25877.194548
1 Jan 2020 17:22:20.000,253.025,-76.151,25901.936362
1 Jan 2020 17:22:50.000,250.894,-76.124,25932.595521
1 Jan 2020 17:23:20.000,248.779,-76.092,25969.112187
1 Jan 2020 17:23:50.000,246.683,-76.057,26011.416386
1 Jan 2020 17:24:20.000,244.607,-76.017,26059.428356
1 Jan 2020 17:24:50.000,242.554,-75.974,26113.058570
1 Jan 2020 17:25:20.000,240.525,-75.927,26172.208508
1 Jan 2020 17:25:50.000,238.522,-75.878,26236.770757
1 Jan 2020 17:26:20.000,236.545,-75.827,26306.629478
1 Jan 2020 17:26:50.000,234.597,-75.774,26381.660824
1 Jan 2020 17:27:20.000,232.678,-75.721,26461.733500
1 Jan 2020 17:27:50.000,230.788,-75.666,26546.708765
1 Jan 2020 17:28:20.000,228.928,-75.611,26636.441563
1 Jan 2020 17:28:50.000,227.098,-75.557,26730.780568
1 Jan 2020 17:29:20.000,225.299,-75.503,26829.568765
1 Jan 2020 17:29:50.000,223.529,-75.451,26932.643932
1 Jan 2020 17:30:20.000,221.789,-75.401,27039.839127
1 Jan 2020 17:30:50.000,220.078,-75.352,27150.983157
1 Jan 2020 17:31:20.000,218.395,-75.306,27265.901224
1 Jan 2020 17:31:50.000,216.741,-75.263,27384.414697
1 Jan 2020 17:32:20.000,215.113,-75.224,27506.342588
1 Jan 2020 17:32:50.000,213.512,-75.188,27631.501311
1 Jan 2020 17:33:20.000,211.936,-75.156,27759.705271
1 Jan 2020 17:33:50.000,210.384,-75.128,27890.767274
1 Jan 2020 17:34:20.000,208.855,-75.105,28024.498918
1 Jan 2020 17:34:50.000,207.349,-75.087,28160.710964
1 Jan 2020 17:35:20.000,205.863,-75.073,28299.213694
1 Jan 2020 17:35:50.000,204.397,-75.065,28439.817247
1 Jan 2020 17:36:20.000,202.950,-75.062,28582.331936
1 Jan 2020 17:36:22.336,202.838,-75.062,28593.502102
1 Jan 2020 18:34:48.383,14.438,-75.072,28597.288548
1 Jan 2020 18:35:18.000,13.185,-75.075,28430.889796
1 Jan 2020 18:35:48.000,11.901,-75.086,28263.161001
1 Jan 2020 18:36:18.000,10.602,-75.105,28096.461182
1 Jan 2020 18:36:48.000,9.285,-75.131,27930.996021
1 Jan 2020 18:37:18.000,7.948,-75.165,27766.973908
1 Jan 2020 18:37:48.000,6.590,-75.206,27604.605717
1 Jan 2020 18:38:18.000,5.209,-75.254,27444.104559
1 Jan 2020 18:38:48.000,3.803,-75.310,27285.685513
1 Jan 2020 18:39:18.000,2.370,-75.372,27129.565328
1 Jan 2020 18:39:48.000,0.908,-75.442,26975.962101
1 Jan 2020 18:40:18.000,359.414,-75.517,26825.094921
1 Jan 2020 18:40:48.000,357.888,-75.599,26677.183498
1 Jan 2020 18:41:18.000,356.327,-75.687,26532.447745
1 Jan 2020 18:41:48.000,354.729,-75.780,26391.107160
1 Jan 2020 18:42:18.000,353.092,-75.878,26253.381123
1 Jan 2020 18:42:48.000,351.413,-75.981,26119.487243
1 Jan 2020 18:43:18.000,349.692,-76.087,25989.641620
1 Jan 2020 18:43:48.000,347.925,-76.197,25864.058097
1 Jan 2020 18:44:18.000,346.112,-76.310,25742.947693
1 Jan 2020 18:44:48.000,344.250,-76.424,25626.518007
1 Jan 2020 18:45:18.000,342.339,-76.540,25514.972454
1 Jan 2020 18:45:48.000,340.376,-76.656,25408.510245
1 Jan 2020 18:46:18.000,338.361,-76.772,25307.324814
1 Jan 2020 18:46:48.000,336.294,-76.886,25211.603789
1 Jan 2020 18:47:18.000,334.173,-76.999,25121.528172
1 Jan 2020 18:47:48.000,331.999,-77.108,25037.271680
1 Jan 2020 18:48:18.000,329.773,-77.213,24958.999976
1 Jan 2020 18:48:48.000,327.496,-77.313,24886.870456
1 Jan 2020 18:49:18.000,325.169,-77.407,24821.030947
1 Jan 2020 18:49:48.000,322.795,-77.495,24761.619549
1 Jan 2020 18:50:18.000,320.376,-77.574,24708.763926
1 Jan 2020 18:50:48.000,317.917,-77.646,24662.580706
1 Jan 2020 18:51:18.000,315.422,-77.707,24623.175154
1 Jan 2020 18:51:48.000,312.895,-77.759,24590.640388
1 Jan 2020 18:52:18.000,310.342,-77.801,24565.057165
1 Jan 2020 18:52:48.000,307.768,-77.831,24546.493448
1 Jan 2020 18:53:18.000,305.181,-77.850,24535.004101
1 Jan 2020 18:53:48.000,302.587,-77.857,24530.630592
1 Jan 2020 18:54:18.000,299.992,-77.852,24533.400835
1 Jan 2020 18:54:48.000,297.404,-77.836,24543.329045
1 Jan 2020 18:55:18.000,294.829,-77.807,24560.415681
1 Jan 2020 18:55:48.000,292.274,-77.768,24584.647520
1 Jan 2020 18:56:18.000,289.746,-77.718,24615.997458
1 Jan 2020 18:56:48.000,287.249,-77.657,24654.425041
1 Jan 2020 18:57:18.000,284.789,-77.586,24699.876422
1 Jan 2020 18:57:48.000,282.372,-77.507,24752.284686
1 Jan 2020 18:58:18.000,280.001,-77.419,24811.570308
1 Jan 2020 18:58:48.000,277.679,-77.324,24877.641027
1 Jan 2020 18:59:18.000,275.410,-77.222,24950.393019
1 Jan 2020 18:59:48.000,273.195,-77.115,25029.710891
1 Jan 2020 19:00:18.000,271.037,-77.003,25115.468323
1 Jan 2020 19:00:48.000,268.936,-76.888,25207.528779
1 Jan 2020 19:01:18.000,266.894,-76.770,25305.745441
1 Jan 2020 19:01:48.000,264.908,-76.651,25409.962780
1 Jan 2020 19:02:18.000,262.981,-76.531,25520.016549
1 Jan 2020 19:02:48.000,261.110,-76.411,25635.734571
1 Jan 2020 19:03:18.000,259.296,-76.292,25756.937385
1 Jan 2020 19:03:48.000,257.535,-76.176,25883.439117
1 Jan 2020 19:04:18.000,255.828,-76.062,26015.047234
1 Jan 2020 19:04:48.000,254.173,-75.951,26151.564500
1 Jan 2020 19:05:18.000,252.567,-75.845,26292.788729
1 Jan 2020 19:05:48.000,251.009,-75.743,26438.513611
1 Jan 2020 19:06:18.000,249.497,-75.647,26588.529307
1 Jan 2020 19:06:48.000,248.028,-75.557,26742.623019
1 Jan 2020 19:07:18.000,246.602,-75.473,26900.579541
1 Jan 2020 19:07:48.000,245.216,-75.396,27062.182054
1 Jan 2020 19:08:18.000,243.868,-75.327,27227.211549
1 Jan 2020 19:08:48.000,242.557,-75.265,27395.448911
1 Jan 2020 19:09:18.000,241.279,-75.211,27566.674294
1 Jan 2020 19:09:48.000,240.034,-75.165,27740.667808
1 Jan 2020 19:10:18.000,238.819,-75.127,27917.209906
1 Jan 2020 19:10:48.000,237.633,-75.099,28096.081751
1 Jan 2020 19:11:18.000,236.474,-75.079,28277.065546
1 Jan 2020 19:11:48.000,235.340,-75.067,28459.944851
1 Jan 2020 19:12:10.545,234.504,-75.065,28598.496097
1 Jan 2020 20:12:08.387,46.977,-75.075,28603.687265
1 Jan 2020 20:12:38.000,46.475,-75.082,28382.363090
1 Jan 2020 20:13:08.000,45.967,-75.102,28158.156613
1 Jan 2020 20:13:38.000,45.457,-75.136,27934.183073
1 Jan 2020 20:14:08.000,44.945,-75.184,27710.672346
1 Jan 2020 20:14:38.000,44.429,-75.247,27487.859767
1 Jan 2020 20:15:08.000,43.909,-75.324,27265.986077
1 Jan 2020 20:15:38.000,43.382,-75.417,27045.297347
1 Jan 2020 20:16:08.000,42.848,-75.525,26826.044874
1 Jan 2020 20:16:38.000,42.305,-75.649,26608.485042
1 Jan 2020 20:17:08.000,41.751,-75.788,26392.879163
1 Jan 2020 20:17:38.000,41.184,-75.944,26179.493272
1 Jan 2020 20:18:08.000,40.604,-76.116,25968.597887
1 Jan 2020 20:18:38.000,40.006,-76.305,25760.467726
1 Jan 2020 20:19:08.000,39.389,-76.510,25555.381382
1 Jan 2020 20:19:38.000,38.750,-76.732,25353.620942
1 Jan 2020 20:20:08.000,38.087,-76.970,25155.471252
1 Jan 2020 20:20:38.000,37.394,-77.225,24961.220687
1 Jan 2020 20:21:08.000,36.670,-77.497,24771.158717
1 Jan 2020 20:21:38.000,35.908,-77.785,24585.576580
1 Jan 2020 20:22:08.000,35.104,-78.090,24404.766300
1 Jan 2020 20:22:38.000,34.252,-78.410,24229.019966
1 Jan 2020 20:23:08.000,33.345,-78.746,24058.628688
1 Jan 2020 20:23:38.000,32.375,-79.097,23893.882786
1 Jan 2020 20:24:08.000,31.332,-79.463,23735.069317
1 Jan 2020 20:24:38.000,30.205,-79.843,23582.472159
1 Jan 2020 20:25:08.000,28.980,-80.236,23436.370724
1 Jan 2020 20:25:38.000,27.641,-80.640,23297.038667
1 Jan 2020 20:26:08.000,26.169,-81.056,23164.743664
1 Jan 2020 20:26:38.000,24.540,-81.480,23039.744899
1 Jan 2020 20:27:08.000,22.726,-81.913,22922.292806
1 Jan 2020 20:27:38.000,20.691,-82.351,22812.627479
1 Jan 2020 20:28:08.000,18.392,-82.791,22710.978116
1 Jan 2020 20:28:38.000,15.777,-83.232,22617.560834
1 Jan 2020 20:29:08.000,12.781,-83.668,22532.578165
1 Jan 2020 20:29:38.000,9.324,-84.096,22456.217624
1 Jan 2020 20:30:08.000,5.316,-84.509,22388.651097
1 Jan 2020 20:30:38.000,0.651,-84.900,22330.033069
1 Jan 2020 20:31:08.000,355.220,-85.260,22280.500175
1 Jan 2020 20:31:38.000,348.929,-85.578,22240.170159
1 Jan 2020 20:32:08.000,341.731,-85.842,22209.141352
1 Jan 2020 20:32:38.000,333.677,-86.037,22187.491646
1 Jan 2020 20:33:08.000,324.954,-86.152,22175.278260
1 Jan 2020 20:33:38.000,315.901,-86.178,22172.537296
1 Jan 2020 20:34:08.000,306.941,-86.113,22179.283466
1 Jan 2020 20:34:38.000,298.474,-85.963,22195.510029
1 Jan 2020 20:35:08.000,290.777,-85.736,22221.188849
1 Jan 2020 20:35:38.000,283.979,-85.447,22256.270668
1 Jan 2020 20:36:08.000,278.084,-85.108,22300.685127
1 Jan 2020 20:36:38.000,273.019,-84.732,22354.341706
1 Jan 2020 20:37:08.000,268.681,-84.328,22417.130043
1 Jan 2020 20:37:38.000,264.963,-83.906,22488.920871
1 Jan 2020 20:38:08.000,261.762,-83.471,22569.566273
1 Jan 2020 20:38:38.000,258.994,-83.029,22658.901456
1 Jan 2020 20:39:08.000,256.585,-82.585,22756.745209
1 Jan 2020 20:39:38.000,254.476,-82.143,22862.901303
1 Jan 2020 20:40:08.000,252.618,-81.704,22977.158848
1 Jan 2020 20:40:38.000,250.972,-81.271,23099.294587
1 Jan 2020 20:41:08.000,249.506,-80.847,23229.073337
1 Jan 2020 20:41:38.000,248.193,-80.432,23366.249368
1 Jan 2020 20:42:08.000,247.012,-80.029,23510.567872
1 Jan 2020 20:42:38.000,245.944,-79.639,23661.765019
1 Jan 2020 20:43:08.000,244.976,-79.262,23819.570769
1 Jan 2020 20:43:38.000,244.094,-78.899,23983.708893
1 Jan 2020 20:44:08.000,243.288,-78.552,24153.898314
1 Jan 2020 20:44:38.000,242.549,-78.220,24329.854139
1 Jan 2020 20:45:08.000,241.870,-77.904,24511.288954
1 Jan 2020 20:45:38.000,241.244,-77.604,24697.912427
1 Jan 2020 20:46:08.000,240.666,-77.321,24889.434124
1 Jan 2020 20:46:38.000,240.132,-77.055,25085.563003
1 Jan 2020 20:47:08.000,239.636,-76.807,25286.008468
1 Jan 2020 20:47:38.000,239.176,-76.575,25490.481037
1 Jan 2020 20:48:08.000,238.748,-76.360,25698.692955
1 Jan 2020 20:48:38.000,238.349,-76.163,25910.358740
1 Jan 2020 20:49:08.000,237.978,-75.982,26125.195675
1 Jan 2020 20:49:38.000,237.632,-75.819,26342.924610
1 Jan 2020 20:50:08.000,237.309,-75.672,26563.268908
1 Jan 2020 20:50:38.000,237.008,-75.542,26785.956932
1 Jan 2020 20:51:08.000,236.727,-75.428,27010.720909
1 Jan 2020 20:51:38.000,236.465,-75.330,27237.297538
1 Jan 2020 20:52:08.000,236.220,-75.249,27465.428194
1 Jan 2020 20:52:38.000,235.992,-75.183,27694.859109
1 Jan 2020 20:53:08.000,235.780,-75.132,27925.341510
1 Jan 2020 20:53:38.000,235.583,-75.097,28156.631731
1 Jan 2020 20:54:08.000,235.399,-75.076,28388.491301
1 Jan 2020 20:54:36.040,235.240,-75.069,28605.512866
1 Jan 2020 21:54:36.439,57.059,-75.077,28609.578749
1 Jan 2020 21:55:06.000,57.611,-75.084,28390.953453
1 Jan 2020 21:55:36.000,58.191,-75.103,28169.889307
1 Jan 2020 21:56:06.000,58.793,-75.136,27949.868380
1 Jan 2020 21:56:36.000,59.417,-75.183,27731.128274
1 Jan 2020 21:57:06.000,60.066,-75.243,27513.910737
1 Jan 2020 21:57:36.000,60.742,-75.316,27298.461501
1 Jan 2020 21:58:06.000,61.446,-75.404,27085.030081
1 Jan 2020 21:58:36.000,62.181,-75.505,26873.869547
1 Jan 2020 21:59:06.000,62.949,-75.621,26665.236260
1 Jan 2020 21:59:36.000,63.753,-75.750,26459.389569
1 Jan 2020 22:00:06.000,64.595,-75.893,26256.591474
1 Jan 2020 22:00:36.000,65.479,-76.049,26057.106238
1 Jan 2020 22:01:06.000,66.407,-76.219,25861.199658
1 Jan 2020 22:01:36.000,67.385,-76.402,25669.139836
1 Jan 2020 22:02:06.000,68.415,-76.598,25481.194779
1 Jan 2020 22:02:36.000,69.502,-76.806,25297.633094
1 Jan 2020 22:03:06.000,70.652,-77.027,25118.723055
1 Jan 2020 22:03:36.000,71.869,-77.258,24944.731937
1 Jan 2020 22:04:06.000,73.160,-77.501,24775.925034
1 Jan 2020 22:04:36.000,74.531,-77.754,24612.565970
1 Jan 2020 22:05:06.000,75.990,-78.015,24454.914273
1 Jan 2020 22:05:36.000,77.543,-78.285,24303.225610
1 Jan 2020 22:06:06.000,79.200,-78.561,24157.750620
1 Jan 2020 22:06:36.000,80.969,-78.843,24018.733758
1 Jan 2020 22:07:06.000,82.862,-79.129,23886.413286
1 Jan 2020 22:07:36.000,84.887,-79.418,23761.018860
1 Jan 2020 22:08:06.000,87.056,-79.706,23642.771500
1 Jan 2020 22:08:36.000,89.381,-79.993,23531.882351
1 Jan 2020 22:09:06.000,91.872,-80.276,23428.551475
1 Jan 2020 22:09:36.000,94.541,-80.552,23332.967710
1 Jan 2020 22:10:06.000,97.397,-80.819,23245.306418
1 Jan 2020 22:10:36.000,100.447,-81.074,23165.729433
1 Jan 2020 22:11:06.000,103.699,-81.313,23094.383818
1 Jan 2020 22:11:36.000,107.152,-81.533,23031.401577
1 Jan 2020 22:12:06.000,110.803,-81.731,22976.898071
1 Jan 2020 22:12:36.000,114.642,-81.904,22930.971891
1 Jan 2020 22:13:06.000,118.652,-82.048,22893.704048
1 Jan 2020 22:13:36.000,122.809,-82.162,22865.157793
1 Jan 2020 22:14:06.000,127.081,-82.242,22845.377708
1 Jan 2020 22:14:36.000,131.428,-82.286,22834.389779
1 Jan 2020 22:15:06.000,135.810,-82.295,22832.201110
1 Jan 2020 22:15:36.000,140.181,-82.268,22838.799948
1 Jan 2020 22:16:06.000,144.497,-82.206,22854.155598
1 Jan 2020 22:16:36.000,148.718,-82.109,22878.218720
1 Jan 2020 22:17:06.000,152.810,-81.981,22910.921625
1 Jan 2020 22:17:36.000,156.745,-81.823,22952.178524
1 Jan 2020 22:18:06.000,160.504,-81.639,23001.886252
1 Jan 2020 22:18:36.000,164.074,-81.431,23059.924743
1 Jan 2020 22:19:06.000,167.448,-81.204,23126.157849
1 Jan 2020 22:19:36.000,170.628,-80.960,23200.433731
1 Jan 2020 22:20:06.000,173.616,-80.703,23282.586252
1 Jan 2020 22:20:36.000,176.419,-80.435,23372.435516
1 Jan 2020 22:21:06.000,179.048,-80.160,23469.789040
1 Jan 2020 22:21:36.000,181.513,-79.880,23574.442185
1 Jan 2020 22:22:06.000,183.824,-79.597,23686.179957
1 Jan 2020 22:22:36.000,185.993,-79.314,23804.777501
1 Jan 2020 22:23:06.000,188.032,-79.032,23930.001244
1 Jan 2020 22:23:36.000,189.950,-78.753,24061.610117
1 Jan 2020 22:24:06.000,191.759,-78.479,24199.355727
1 Jan 2020 22:24:36.000,193.468,-78.211,24342.984545
1 Jan 2020 22:25:06.000,195.085,-77.950,24492.238048
1 Jan 2020 22:25:36.000,196.619,-77.697,24646.853829
1 Jan 2020 22:26:06.000,198.077,-77.454,24806.566457
1 Jan 2020 22:26:36.000,199.467,-77.220,24971.108553
1 Jan 2020 22:27:06.000,200.794,-76.997,25140.210586
1 Jan 2020 22:27:36.000,202.064,-76.785,25313.603056
1 Jan 2020 22:28:06.000,203.283,-76.585,25491.016209
1 Jan 2020 22:28:36.000,204.455,-76.396,25672.180905
1 Jan 2020 22:29:06.000,205.584,-76.220,25856.829195
1 Jan 2020 22:29:36.000,206.676,-76.057,26044.694847
1 Jan 2020 22:30:06.000,207.732,-75.906,26235.513825
1 Jan 2020 22:30:36.000,208.758,-75.767,26429.024724
1 Jan 2020 22:31:06.000,209.755,-75.642,26624.969153
1 Jan 2020 22:31:36.000,210.727,-75.529,26823.092085
1 Jan 2020 22:32:06.000,211.677,-75.429,27023.142458
1 Jan 2020 22:32:36.000,212.606,-75.342,27224.872239
1 Jan 2020 22:33:06.000,213.518,-75.267,27428.038454
1 Jan 2020 22:33:36.000,214.414,-75.205,27632.402191
1 Jan 2020 22:34:06.000,215.296,-75.155,27837.729060
1 Jan 2020 22:34:36.000,216.167,-75.117,28043.789338
1 Jan 2020 22:35:06.000,217.028,-75.091,28250.358075
1 Jan 2020 22:35:36.000,217.880,-75.077,28457.215189
1 Jan 2020 22:35:58.219,218.508,-75.074,28610.481312
1 Jan 2020 23:35:41.910,48.004,-75.077,28611.406625
1 Jan 2020 23:36:11.000,49.287,-75.080,28456.062618
1 Jan 2020 23:36:41.000,50.633,-75.090,28297.908858
1 Jan 2020 23:37:11.000,52.003,-75.106,28142.032214
1 Jan 2020 23:37:41.000,53.398,-75.129,27988.632448
1 Jan 2020 23:38:11.000,54.820,-75.158,27837.909201
1 Jan 2020 23:38:41.000,56.269,-75.193,27690.061634
1 Jan 2020 23:39:11.000,57.748,-75.233,27545.288059
1 Jan 2020 23:39:41.000,59.257,-75.279,27403.785538
1 Jan 2020 23:40:11.000,60.798,-75.329,27265.749472
1 Jan 2020 23:40:41.000,62.372,-75.384,27131.373164
1 Jan 2020 23:41:11.000,63.980,-75.443,27000.847155
1 Jan 2020 23:41:41.000,65.623,-75.506,26874.359609
1 Jan 2020 23:42:11.000,67.302,-75.572,26752.094539
1 Jan 2020 23:42:41.000,69.018,-75.640,26634.232173
1 Jan 2020 23:43:11.000,70.771,-75.710,26520.948226
1 Jan 2020 23:43:41.000,72.563,-75.782,26412.413386
1 Jan 2020 23:44:11.000,74.392,-75.855,26308.792789
1 Jan 2020 23:44:41.000,76.260,-75.929,26210.245320
1 Jan 2020 23:45:11.000,78.167,-76.002,26116.923782
1 Jan 2020 23:45:41.000,80.111,-76.074,26028.973324
1 Jan 2020 23:46:11.000,82.093,-76.144,25946.531639
1 Jan 2020 23:46:41.000,84.112,-76.213,25869.728280
1 Jan 2020 23:47:11.000,86.166,-76.278,25798.684179
1 Jan 2020 23:47:41.000,88.254,-76.341,25733.511063
1 Jan 2020 23:48:11.000,90.374,-76.399,25674.311499
1 Jan 2020 23:48:41.000,92.524,-76.452,25621.177740
1 Jan 2020 23:49:11.000,94.702,-76.501,25574.191852
1 Jan 2020 23:49:41.000,96.904,-76.544,25533.425239
1 Jan 2020 23:50:11.000,99.129,-76.581,25498.938284
1 Jan 2020 23:50:41.000,101.372,-76.612,25470.780337
1 Jan 2020 23:51:11.000,103.630,-76.636,25448.989107
1 Jan 2020 23:51:41.000,105.899,-76.653,25433.590767
1 Jan 2020 23:52:11.000,108.177,-76.663,25424.599765
1 Jan 2020 23:52:41.000,110.458,-76.666,25422.018742
