STKdata/stk_90fov_4leo/Satellite-MEO_Satellite10007-To-Satellite-LEO_Satellite10000 AER.csv

"Time (UTCG)","Azimuth (deg)","Elevation (deg)","Range (km)"
1 Jan 2020 00:00:00.000,55.984,-84.927,22315.602610
1 Jan 2020 00:00:30.000,50.328,-84.941,22313.660207
1 Jan 2020 00:01:00.000,44.689,-84.910,22317.973256
1 Jan 2020 00:01:30.000,39.167,-84.837,22328.544906
1 Jan 2020 00:02:00.000,33.846,-84.723,22345.368909
1 Jan 2020 00:02:30.000,28.793,-84.570,22368.429703
1 Jan 2020 00:03:00.000,24.053,-84.384,22397.702263
1 Jan 2020 00:03:30.000,19.651,-84.168,22433.152527
1 Jan 2020 00:04:00.000,15.591,-83.927,22474.737352
1 Jan 2020 00:04:30.000,11.867,-83.664,22522.404747
1 Jan 2020 00:05:00.000,8.461,-83.384,22576.094215
1 Jan 2020 00:05:30.000,5.352,-83.090,22635.736562
1 Jan 2020 00:06:00.000,2.516,-82.785,22701.254846
1 Jan 2020 00:06:30.000,359.926,-82.472,22772.564266
1 Jan 2020 00:07:00.000,357.559,-82.153,22849.572610
1 Jan 2020 00:07:30.000,355.393,-81.832,22932.180619
1 Jan 2020 00:08:00.000,353.405,-81.508,23020.282561
1 Jan 2020 00:08:30.000,351.578,-81.186,23113.765861
1 Jan 2020 00:09:00.000,349.894,-80.864,23212.512646
1 Jan 2020 00:09:30.000,348.339,-80.546,23316.399414
1 Jan 2020 00:10:00.000,346.898,-80.232,23425.297637
1 Jan 2020 00:10:30.000,345.561,-79.924,23539.074180
1 Jan 2020 00:11:00.000,344.316,-79.621,23657.591730
1 Jan 2020 00:11:30.000,343.155,-79.325,23780.709466
1 Jan 2020 00:12:00.000,342.070,-79.037,23908.282431
1 Jan 2020 00:12:30.000,341.053,-78.757,24040.163484
1 Jan 2020 00:13:00.000,340.099,-78.485,24176.202668
1 Jan 2020 00:13:30.000,339.201,-78.223,24316.247837
1 Jan 2020 00:14:00.000,338.355,-77.970,24460.145029
1 Jan 2020 00:14:30.000,337.556,-77.726,24607.738808
1 Jan 2020 00:15:00.000,336.800,-77.493,24758.872603
1 Jan 2020 00:15:30.000,336.084,-77.270,24913.389026
1 Jan 2020 00:16:00.000,335.405,-77.057,25071.130479
1 Jan 2020 00:16:30.000,334.760,-76.856,25231.938202
1 Jan 2020 00:17:00.000,334.146,-76.665,25395.654387
1 Jan 2020 00:17:30.000,333.561,-76.484,25562.121197
1 Jan 2020 00:18:00.000,333.003,-76.315,25731.181303
1 Jan 2020 00:18:30.000,332.469,-76.157,25902.678095
1 Jan 2020 00:19:00.000,331.960,-76.010,26076.455879
1 Jan 2020 00:19:30.000,331.472,-75.873,26252.360059
1 Jan 2020 00:20:00.000,331.004,-75.748,26430.237295
1 Jan 2020 00:20:30.000,330.556,-75.633,26609.935658
1 Jan 2020 00:21:00.000,330.126,-75.530,26791.304761
1 Jan 2020 00:21:30.000,329.713,-75.437,26974.195882
1 Jan 2020 00:22:00.000,329.315,-75.355,27158.462066
1 Jan 2020 00:22:30.000,328.933,-75.283,27343.958229
1 Jan 2020 00:23:00.000,328.564,-75.222,27530.541233
1 Jan 2020 00:23:30.000,328.210,-75.171,27718.069966
1 Jan 2020 00:24:00.000,327.868,-75.130,27906.405399
1 Jan 2020 00:24:30.000,327.538,-75.100,28095.410646
1 Jan 2020 00:25:00.000,327.220,-75.079,28284.951001
1 Jan 2020 00:25:30.000,326.912,-75.068,28474.893985
1 Jan 2020 00:25:48.643,326.726,-75.066,28593.077440
1 Jan 2020 01:38:05.456,147.100,-75.070,28595.646637
1 Jan 2020 01:38:35.000,147.418,-75.075,28408.974030
1 Jan 2020 01:39:05.000,147.752,-75.089,28219.757515
1 Jan 2020 01:39:35.000,148.098,-75.113,28031.008801
1 Jan 2020 01:40:05.000,148.455,-75.147,27842.860860
1 Jan 2020 01:40:35.000,148.825,-75.191,27655.448829
1 Jan 2020 01:41:05.000,149.209,-75.246,27468.909970
1 Jan 2020 01:41:35.000,149.606,-75.310,27283.383619
1 Jan 2020 01:42:05.000,150.019,-75.385,27099.011129
1 Jan 2020 01:42:35.000,150.447,-75.470,26915.935800
1 Jan 2020 01:43:05.000,150.892,-75.566,26734.302804
1 Jan 2020 01:43:35.000,151.355,-75.673,26554.259088
1 Jan 2020 01:44:05.000,151.836,-75.790,26375.953283
1 Jan 2020 01:44:35.000,152.338,-75.919,26199.535579
1 Jan 2020 01:45:05.000,152.862,-76.058,26025.157610
1 Jan 2020 01:45:35.000,153.408,-76.207,25852.972303
1 Jan 2020 01:46:05.000,153.980,-76.368,25683.133729
1 Jan 2020 01:46:35.000,154.577,-76.540,25515.796930
1 Jan 2020 01:47:05.000,155.203,-76.722,25351.117407
1 Jan 2020 01:47:35.000,155.860,-76.915,25189.252230
1 Jan 2020 01:48:05.000,156.550,-77.118,25030.357843
1 Jan 2020 01:48:35.000,157.276,-77.332,24874.591149
1 Jan 2020 01:49:05.000,158.040,-77.556,24722.108925
1 Jan 2020 01:49:35.000,158.847,-77.790,24573.067554
1 Jan 2020 01:50:05.000,159.699,-78.033,24427.622735
1 Jan 2020 01:50:35.000,160.601,-78.286,24285.929178
1 Jan 2020 01:51:05.000,161.558,-78.548,24148.140020
1 Jan 2020 01:51:35.000,162.574,-78.819,24014.407555
1 Jan 2020 01:52:05.000,163.657,-79.098,23884.881267
1 Jan 2020 01:52:35.000,164.811,-79.384,23759.708547
1 Jan 2020 01:53:05.000,166.045,-79.677,23639.034044
1 Jan 2020 01:53:35.000,167.366,-79.977,23522.999274
1 Jan 2020 01:54:05.000,168.785,-80.281,23411.742219
1 Jan 2020 01:54:35.000,170.312,-80.590,23305.396691
1 Jan 2020 01:55:05.000,171.958,-80.903,23204.092853
1 Jan 2020 01:55:35.000,173.737,-81.217,23107.955392
1 Jan 2020 01:56:05.000,175.664,-81.532,23017.104054
1 Jan 2020 01:56:35.000,177.756,-81.847,22931.652997
1 Jan 2020 01:57:05.000,180.030,-82.158,22851.710382
1 Jan 2020 01:57:35.000,182.507,-82.466,22777.377819
1 Jan 2020 01:58:05.000,185.207,-82.766,22708.750641
1 Jan 2020 01:58:35.000,188.152,-83.057,22645.916531
1 Jan 2020 01:59:05.000,191.363,-83.335,22588.955860
1 Jan 2020 01:59:35.000,194.860,-83.598,22537.941183
1 Jan 2020 02:00:05.000,198.659,-83.843,22492.936857
1 Jan 2020 02:00:35.000,202.769,-84.064,22453.999131
1 Jan 2020 02:01:05.000,207.187,-84.259,22421.175343
1 Jan 2020 02:01:35.000,211.901,-84.424,22394.504104
1 Jan 2020 02:02:05.000,216.878,-84.554,22374.015028
1 Jan 2020 02:02:35.000,222.068,-84.647,22359.728569
1 Jan 2020 02:03:05.000,227.406,-84.701,22351.656073
1 Jan 2020 02:03:35.000,232.812,-84.713,22349.799494
1 Jan 2020 02:04:05.000,238.200,-84.684,22354.151552
1 Jan 2020 02:04:35.000,243.486,-84.614,22364.695723
1 Jan 2020 02:05:05.000,248.596,-84.506,22381.406335
1 Jan 2020 02:05:35.000,253.471,-84.362,22404.248588
1 Jan 2020 02:06:05.000,258.071,-84.186,22433.178834
1 Jan 2020 02:06:35.000,262.372,-83.981,22468.144696
1 Jan 2020 02:07:05.000,266.366,-83.752,22509.085306
1 Jan 2020 02:07:35.000,270.058,-83.502,22555.931568
1 Jan 2020 02:08:05.000,273.461,-83.236,22608.606558
1 Jan 2020 02:08:35.000,276.591,-82.955,22667.025413
1 Jan 2020 02:09:05.000,279.469,-82.664,22731.096298
1 Jan 2020 02:09:35.000,282.118,-82.365,22800.720369
1 Jan 2020 02:10:05.000,284.558,-82.060,22875.792252
1 Jan 2020 02:10:35.000,286.810,-81.752,22956.200439
1 Jan 2020 02:11:05.000,288.894,-81.442,23041.827868
1 Jan 2020 02:11:35.000,290.826,-81.132,23132.551684
1 Jan 2020 02:12:05.000,292.622,-80.824,23228.244622
1 Jan 2020 02:12:35.000,294.297,-80.518,23328.774806
1 Jan 2020 02:13:05.000,295.863,-80.216,23434.006323
1 Jan 2020 02:13:35.000,297.332,-79.919,23543.799644
1 Jan 2020 02:14:05.000,298.713,-79.627,23658.012037
1 Jan 2020 02:14:35.000,300.016,-79.342,23776.498195
1 Jan 2020 02:15:05.000,301.248,-79.063,23899.109743
1 Jan 2020 02:15:35.000,302.417,-78.793,24025.696944
1 Jan 2020 02:16:05.000,303.528,-78.530,24156.108188
1 Jan 2020 02:16:35.000,304.587,-78.275,24290.190568
1 Jan 2020 02:17:05.000,305.599,-78.030,24427.790215
1 Jan 2020 02:17:35.000,306.569,-77.793,24568.752621
1 Jan 2020 02:18:05.000,307.501,-77.566,24712.922938
1 Jan 2020 02:18:35.000,308.398,-77.349,24860.146268
1 Jan 2020 02:19:05.000,309.263,-77.141,25010.267932
1 Jan 2020 02:19:35.000,310.099,-76.944,25163.134002
1 Jan 2020 02:20:05.000,310.910,-76.756,25318.590392
1 Jan 2020 02:20:35.000,311.696,-76.578,25476.484783
1 Jan 2020 02:21:05.000,312.461,-76.411,25636.665684
1 Jan 2020 02:21:35.000,313.207,-76.253,25798.982895
1 Jan 2020 02:22:05.000,313.935,-76.106,25963.287674
1 Jan 2020 02:22:35.000,314.647,-75.969,26129.432884
1 Jan 2020 02:23:05.000,315.344,-75.842,26297.273127
1 Jan 2020 02:23:35.000,316.028,-75.725,26466.664866
1 Jan 2020 02:24:05.000,316.700,-75.618,26637.466529
1 Jan 2020 02:24:35.000,317.362,-75.521,26809.538605
1 Jan 2020 02:25:05.000,318.014,-75.434,26982.743727
1 Jan 2020 02:25:35.000,318.658,-75.356,27156.946738
1 Jan 2020 02:26:05.000,319.294,-75.288,27332.014759
1 Jan 2020 02:26:35.000,319.923,-75.229,27507.817232
1 Jan 2020 02:27:05.000,320.547,-75.180,27684.225969
1 Jan 2020 02:27:35.000,321.166,-75.139,27861.115181
1 Jan 2020 02:28:05.000,321.781,-75.108,28038.361503
1 Jan 2020 02:28:35.000,322.392,-75.085,28215.844020
1 Jan 2020 02:29:05.000,323.001,-75.071,28393.444273
1 Jan 2020 02:29:35.000,323.608,-75.066,28571.046268
1 Jan 2020 02:29:39.488,323.698,-75.065,28597.606222
1 Jan 2020 03:45:57.311,176.565,-75.075,28603.614275
1 Jan 2020 03:46:27.000,177.543,-75.078,28457.420954
1 Jan 2020 03:46:57.000,178.542,-75.087,28310.394433
1 Jan 2020 03:47:27.000,179.554,-75.101,28164.161613
1 Jan 2020 03:47:57.000,180.578,-75.121,28018.814767
1 Jan 2020 03:48:27.000,181.616,-75.147,27874.446883
1 Jan 2020 03:48:57.000,182.669,-75.179,27731.151613
1 Jan 2020 03:49:27.000,183.737,-75.216,27589.023220
1 Jan 2020 03:49:57.000,184.821,-75.259,27448.156518
1 Jan 2020 03:50:27.000,185.922,-75.307,27308.646807
1 Jan 2020 03:50:57.000,187.041,-75.362,27170.589806
1 Jan 2020 03:51:27.000,188.179,-75.421,27034.081578
1 Jan 2020 03:51:57.000,189.337,-75.486,26899.218453
1 Jan 2020 03:52:27.000,190.516,-75.556,26766.096941
1 Jan 2020 03:52:57.000,191.717,-75.632,26634.813649
1 Jan 2020 03:53:27.000,192.941,-75.712,26505.465179
1 Jan 2020 03:53:57.000,194.189,-75.797,26378.148034
1 Jan 2020 03:54:27.000,195.462,-75.887,26252.958510
1 Jan 2020 03:54:57.000,196.762,-75.981,26129.992337
1 Jan 2020 03:55:27.000,198.090,-76.080,26009.345563
1 Jan 2020 03:55:57.000,199.446,-76.183,25891.112925
1 Jan 2020 03:56:27.000,200.832,-76.289,25775.388734
1 Jan 2020 03:56:57.000,202.250,-76.399,25662.266488
1 Jan 2020 03:57:27.000,203.701,-76.512,25551.838735
1 Jan 2020 03:57:57.000,205.185,-76.628,25444.196933
1 Jan 2020 03:58:27.000,206.705,-76.746,25339.431305
1 Jan 2020 03:58:57.000,208.262,-76.866,25237.630689
1 Jan 2020 03:59:27.000,209.856,-76.989,25138.882387
1 Jan 2020 03:59:57.000,211.489,-77.112,25043.271809
1 Jan 2020 04:00:27.000,213.162,-77.237,24950.883111
1 Jan 2020 04:00:57.000,214.877,-77.362,24861.797834
1 Jan 2020 04:01:27.000,216.634,-77.487,24776.095547
1 Jan 2020 04:01:57.000,218.434,-77.611,24693.853486
1 Jan 2020 04:02:27.000,220.278,-77.735,24615.146382
1 Jan 2020 04:02:57.000,222.167,-77.856,24540.046311
1 Jan 2020 04:03:27.000,224.101,-77.976,24468.622522
1 Jan 2020 04:03:57.000,226.080,-78.093,24400.941151
1 Jan 2020 04:04:27.000,228.105,-78.207,24337.065614
1 Jan 2020 04:04:57.000,230.175,-78.316,24277.055617
1 Jan 2020 04:05:27.000,232.289,-78.422,24220.967574
1 Jan 2020 04:05:57.000,234.446,-78.522,24168.854329
1 Jan 2020 04:06:27.000,236.646,-78.616,24120.765015
1 Jan 2020 04:06:57.000,238.886,-78.705,24076.744930
1 Jan 2020 04:07:27.000,241.165,-78.787,24036.835419
1 Jan 2020 04:07:57.000,243.480,-78.861,24001.073681
1 Jan 2020 04:08:27.000,245.828,-78.928,23969.493002
1 Jan 2020 04:08:57.000,248.206,-78.987,23942.122154
1 Jan 2020 04:09:27.000,250.610,-79.037,23918.985665
1 Jan 2020 04:09:57.000,253.037,-79.078,23900.103664
1 Jan 2020 04:10:27.000,255.482,-79.111,23885.491824
1 Jan 2020 04:10:57.000,257.941,-79.134,23875.161321
1 Jan 2020 04:11:27.000,260.409,-79.147,23869.118789
1 Jan 2020 04:11:57.000,262.881,-79.151,23867.366367
1 Jan 2020 04:12:27.000,265.352,-79.145,23869.901586
1 Jan 2020 04:12:57.000,267.818,-79.130,23876.717463
1 Jan 2020 04:13:27.000,270.274,-79.105,23887.802499
1 Jan 2020 04:13:57.000,272.715,-79.071,23903.140714
1 Jan 2020 04:14:27.000,275.137,-79.028,23922.711697
1 Jan 2020 04:14:57.000,277.535,-78.976,23946.490665
1 Jan 2020 04:15:27.000,279.907,-78.916,23974.448602
1 Jan 2020 04:15:57.000,282.248,-78.848,24006.552099
1 Jan 2020 04:16:27.000,284.556,-78.772,24042.763799
1 Jan 2020 04:16:57.000,286.827,-78.690,24083.042278
1 Jan 2020 04:17:27.000,289.060,-78.601,24127.342217
1 Jan 2020 04:17:57.000,291.253,-78.506,24175.614524
1 Jan 2020 04:18:27.000,293.404,-78.406,24227.806466
1 Jan 2020 04:18:57.000,295.512,-78.300,24283.861806
1 Jan 2020 04:19:27.000,297.576,-78.191,24343.721080
1 Jan 2020 04:19:57.000,299.597,-78.078,24407.321251
1 Jan 2020 04:20:27.000,301.573,-77.962,24474.596590
1 Jan 2020 04:20:57.000,303.505,-77.844,24545.478363
1 Jan 2020 04:21:27.000,305.393,-77.723,24619.895106
1 Jan 2020 04:21:57.000,307.238,-77.601,24697.772795
1 Jan 2020 04:22:27.000,309.040,-77.478,24779.035005
1 Jan 2020 04:22:57.000,310.800,-77.355,24863.603080
1 Jan 2020 04:23:27.000,312.520,-77.232,24951.396298
1 Jan 2020 04:23:57.000,314.200,-77.109,25042.332034
1 Jan 2020 04:24:27.000,315.842,-76.987,25136.326124
1 Jan 2020 04:24:57.000,317.446,-76.867,25233.292231
1 Jan 2020 04:25:27.000,319.014,-76.748,25333.143185
1 Jan 2020 04:25:57.000,320.547,-76.632,25435.790355
1 Jan 2020 04:26:27.000,322.046,-76.518,25541.143995
1 Jan 2020 04:26:57.000,323.513,-76.406,25649.113387
1 Jan 2020 04:27:27.000,324.950,-76.298,25759.606986
1 Jan 2020 04:27:57.000,326.356,-76.194,25872.532557
1 Jan 2020 04:28:27.000,327.734,-76.093,25987.797302
1 Jan 2020 04:28:57.000,329.085,-75.995,26105.307992
1 Jan 2020 04:29:27.000,330.410,-75.902,26224.971086
1 Jan 2020 04:29:57.000,331.710,-75.813,26346.692845
1 Jan 2020 04:30:27.000,332.986,-75.729,26470.379445
1 Jan 2020 04:30:57.000,334.240,-75.649,26595.937077
1 Jan 2020 04:31:27.000,335.473,-75.574,26723.272048
1 Jan 2020 04:31:57.000,336.685,-75.504,26852.291133
1 Jan 2020 04:32:27.000,337.877,-75.439,26982.900629
1 Jan 2020 04:32:57.000,339.051,-75.379,27115.007981
1 Jan 2020 04:33:27.000,340.208,-75.324,27248.520831
1 Jan 2020 04:33:57.000,341.348,-75.274,27383.347346
1 Jan 2020 04:34:27.000,342.473,-75.230,27519.396286
1 Jan 2020 04:34:57.000,343.583,-75.191,27656.577059
1 Jan 2020 04:35:27.000,344.679,-75.157,27794.799785
1 Jan 2020 04:35:57.000,345.762,-75.129,27933.975343
1 Jan 2020 04:36:27.000,346.833,-75.106,28074.015417
1 Jan 2020 04:36:57.000,347.892,-75.088,28214.832543
1 Jan 2020 04:37:27.000,348.941,-75.076,28356.340146
1 Jan 2020 04:37:57.000,349.979,-75.069,28498.452577
1 Jan 2020 04:38:19.593,350.755,-75.068,28605.827227
1 Jan 2020 05:56:29.791,212.020,-75.075,28610.225165
1 Jan 2020 05:56:59.000,212.808,-75.078,28450.641751
1 Jan 2020 05:57:29.000,213.622,-75.089,28286.812377
1 Jan 2020 05:57:59.000,214.442,-75.106,28123.159945
1 Jan 2020 05:58:29.000,215.269,-75.131,27959.790049
1 Jan 2020 05:58:59.000,216.102,-75.164,27796.810336
1 Jan 2020 05:59:29.000,216.944,-75.204,27634.330485
1 Jan 2020 05:59:59.000,217.794,-75.252,27472.462183
1 Jan 2020 06:00:29.000,218.655,-75.308,27311.319098
1 Jan 2020 06:00:59.000,219.526,-75.371,27151.016843
1 Jan 2020 06:01:29.000,220.410,-75.443,26991.672935
1 Jan 2020 06:01:59.000,221.307,-75.522,26833.406743
1 Jan 2020 06:02:29.000,222.218,-75.610,26676.339434
1 Jan 2020 06:02:59.000,223.145,-75.705,26520.593902
1 Jan 2020 06:03:29.000,224.089,-75.808,26366.294701
1 Jan 2020 06:03:59.000,225.051,-75.920,26213.567955
1 Jan 2020 06:04:29.000,226.034,-76.039,26062.541266
1 Jan 2020 06:04:59.000,227.039,-76.166,25913.343609
1 Jan 2020 06:05:29.000,228.067,-76.302,25766.105220
1 Jan 2020 06:05:59.000,229.121,-76.444,25620.957462
1 Jan 2020 06:06:29.000,230.202,-76.595,25478.032694
1 Jan 2020 06:06:59.000,231.313,-76.753,25337.463855
1 Jan 2020 06:07:29.000,232.456,-76.918,25199.385349
1 Jan 2020 06:07:59.000,233.634,-77.091,25063.931290
1 Jan 2020 06:08:29.000,234.850,-77.270,24931.236370
1 Jan 2020 06:08:59.000,236.106,-77.456,24801.435390
1 Jan 2020 06:09:29.000,237.406,-77.647,24674.663045
1 Jan 2020 06:09:59.000,238.753,-77.845,24551.053694
1 Jan 2020 06:10:29.000,240.151,-78.048,24430.741118
1 Jan 2020 06:10:59.000,241.603,-78.257,24313.858265
1 Jan 2020 06:11:29.000,243.114,-78.469,24200.536777
1 Jan 2020 06:11:59.000,244.689,-78.685,24090.907546
1 Jan 2020 06:12:29.000,246.331,-78.905,23985.099158
1 Jan 2020 06:12:59.000,248.047,-79.126,23883.238448
1 Jan 2020 06:13:29.000,249.841,-79.350,23785.449972
1 Jan 2020 06:13:59.000,251.719,-79.574,23691.855694
1 Jan 2020 06:14:29.000,253.686,-79.797,23602.574662
1 Jan 2020 06:14:59.000,255.748,-80.019,23517.722532
1 Jan 2020 06:15:29.000,257.911,-80.239,23437.411842
1 Jan 2020 06:15:59.000,260.179,-80.455,23361.750759
1 Jan 2020 06:16:29.000,262.559,-80.666,23290.843371
1 Jan 2020 06:16:59.000,265.055,-80.870,23224.789204
1 Jan 2020 06:17:29.000,267.670,-81.067,23163.682891
1 Jan 2020 06:17:59.000,270.407,-81.253,23107.613777
1 Jan 2020 06:18:29.000,273.267,-81.429,23056.665971
1 Jan 2020 06:18:59.000,276.249,-81.592,23010.917491
1 Jan 2020 06:19:29.000,279.350,-81.740,22970.440372
1 Jan 2020 06:19:59.000,282.564,-81.872,22935.300299
1 Jan 2020 06:20:29.000,285.882,-81.986,22905.556368
1 Jan 2020 06:20:59.000,289.294,-82.081,22881.260827
1 Jan 2020 06:21:29.000,292.784,-82.156,22862.459010
1 Jan 2020 06:21:59.000,296.334,-82.210,22849.188947
1 Jan 2020 06:22:29.000,299.926,-82.241,22841.481369
1 Jan 2020 06:22:59.000,303.538,-82.250,22839.359540
1 Jan 2020 06:23:29.000,307.147,-82.235,22842.839168
1 Jan 2020 06:23:59.000,310.731,-82.198,22851.928383
1 Jan 2020 06:24:29.000,314.270,-82.139,22866.627548
1 Jan 2020 06:24:59.000,317.743,-82.059,22886.929467
1 Jan 2020 06:25:29.000,321.134,-81.958,22912.819285
1 Jan 2020 06:25:59.000,324.426,-81.837,22944.274574
1 Jan 2020 06:26:29.000,327.610,-81.699,22981.265419
1 Jan 2020 06:26:59.000,330.676,-81.545,23023.754642
1 Jan 2020 06:27:29.000,333.619,-81.376,23071.697520
1 Jan 2020 06:27:59.000,336.435,-81.194,23125.042573
1 Jan 2020 06:28:29.000,339.124,-81.001,23183.731357
1 Jan 2020 06:28:59.000,341.687,-80.798,23247.698771
1 Jan 2020 06:29:29.000,344.126,-80.587,23316.873299
1 Jan 2020 06:29:59.000,346.445,-80.369,23391.177420
1 Jan 2020 06:30:29.000,348.648,-80.147,23470.527246
1 Jan 2020 06:30:59.000,350.741,-79.920,23554.833743
1 Jan 2020 06:31:29.000,352.729,-79.691,23644.002410
1 Jan 2020 06:31:59.000,354.618,-79.461,23737.933738
1 Jan 2020 06:32:29.000,356.413,-79.231,23836.523517
1 Jan 2020 06:32:59.000,358.119,-79.001,23939.663160
1 Jan 2020 06:33:29.000,359.743,-78.774,24047.240242
1 Jan 2020 06:33:59.000,1.290,-78.549,24159.137924
1 Jan 2020 06:34:29.000,2.763,-78.327,24275.236610
1 Jan 2020 06:34:59.000,4.169,-78.109,24395.413379
1 Jan 2020 06:35:29.000,5.511,-77.896,24519.542514
1 Jan 2020 06:35:59.000,6.794,-77.689,24647.495810
1 Jan 2020 06:36:29.000,8.022,-77.488,24779.142868
1 Jan 2020 06:36:59.000,9.198,-77.292,24914.351389
1 Jan 2020 06:37:29.000,10.325,-77.104,25052.987451
1 Jan 2020 06:37:59.000,11.407,-76.923,25194.916069
1 Jan 2020 06:38:29.000,12.447,-76.749,25340.000300
1 Jan 2020 06:38:59.000,13.447,-76.583,25488.103213
1 Jan 2020 06:39:29.000,14.410,-76.425,25639.086980
1 Jan 2020 06:39:59.000,15.338,-76.275,25792.813382
1 Jan 2020 06:40:29.000,16.234,-76.134,25949.144023
1 Jan 2020 06:40:59.000,17.099,-76.001,26107.940524
1 Jan 2020 06:41:29.000,17.935,-75.877,26269.064712
1 Jan 2020 06:41:59.000,18.744,-75.762,26432.378788
1 Jan 2020 06:42:29.000,19.528,-75.655,26597.745492
1 Jan 2020 06:42:59.000,20.288,-75.558,26765.028251
1 Jan 2020 06:43:29.000,21.026,-75.469,26934.091317
1 Jan 2020 06:43:59.000,21.742,-75.390,27104.799892
1 Jan 2020 06:44:29.000,22.438,-75.319,27277.020245
1 Jan 2020 06:44:59.000,23.116,-75.258,27450.619817
1 Jan 2020 06:45:29.000,23.776,-75.205,27625.467319
1 Jan 2020 06:45:59.000,24.419,-75.161,27801.432815
1 Jan 2020 06:46:29.000,25.047,-75.127,27978.387801
1 Jan 2020 06:46:59.000,25.659,-75.101,28156.205277
1 Jan 2020 06:47:29.000,26.258,-75.083,28334.759804
1 Jan 2020 06:47:59.000,26.843,-75.074,28513.927563
1 Jan 2020 06:48:15.208,27.154,-75.073,28610.938393
1 Jan 2020 08:00:52.340,216.667,-75.072,28610.009896
1 Jan 2020 08:01:22.000,216.645,-75.076,28418.366404
1 Jan 2020 08:01:52.000,216.616,-75.091,28224.657363
1 Jan 2020 08:02:22.000,216.579,-75.116,28031.210114
1 Jan 2020 08:02:52.000,216.535,-75.152,27838.159399
1 Jan 2020 08:03:22.000,216.483,-75.198,27645.642523
1 Jan 2020 08:03:52.000,216.423,-75.255,27453.799334
1 Jan 2020 08:04:22.000,216.355,-75.323,27262.772190
1 Jan 2020 08:04:52.000,216.279,-75.402,27072.705923
1 Jan 2020 08:05:22.000,216.193,-75.493,26883.747785
1 Jan 2020 08:05:52.000,216.099,-75.595,26696.047396
1 Jan 2020 08:06:22.000,215.994,-75.709,26509.756671
1 Jan 2020 08:06:52.000,215.880,-75.834,26325.029738
1 Jan 2020 08:07:22.000,215.755,-75.972,26142.022844
1 Jan 2020 08:07:52.000,215.619,-76.122,25960.894247
1 Jan 2020 08:08:22.000,215.471,-76.283,25781.804093
1 Jan 2020 08:08:52.000,215.311,-76.458,25604.914276
1 Jan 2020 08:09:22.000,215.138,-76.644,25430.388283
1 Jan 2020 08:09:52.000,214.950,-76.843,25258.391023
1 Jan 2020 08:10:22.000,214.747,-77.054,25089.088300
1 Jan 2020 08:10:52.000,214.528,-77.278,24922.647944
1 Jan 2020 08:11:22.000,214.291,-77.515,24759.237563
1 Jan 2020 08:11:52.000,214.035,-77.764,24599.025647
1 Jan 2020 08:12:22.000,213.759,-78.025,24442.180951
1 Jan 2020 08:12:52.000,213.460,-78.299,24288.872212
1 Jan 2020 08:13:22.000,213.135,-78.585,24139.267833
1 Jan 2020 08:13:52.000,212.784,-78.883,23993.535546
1 Jan 2020 08:14:22.000,212.402,-79.193,23851.841793
1 Jan 2020 08:14:52.000,211.986,-79.515,23714.352444
1 Jan 2020 08:15:22.000,211.532,-79.848,23581.230748
1 Jan 2020 08:15:52.000,211.036,-80.193,23452.638031
1 Jan 2020 08:16:22.000,210.492,-80.548,23328.732991
1 Jan 2020 08:16:52.000,209.892,-80.914,23209.671250
1 Jan 2020 08:17:22.000,209.230,-81.290,23095.604903
1 Jan 2020 08:17:52.000,208.494,-81.675,22986.681805
1 Jan 2020 08:18:22.000,207.674,-82.070,22883.046060
1 Jan 2020 08:18:52.000,206.754,-82.472,22784.836081
1 Jan 2020 08:19:22.000,205.715,-82.882,22692.185086
1 Jan 2020 08:19:52.000,204.535,-83.299,22605.220372
1 Jan 2020 08:20:22.000,203.182,-83.721,22524.062831
1 Jan 2020 08:20:52.000,201.620,-84.147,22448.826324
1 Jan 2020 08:21:22.000,199.795,-84.576,22379.617887
1 Jan 2020 08:21:52.000,197.642,-85.005,22316.536276
1 Jan 2020 08:22:22.000,195.068,-85.432,22259.672241
1 Jan 2020 08:22:52.000,191.949,-85.855,22209.107959
1 Jan 2020 08:23:22.000,188.114,-86.267,22164.916584
1 Jan 2020 08:23:52.000,183.331,-86.663,22127.162272
1 Jan 2020 08:24:22.000,177.287,-87.034,22095.899341
1 Jan 2020 08:24:52.000,169.603,-87.367,22071.172394
1 Jan 2020 08:25:22.000,159.906,-87.642,22053.016015
1 Jan 2020 08:25:52.000,148.067,-87.836,22041.454580
1 Jan 2020 08:26:22.000,134.577,-87.925,22036.502242
1 Jan 2020 08:26:52.000,120.701,-87.895,22038.162692
1 Jan 2020 08:27:22.000,107.920,-87.751,22046.429268
1 Jan 2020 08:27:52.000,97.131,-87.514,22061.284949
1 Jan 2020 08:28:22.000,88.468,-87.208,22082.702483
1 Jan 2020 08:28:52.000,81.636,-86.855,22110.644345
1 Jan 2020 08:29:22.000,76.242,-86.471,22145.063150
1 Jan 2020 08:29:52.000,71.936,-86.067,22185.901728
1 Jan 2020 08:30:22.000,68.449,-85.650,22233.093421
1 Jan 2020 08:30:52.000,65.580,-85.227,22286.562492
1 Jan 2020 08:31:22.000,63.184,-84.800,22346.224055
1 Jan 2020 08:31:52.000,61.153,-84.372,22411.985043
1 Jan 2020 08:32:22.000,59.410,-83.946,22483.744223
1 Jan 2020 08:32:52.000,57.897,-83.524,22561.392716
1 Jan 2020 08:33:22.000,56.567,-83.107,22644.814442
1 Jan 2020 08:33:52.000,55.389,-82.696,22733.886772
1 Jan 2020 08:34:22.000,54.334,-82.292,22828.480255
1 Jan 2020 08:34:52.000,53.383,-81.895,22928.460209
1 Jan 2020 08:35:22.000,52.518,-81.508,23033.686478
1 Jan 2020 08:35:52.000,51.727,-81.129,23144.014103
1 Jan 2020 08:36:22.000,50.997,-80.761,23259.293803
1 Jan 2020 08:36:52.000,50.321,-80.402,23379.372458
1 Jan 2020 08:37:22.000,49.692,-80.054,23504.093836
1 Jan 2020 08:37:52.000,49.101,-79.717,23633.298025
1 Jan 2020 08:38:22.000,48.546,-79.392,23766.823404
1 Jan 2020 08:38:52.000,48.020,-79.078,23904.506064
1 Jan 2020 08:39:22.000,47.521,-78.775,24046.180471
1 Jan 2020 08:39:52.000,47.044,-78.485,24191.679857
1 Jan 2020 08:40:22.000,46.588,-78.206,24340.836593
1 Jan 2020 08:40:52.000,46.150,-77.940,24493.482544
1 Jan 2020 08:41:22.000,45.727,-77.686,24649.449397
1 Jan 2020 08:41:52.000,45.319,-77.444,24808.569279
1 Jan 2020 08:42:22.000,44.922,-77.215,24970.673836
1 Jan 2020 08:42:52.000,44.536,-76.997,25135.596304
1 Jan 2020 08:43:22.000,44.159,-76.792,25303.170560
1 Jan 2020 08:43:52.000,43.791,-76.599,25473.231646
1 Jan 2020 08:44:22.000,43.430,-76.419,25645.615979
1 Jan 2020 08:44:52.000,43.074,-76.250,25820.161535
1 Jan 2020 08:45:22.000,42.725,-76.094,25996.708020
1 Jan 2020 08:45:52.000,42.379,-75.949,26175.097022
1 Jan 2020 08:46:22.000,42.038,-75.816,26355.172147
1 Jan 2020 08:46:52.000,41.699,-75.694,26536.779139
1 Jan 2020 08:47:22.000,41.364,-75.584,26719.765983
1 Jan 2020 08:47:52.000,41.030,-75.486,26903.982999
1 Jan 2020 08:48:22.000,40.697,-75.398,27089.282918
1 Jan 2020 08:48:52.000,40.366,-75.321,27275.520948
1 Jan 2020 08:49:22.000,40.034,-75.255,27462.554832
1 Jan 2020 08:49:52.000,39.703,-75.200,27650.244889
1 Jan 2020 08:50:22.000,39.372,-75.155,27838.454055
1 Jan 2020 08:50:52.000,39.039,-75.120,28027.047904
1 Jan 2020 08:51:22.000,38.705,-75.096,28215.894672
1 Jan 2020 08:51:52.000,38.370,-75.081,28404.865264
1 Jan 2020 08:52:22.000,38.032,-75.075,28593.833266
1 Jan 2020 08:52:24.339,38.006,-75.075,28608.562457
1 Jan 2020 10:06:37.331,195.921,-75.067,28603.259602
1 Jan 2020 10:07:07.000,195.083,-75.070,28443.847579
1 Jan 2020 10:07:37.000,194.223,-75.080,28283.380211
1 Jan 2020 10:08:07.000,193.349,-75.097,28123.742629
1 Jan 2020 10:08:37.000,192.461,-75.121,27965.041511
1 Jan 2020 10:09:07.000,191.557,-75.152,27807.384459
1 Jan 2020 10:09:37.000,190.637,-75.190,27650.879934
1 Jan 2020 10:10:07.000,189.700,-75.235,27495.637192
1 Jan 2020 10:10:37.000,188.744,-75.287,27341.766206
1 Jan 2020 10:11:07.000,187.769,-75.345,27189.377591
1 Jan 2020 10:11:37.000,186.774,-75.410,27038.582513
1 Jan 2020 10:12:07.000,185.757,-75.482,26889.492602
1 Jan 2020 10:12:37.000,184.717,-75.561,26742.219849
1 Jan 2020 10:13:07.000,183.654,-75.646,26596.876498
1 Jan 2020 10:13:37.000,182.565,-75.737,26453.574937
1 Jan 2020 10:14:07.000,181.450,-75.835,26312.427572
1 Jan 2020 10:14:37.000,180.307,-75.938,26173.546701
1 Jan 2020 10:15:07.000,179.134,-76.048,26037.044107
1 Jan 2020 10:15:37.000,177.930,-76.163,25903.032003
1 Jan 2020 10:16:07.000,176.694,-76.283,25771.621240
1 Jan 2020 10:16:37.000,175.424,-76.409,25642.922247
1 Jan 2020 10:17:07.000,174.117,-76.539,25517.044592
1 Jan 2020 10:17:37.000,172.773,-76.674,25394.096808
1 Jan 2020 10:18:07.000,171.390,-76.813,25274.186213
1 Jan 2020 10:18:37.000,169.965,-76.956,25157.418727
1 Jan 2020 10:19:07.000,168.496,-77.102,25043.898681
1 Jan 2020 10:19:37.000,166.983,-77.251,24933.728620
1 Jan 2020 10:20:07.000,165.422,-77.403,24827.008862
1 Jan 2020 10:20:37.000,163.812,-77.556,24723.838259
1 Jan 2020 10:21:07.000,162.151,-77.711,24624.312534
1 Jan 2020 10:21:37.000,160.437,-77.866,24528.525042
1 Jan 2020 10:22:07.000,158.667,-78.021,24436.566321
1 Jan 2020 10:22:37.000,156.842,-78.176,24348.523873
1 Jan 2020 10:23:07.000,154.958,-78.330,24264.481955
1 Jan 2020 10:23:37.000,153.014,-78.482,24184.521370
1 Jan 2020 10:24:07.000,151.010,-78.631,24108.719087
1 Jan 2020 10:24:37.000,148.944,-78.777,24037.148736
1 Jan 2020 10:25:07.000,146.816,-78.918,23969.879351
1 Jan 2020 10:25:37.000,144.626,-79.055,23906.975895
1 Jan 2020 10:26:07.000,142.374,-79.185,23848.498896
1 Jan 2020 10:26:37.000,140.061,-79.309,23794.504273
1 Jan 2020 10:27:07.000,137.689,-79.425,23745.043174
1 Jan 2020 10:27:37.000,135.260,-79.533,23700.161721
1 Jan 2020 10:28:07.000,132.777,-79.632,23659.901292
1 Jan 2020 10:28:37.000,130.243,-79.721,23624.297751
1 Jan 2020 10:29:07.000,127.664,-79.800,23593.381777
1 Jan 2020 10:29:37.000,125.043,-79.868,23567.178658
1 Jan 2020 10:30:07.000,122.387,-79.924,23545.708213
1 Jan 2020 10:30:37.000,119.702,-79.969,23528.984732
1 Jan 2020 10:31:07.000,116.994,-80.001,23517.016897
1 Jan 2020 10:31:37.000,114.272,-80.020,23509.807906
1 Jan 2020 10:32:07.000,111.542,-80.027,23507.355230
1 Jan 2020 10:32:37.000,108.812,-80.021,23509.650792
1 Jan 2020 10:33:07.000,106.090,-80.002,23516.680954
1 Jan 2020 10:33:37.000,103.383,-79.971,23528.426564
1 Jan 2020 10:34:07.000,100.698,-79.928,23544.863024
1 Jan 2020 10:34:37.000,98.041,-79.873,23565.960411
1 Jan 2020 10:35:07.000,95.420,-79.806,23591.683436
1 Jan 2020 10:35:37.000,92.838,-79.729,23621.991756
1 Jan 2020 10:36:07.000,90.302,-79.642,23656.839989
1 Jan 2020 10:36:37.000,87.815,-79.545,23696.177879
1 Jan 2020 10:37:07.000,85.380,-79.440,23739.950466
1 Jan 2020 10:37:37.000,83.000,-79.326,23788.098247
1 Jan 2020 10:38:07.000,80.677,-79.206,23840.557458
1 Jan 2020 10:38:37.000,78.412,-79.079,23897.259884
1 Jan 2020 10:39:07.000,76.206,-78.947,23958.133617
1 Jan 2020 10:39:37.000,74.059,-78.809,24023.102898
1 Jan 2020 10:40:07.000,71.971,-78.668,24092.088416
1 Jan 2020 10:40:37.000,69.941,-78.524,24165.007522
1 Jan 2020 10:41:07.000,67.968,-78.377,24241.774453
1 Jan 2020 10:41:37.000,66.051,-78.228,24322.300548
1 Jan 2020 10:42:07.000,64.189,-78.078,24406.494629
1 Jan 2020 10:42:37.000,62.380,-77.927,24494.262591
1 Jan 2020 10:43:07.000,60.621,-77.777,24585.508557
1 Jan 2020 10:43:37.000,58.912,-77.627,24680.134480
1 Jan 2020 10:44:07.000,57.250,-77.479,24778.040504
1 Jan 2020 10:44:37.000,55.634,-77.332,24879.125178
1 Jan 2020 10:45:07.000,54.060,-77.188,24983.285654
1 Jan 2020 10:45:37.000,52.528,-77.046,25090.417891
1 Jan 2020 10:46:07.000,51.035,-76.908,25200.416842
1 Jan 2020 10:46:37.000,49.580,-76.772,25313.176646
1 Jan 2020 10:47:07.000,48.160,-76.641,25428.590797
1 Jan 2020 10:47:37.000,46.774,-76.513,25546.552557
1 Jan 2020 10:48:07.000,45.420,-76.390,25666.954186
1 Jan 2020 10:48:37.000,44.097,-76.272,25789.688484
1 Jan 2020 10:49:07.000,42.802,-76.158,25914.648017
1 Jan 2020 10:49:37.000,41.534,-76.050,26041.725490
1 Jan 2020 10:50:07.000,40.292,-75.946,26170.813872
1 Jan 2020 10:50:37.000,39.074,-75.848,26301.806524
1 Jan 2020 10:51:07.000,37.878,-75.756,26434.597312
1 Jan 2020 10:51:37.000,36.704,-75.669,26569.080712
1 Jan 2020 10:52:07.000,35.550,-75.588,26705.151915
1 Jan 2020 10:52:37.000,34.415,-75.513,26842.706914
1 Jan 2020 10:53:07.000,33.298,-75.443,26981.642593
1 Jan 2020 10:53:37.000,32.197,-75.380,27121.856802
1 Jan 2020 10:54:07.000,31.112,-75.322,27263.248428
1 Jan 2020 10:54:37.000,30.041,-75.271,27405.717464
1 Jan 2020 10:55:07.000,28.984,-75.225,27549.165061
1 Jan 2020 10:55:37.000,27.940,-75.186,27693.493586
1 Jan 2020 10:56:07.000,26.907,-75.152,27838.606667
1 Jan 2020 10:56:37.000,25.885,-75.125,27984.409234
1 Jan 2020 10:57:07.000,24.874,-75.103,28130.807557
1 Jan 2020 10:57:37.000,23.871,-75.088,28277.709278
1 Jan 2020 10:58:07.000,22.877,-75.078,28425.023436
1 Jan 2020 10:58:37.000,21.890,-75.074,28572.660494
1 Jan 2020 10:58:42.735,21.702,-75.074,28600.915397
1 Jan 2020 12:17:56.963,156.144,-75.065,28595.302267
1 Jan 2020 12:18:26.000,155.212,-75.068,28450.246688
1 Jan 2020 12:18:56.000,154.242,-75.077,28300.632835
1 Jan 2020 12:19:26.000,153.264,-75.092,28151.366177
1 Jan 2020 12:19:56.000,152.278,-75.113,28002.539266
1 Jan 2020 12:20:26.000,151.282,-75.140,27854.246180
1 Jan 2020 12:20:56.000,150.276,-75.173,27706.582497
1 Jan 2020 12:21:26.000,149.258,-75.213,27559.645264
1 Jan 2020 12:21:56.000,148.229,-75.258,27413.532967
1 Jan 2020 12:22:26.000,147.186,-75.311,27268.345490
1 Jan 2020 12:22:56.000,146.129,-75.369,27124.184068
1 Jan 2020 12:23:26.000,145.058,-75.433,26981.151244
1 Jan 2020 12:23:56.000,143.970,-75.504,26839.350804
1 Jan 2020 12:24:26.000,142.865,-75.581,26698.887721
1 Jan 2020 12:24:56.000,141.741,-75.664,26559.868081
1 Jan 2020 12:25:26.000,140.598,-75.753,26422.399007
1 Jan 2020 12:25:56.000,139.433,-75.849,26286.588578
1 Jan 2020 12:26:26.000,138.246,-75.950,26152.545731
1 Jan 2020 12:26:56.000,137.035,-76.056,26020.380168
1 Jan 2020 12:27:26.000,135.799,-76.169,25890.202241
1 Jan 2020 12:27:56.000,134.535,-76.286,25762.122842
1 Jan 2020 12:28:26.000,133.243,-76.409,25636.253030
1 Jan 2020 12:28:56.000,131.921,-76.538,25512.704872
1 Jan 2020 12:29:26.000,130.566,-76.670,25391.589836
1 Jan 2020 12:29:56.000,129.177,-76.808,25273.019619
1 Jan 2020 12:30:26.000,127.751,-76.949,25157.105742
1 Jan 2020 12:30:56.000,126.288,-77.095,25043.959375
1 Jan 2020 12:31:26.000,124.784,-77.243,24933.691169
1 Jan 2020 12:31:56.000,123.238,-77.395,24826.411060
1 Jan 2020 12:32:26.000,121.647,-77.550,24722.228079
1 Jan 2020 12:32:56.000,120.009,-77.707,24621.250152
1 Jan 2020 12:33:26.000,118.322,-77.865,24523.583699
1 Jan 2020 12:33:56.000,116.583,-78.025,24429.334176
1 Jan 2020 12:34:26.000,114.791,-78.185,24338.604712
1 Jan 2020 12:34:56.000,112.942,-78.345,24251.496644
1 Jan 2020 12:35:26.000,111.036,-78.504,24168.109099
1 Jan 2020 12:35:56.000,109.070,-78.661,24088.538757
1 Jan 2020 12:36:26.000,107.042,-78.816,24012.879612
1 Jan 2020 12:36:56.000,104.951,-78.969,23941.222735
1 Jan 2020 12:37:26.000,102.796,-79.117,23873.655912
1 Jan 2020 12:37:56.000,100.576,-79.260,23810.263911
1 Jan 2020 12:38:26.000,98.291,-79.398,23751.127478
1 Jan 2020 12:38:56.000,95.941,-79.530,23696.323627
1 Jan 2020 12:39:26.000,93.527,-79.654,23645.925283
1 Jan 2020 12:39:56.000,91.050,-79.770,23600.001065
1 Jan 2020 12:40:26.000,88.515,-79.877,23558.615072
1 Jan 2020 12:40:56.000,85.922,-79.974,23521.826629
1 Jan 2020 12:41:26.000,83.278,-80.060,23489.690337
1 Jan 2020 12:41:56.000,80.586,-80.135,23462.255521
1 Jan 2020 12:42:26.000,77.853,-80.197,23439.566322
1 Jan 2020 12:42:56.000,75.085,-80.247,23421.661491
1 Jan 2020 12:43:26.000,72.291,-80.284,23408.574248
1 Jan 2020 12:43:56.000,69.477,-80.308,23400.332174
1 Jan 2020 12:44:26.000,66.652,-80.317,23396.957122
1 Jan 2020 12:44:56.000,63.826,-80.313,23398.465102
1 Jan 2020 12:45:26.000,61.006,-80.295,23404.866268
1 Jan 2020 12:45:56.000,58.202,-80.263,23416.164854
1 Jan 2020 12:46:26.000,55.421,-80.218,23432.359166
1 Jan 2020 12:46:56.000,52.672,-80.160,23453.441579
1 Jan 2020 12:47:26.000,49.962,-80.089,23479.398559
1 Jan 2020 12:47:56.000,47.298,-80.006,23510.210792
1 Jan 2020 12:48:26.000,44.686,-79.911,23545.852911
1 Jan 2020 12:48:56.000,42.129,-79.806,23586.294060
1 Jan 2020 12:49:26.000,39.633,-79.691,23631.497685
1 Jan 2020 12:49:56.000,37.201,-79.568,23681.421718
1 Jan 2020 12:50:26.000,34.834,-79.436,23736.018715
1 Jan 2020 12:50:56.000,32.535,-79.297,23795.236000
1 Jan 2020 12:51:26.000,30.304,-79.151,23859.015980
1 Jan 2020 12:51:56.000,28.141,-79.000,23927.295728
1 Jan 2020 12:52:26.000,26.047,-78.845,24000.008038
1 Jan 2020 12:52:56.000,24.020,-78.686,24077.081055
1 Jan 2020 12:53:26.000,22.060,-78.524,24158.438615
1 Jan 2020 12:53:56.000,20.164,-78.361,24244.000463
1 Jan 2020 12:54:26.000,18.331,-78.196,24333.682465
1 Jan 2020 12:54:56.000,16.559,-78.030,24427.396839
1 Jan 2020 12:55:26.000,14.847,-77.865,24525.052589
1 Jan 2020 12:55:56.000,13.191,-77.701,24626.554883
1 Jan 2020 12:56:26.000,11.589,-77.538,24731.806550
1 Jan 2020 12:56:56.000,10.040,-77.377,24840.707471
1 Jan 2020 12:57:26.000,8.541,-77.219,24953.155012
1 Jan 2020 12:57:56.000,7.090,-77.064,25069.044247
1 Jan 2020 12:58:26.000,5.685,-76.913,25188.268182
1 Jan 2020 12:58:56.000,4.322,-76.766,25310.717967
1 Jan 2020 12:59:26.000,3.002,-76.623,25436.283107
1 Jan 2020 12:59:56.000,1.720,-76.485,25564.851670
1 Jan 2020 13:00:26.000,0.476,-76.353,25696.310750
1 Jan 2020 13:00:56.000,359.267,-76.225,25830.545594
1 Jan 2020 13:01:26.000,358.093,-76.104,25967.441377
1 Jan 2020 13:01:56.000,356.950,-75.988,26106.882323
1 Jan 2020 13:02:26.000,355.837,-75.879,26248.752138
1 Jan 2020 13:02:56.000,354.754,-75.776,26392.934167
1 Jan 2020 13:03:26.000,353.697,-75.680,26539.311549
1 Jan 2020 13:03:56.000,352.667,-75.591,26687.767362
1 Jan 2020 13:04:26.000,351.661,-75.508,26838.184755
1 Jan 2020 13:04:56.000,350.678,-75.432,26990.447083
1 Jan 2020 13:05:26.000,349.717,-75.364,27144.438020
1 Jan 2020 13:05:56.000,348.778,-75.302,27300.041674
1 Jan 2020 13:06:26.000,347.857,-75.248,27457.142694
1 Jan 2020 13:06:56.000,346.956,-75.200,27615.626363
1 Jan 2020 13:07:26.000,346.072,-75.160,27775.378689
1 Jan 2020 13:07:56.000,345.205,-75.128,27936.286489
1 Jan 2020 13:08:26.000,344.353,-75.102,28098.237467
1 Jan 2020 13:08:56.000,343.517,-75.084,28261.120277
1 Jan 2020 13:09:26.000,342.694,-75.073,28424.824596
1 Jan 2020 13:09:56.000,341.885,-75.069,28589.241173
1 Jan 2020 13:09:56.860,341.861,-75.069,28593.962322
1 Jan 2020 14:23:51.314,141.972,-75.068,28593.155551
1 Jan 2020 14:24:21.000,141.697,-75.072,28404.599916
1 Jan 2020 14:24:51.000,141.423,-75.087,28214.052393
1 Jan 2020 14:25:21.000,141.151,-75.112,28023.632580
1 Jan 2020 14:25:51.000,140.881,-75.146,27833.471003
1 Jan 2020 14:26:21.000,140.613,-75.191,27643.700886
1 Jan 2020 14:26:51.000,140.348,-75.247,27454.458147
1 Jan 2020 14:27:21.000,140.083,-75.313,27265.881370
1 Jan 2020 14:27:51.000,139.820,-75.390,27078.111787
1 Jan 2020 14:28:21.000,139.557,-75.479,26891.293235
1 Jan 2020 14:28:51.000,139.295,-75.579,26705.572112
1 Jan 2020 14:29:21.000,139.033,-75.690,26521.097323
1 Jan 2020 14:29:51.000,138.770,-75.813,26338.020212
1 Jan 2020 14:30:21.000,138.507,-75.947,26156.494479
1 Jan 2020 14:30:51.000,138.242,-76.094,25976.676091
1 Jan 2020 14:31:21.000,137.975,-76.253,25798.723175
1 Jan 2020 14:31:51.000,137.706,-76.424,25622.795894
1 Jan 2020 14:32:21.000,137.434,-76.607,25449.056308
1 Jan 2020 14:32:51.000,137.158,-76.802,25277.668221
1 Jan 2020 14:33:21.000,136.878,-77.010,25108.797009
1 Jan 2020 14:33:51.000,136.593,-77.231,24942.609098
1 Jan 2020 14:34:21.000,136.302,-77.464,24779.273065
1 Jan 2020 14:34:51.000,136.003,-77.710,24618.957432
1 Jan 2020 14:35:21.000,135.696,-77.968,24461.831738
1 Jan 2020 14:35:51.000,135.380,-78.239,24308.065928
1 Jan 2020 14:36:21.000,135.052,-78.523,24157.830062
1 Jan 2020 14:36:51.000,134.712,-78.818,24011.293995
1 Jan 2020 14:37:21.000,134.357,-79.126,23868.627037
1 Jan 2020 14:37:51.000,133.985,-79.447,23729.997338
1 Jan 2020 14:38:21.000,133.594,-79.779,23595.572548
1 Jan 2020 14:38:51.000,133.180,-80.123,23465.517834
1 Jan 2020 14:39:21.000,132.739,-80.479,23339.996526
1 Jan 2020 14:39:51.000,132.268,-80.845,23219.169405
1 Jan 2020 14:40:21.000,131.760,-81.223,23103.194252
1 Jan 2020 14:40:51.000,131.210,-81.611,22992.225380
1 Jan 2020 14:41:21.000,130.610,-82.009,22886.412930
1 Jan 2020 14:41:51.000,129.949,-82.417,22785.903285
1 Jan 2020 14:42:21.000,129.215,-82.834,22690.837206
1 Jan 2020 14:42:51.000,128.392,-83.260,22601.350256
1 Jan 2020 14:43:21.000,127.460,-83.693,22517.572075
1 Jan 2020 14:43:51.000,126.392,-84.133,22439.625883
1 Jan 2020 14:44:21.000,125.151,-84.578,22367.627856
1 Jan 2020 14:44:51.000,123.688,-85.029,22301.687253
1 Jan 2020 14:45:21.000,121.933,-85.482,22241.905047
1 Jan 2020 14:45:51.000,119.785,-85.937,22188.374114
1 Jan 2020 14:46:21.000,117.096,-86.391,22141.178679
1 Jan 2020 14:46:51.000,113.635,-86.840,22100.393862
1 Jan 2020 14:47:21.000,109.042,-87.278,22066.085636
1 Jan 2020 14:47:51.000,102.732,-87.696,22038.310063
1 Jan 2020 14:48:21.000,93.776,-88.077,22017.113349
1 Jan 2020 14:48:51.000,80.879,-88.391,22002.531545
1 Jan 2020 14:49:21.000,63.106,-88.593,21994.590371
1 Jan 2020 14:49:51.000,42.132,-88.628,21993.305127
1 Jan 2020 14:50:21.000,22.713,-88.485,21998.680545
1 Jan 2020 14:50:51.000,7.983,-88.207,22010.710830
1 Jan 2020 14:51:21.000,357.691,-87.847,22029.379671
1 Jan 2020 14:51:51.000,350.516,-87.440,22054.660381
1 Jan 2020 14:52:21.000,345.372,-87.008,22086.515791
1 Jan 2020 14:52:51.000,341.559,-86.562,22124.898760
1 Jan 2020 14:53:21.000,338.640,-86.108,22169.752187
1 Jan 2020 14:53:51.000,336.345,-85.652,22221.009333
1 Jan 2020 14:54:21.000,334.498,-85.197,22278.594241
1 Jan 2020 14:54:51.000,332.982,-84.744,22342.421614
1 Jan 2020 14:55:21.000,331.718,-84.295,22412.397879
1 Jan 2020 14:55:51.000,330.649,-83.851,22488.421146
1 Jan 2020 14:56:21.000,329.734,-83.414,22570.381752
1 Jan 2020 14:56:51.000,328.943,-82.984,22658.162709
1 Jan 2020 14:57:21.000,328.253,-82.562,22751.640382
1 Jan 2020 14:57:51.000,327.647,-82.150,22850.684155
1 Jan 2020 14:58:21.000,327.111,-81.746,22955.158127
1 Jan 2020 14:58:51.000,326.634,-81.352,23064.920811
1 Jan 2020 14:59:21.000,326.209,-80.969,23179.825829
1 Jan 2020 14:59:51.000,325.827,-80.596,23299.722397
1 Jan 2020 15:00:21.000,325.484,-80.235,23424.455814
1 Jan 2020 15:00:51.000,325.174,-79.885,23553.868213
1 Jan 2020 15:01:21.000,324.895,-79.547,23687.797929
1 Jan 2020 15:01:51.000,324.641,-79.221,23826.081578
1 Jan 2020 15:02:21.000,324.411,-78.907,23968.553413
1 Jan 2020 15:02:51.000,324.203,-78.605,24115.046008
1 Jan 2020 15:03:21.000,324.013,-78.316,24265.390654
1 Jan 2020 15:03:51.000,323.842,-78.040,24419.417735
1 Jan 2020 15:04:21.000,323.686,-77.776,24576.957083
1 Jan 2020 15:04:51.000,323.546,-77.524,24737.838315
1 Jan 2020 15:05:21.000,323.419,-77.286,24901.891458
1 Jan 2020 15:05:51.000,323.305,-77.060,25068.945984
1 Jan 2020 15:06:21.000,323.203,-76.847,25238.832958
1 Jan 2020 15:06:51.000,323.112,-76.647,25411.384038
1 Jan 2020 15:07:21.000,323.031,-76.459,25586.432018
1 Jan 2020 15:07:51.000,322.961,-76.284,25763.811029
1 Jan 2020 15:08:21.000,322.900,-76.121,25943.356733
1 Jan 2020 15:08:51.000,322.848,-75.970,26124.906492
1 Jan 2020 15:09:21.000,322.804,-75.832,26308.299519
1 Jan 2020 15:09:51.000,322.769,-75.706,26493.377014
1 Jan 2020 15:10:21.000,322.741,-75.591,26679.982285
1 Jan 2020 15:10:51.000,322.721,-75.489,26867.960856
1 Jan 2020 15:11:21.000,322.709,-75.398,27057.160552
1 Jan 2020 15:11:51.000,322.704,-75.318,27247.431582
1 Jan 2020 15:12:21.000,322.705,-75.250,27438.626604
1 Jan 2020 15:12:51.000,322.714,-75.193,27630.600781
1 Jan 2020 15:13:21.000,322.729,-75.146,27823.211827
1 Jan 2020 15:13:51.000,322.751,-75.111,28016.320038
1 Jan 2020 15:14:21.000,322.779,-75.085,28209.788327
1 Jan 2020 15:14:51.000,322.814,-75.070,28403.482237
1 Jan 2020 15:15:20.488,322.854,-75.065,28593.961648
1 Jan 2020 16:28:11.903,154.493,-75.072,28598.169825
1 Jan 2020 16:28:41.000,155.106,-75.076,28426.935909
1 Jan 2020 16:29:11.000,155.751,-75.089,28250.963738
1 Jan 2020 16:29:41.000,156.410,-75.109,28075.698414
1 Jan 2020 16:30:11.000,157.083,-75.138,27901.262040
1 Jan 2020 16:30:41.000,157.772,-75.176,27727.778192
1 Jan 2020 16:31:11.000,158.478,-75.222,27555.371858
1 Jan 2020 16:31:41.000,159.201,-75.276,27384.169371
1 Jan 2020 16:32:11.000,159.943,-75.340,27214.298334
1 Jan 2020 16:32:41.000,160.704,-75.411,27045.887533
1 Jan 2020 16:33:11.000,161.486,-75.492,26879.066850
1 Jan 2020 16:33:41.000,162.290,-75.581,26713.967156
1 Jan 2020 16:34:11.000,163.118,-75.678,26550.720203
1 Jan 2020 16:34:41.000,163.971,-75.784,26389.458504
1 Jan 2020 16:35:11.000,164.850,-75.899,26230.315197
1 Jan 2020 16:35:41.000,165.757,-76.021,26073.423908
1 Jan 2020 16:36:11.000,166.694,-76.152,25918.918596
1 Jan 2020 16:36:41.000,167.663,-76.291,25766.933089
1 Jan 2020 16:37:11.000,168.666,-76.438,25617.602113
1 Jan 2020 16:37:41.000,169.705,-76.592,25471.059291
1 Jan 2020 16:38:11.000,170.782,-76.753,25327.438159
1 Jan 2020 16:38:41.000,171.899,-76.922,25186.871651
1 Jan 2020 16:39:11.000,173.060,-77.097,25049.491880
1 Jan 2020 16:39:41.000,174.268,-77.279,24915.429900
1 Jan 2020 16:40:11.000,175.524,-77.467,24784.815470
1 Jan 2020 16:40:41.000,176.833,-77.660,24657.776795
1 Jan 2020 16:41:11.000,178.198,-77.858,24534.440007
1 Jan 2020 16:41:41.000,179.622,-78.060,24414.929942
1 Jan 2020 16:42:11.000,181.109,-78.267,24299.368271
1 Jan 2020 16:42:41.000,182.664,-78.477,24187.874286
1 Jan 2020 16:43:11.000,184.290,-78.689,24080.564331
1 Jan 2020 16:43:41.000,185.992,-78.902,23977.551514
1 Jan 2020 16:44:11.000,187.774,-79.117,23878.945402
1 Jan 2020 16:44:41.000,189.640,-79.331,23784.851525
1 Jan 2020 16:45:11.000,191.596,-79.544,23695.371877
1 Jan 2020 16:45:41.000,193.646,-79.755,23610.603402
1 Jan 2020 16:46:11.000,195.793,-79.963,23530.638522
1 Jan 2020 16:46:41.000,198.041,-80.166,23455.564639
1 Jan 2020 16:47:11.000,200.394,-80.363,23385.463861
1 Jan 2020 16:47:41.000,202.855,-80.553,23320.412591
1 Jan 2020 16:48:11.000,205.425,-80.734,23260.481828
1 Jan 2020 16:48:41.000,208.103,-80.905,23205.736081
1 Jan 2020 16:49:11.000,210.891,-81.064,23156.233715
1 Jan 2020 16:49:41.000,213.783,-81.211,23112.026600
1 Jan 2020 16:50:11.000,216.776,-81.343,23073.159921
1 Jan 2020 16:50:41.000,219.863,-81.460,23039.671939
1 Jan 2020 16:51:11.000,223.035,-81.560,23011.594174
1 Jan 2020 16:51:41.000,226.281,-81.642,22988.950785
1 Jan 2020 16:52:11.000,229.586,-81.704,22971.758823
1 Jan 2020 16:52:41.000,232.937,-81.748,22960.028087
1 Jan 2020 16:53:11.000,236.316,-81.771,22953.761081
1 Jan 2020 16:53:41.000,239.706,-81.774,22952.952998
1 Jan 2020 16:54:11.000,243.090,-81.756,22957.591798
1 Jan 2020 16:54:41.000,246.449,-81.719,22967.658154
1 Jan 2020 16:55:11.000,249.768,-81.662,22983.125610
1 Jan 2020 16:55:41.000,253.031,-81.586,23003.960658
1 Jan 2020 16:56:11.000,256.224,-81.492,23030.122870
1 Jan 2020 16:56:41.000,259.338,-81.382,23061.565109
1 Jan 2020 16:57:11.000,262.361,-81.256,23098.233494
1 Jan 2020 16:57:41.000,265.288,-81.115,23140.067901
1 Jan 2020 16:58:11.000,268.114,-80.962,23187.001995
1 Jan 2020 16:58:41.000,270.836,-80.798,23238.963513
1 Jan 2020 16:59:11.000,273.452,-80.623,23295.874517
1 Jan 2020 16:59:41.000,275.965,-80.440,23357.651669
1 Jan 2020 17:00:11.000,278.373,-80.250,23424.206645
1 Jan 2020 17:00:41.000,280.682,-80.054,23495.445893
1 Jan 2020 17:01:11.000,282.893,-79.853,23571.271721
1 Jan 2020 17:01:41.000,285.011,-79.649,23651.582090
1 Jan 2020 17:02:11.000,287.039,-79.442,23736.271046
1 Jan 2020 17:02:41.000,288.982,-79.235,23825.229038
1 Jan 2020 17:03:11.000,290.846,-79.026,23918.343224
1 Jan 2020 17:03:41.000,292.633,-78.819,24015.497785
1 Jan 2020 17:04:11.000,294.349,-78.613,24116.574433
1 Jan 2020 17:04:41.000,295.997,-78.408,24221.451911
1 Jan 2020 17:05:11.000,297.583,-78.207,24330.007478
1 Jan 2020 17:05:41.000,299.110,-78.009,24442.116415
1 Jan 2020 17:06:11.000,300.582,-77.816,24557.652496
1 Jan 2020 17:06:41.000,302.003,-77.626,24676.488258
1 Jan 2020 17:07:11.000,303.376,-77.442,24798.495260
1 Jan 2020 17:07:41.000,304.704,-77.263,24923.544336
1 Jan 2020 17:08:11.000,305.990,-77.090,25051.505824
1 Jan 2020 17:08:41.000,307.238,-76.923,25182.249802
1 Jan 2020 17:09:11.000,308.449,-76.762,25315.646290
1 Jan 2020 17:09:41.000,309.627,-76.608,25451.565725
1 Jan 2020 17:10:11.000,310.774,-76.461,25589.878090
1 Jan 2020 17:10:41.000,311.892,-76.321,25730.454664
1 Jan 2020 17:11:11.000,312.982,-76.188,25873.167147
1 Jan 2020 17:11:41.000,314.048,-76.062,26017.888066
1 Jan 2020 17:12:11.000,315.090,-75.944,26164.490919
1 Jan 2020 17:12:41.000,316.111,-75.833,26312.850305
1 Jan 2020 17:13:11.000,317.112,-75.730,26462.842039
1 Jan 2020 17:13:41.000,318.094,-75.634,26614.343262
1 Jan 2020 17:14:11.000,319.060,-75.546,26767.232538
1 Jan 2020 17:14:41.000,320.009,-75.465,26921.389942
1 Jan 2020 17:15:11.000,320.944,-75.392,27076.697136
1 Jan 2020 17:15:41.000,321.866,-75.326,27233.037444
1 Jan 2020 17:16:11.000,322.776,-75.268,27390.295908
1 Jan 2020 17:16:41.000,323.674,-75.218,27548.359346
1 Jan 2020 17:17:11.000,324.563,-75.175,27707.116395
1 Jan 2020 17:17:41.000,325.442,-75.139,27866.457553
1 Jan 2020 17:18:11.000,326.313,-75.110,28026.275211
1 Jan 2020 17:18:41.000,327.176,-75.089,28186.463679
1 Jan 2020 17:19:11.000,328.033,-75.074,28346.919211
1 Jan 2020 17:19:41.000,328.884,-75.067,28507.540021
1 Jan 2020 17:19:58.344,329.374,-75.066,28600.437546
1 Jan 2020 18:38:30.075,192.080,-75.076,28606.602777
1 Jan 2020 18:39:00.000,193.108,-75.078,28464.236279
1 Jan 2020 18:39:30.000,194.147,-75.086,28322.006283
1 Jan 2020 18:40:00.000,195.197,-75.100,28180.354563
1 Jan 2020 18:40:30.000,196.256,-75.119,28039.367222
1 Jan 2020 18:41:00.000,197.328,-75.143,27899.131361
1 Jan 2020 18:41:30.000,198.411,-75.173,27759.735050
1 Jan 2020 18:42:00.000,199.507,-75.208,27621.267285
1 Jan 2020 18:42:30.000,200.617,-75.248,27483.817949
1 Jan 2020 18:43:00.000,201.741,-75.294,27347.477763
1 Jan 2020 18:43:30.000,202.881,-75.346,27212.338237
1 Jan 2020 18:44:00.000,204.037,-75.402,27078.491612
1 Jan 2020 18:44:30.000,205.211,-75.464,26946.030802
1 Jan 2020 18:45:00.000,206.403,-75.531,26815.049326
1 Jan 2020 18:45:30.000,207.614,-75.603,26685.641238
1 Jan 2020 18:46:00.000,208.845,-75.680,26557.901047
1 Jan 2020 18:46:30.000,210.098,-75.762,26431.923642
1 Jan 2020 18:47:00.000,211.374,-75.849,26307.804196
1 Jan 2020 18:47:30.000,212.673,-75.940,26185.638077
1 Jan 2020 18:48:00.000,213.998,-76.035,26065.520747
1 Jan 2020 18:48:30.000,215.348,-76.135,25947.547420
1 Jan 2020 18:49:00.000,216.726,-76.238,25831.813899
1 Jan 2020 18:49:30.000,218.133,-76.345,25718.415028
1 Jan 2020 18:50:00.000,219.569,-76.456,25607.445529
1 Jan 2020 18:50:30.000,221.038,-76.570,25498.999627
1 Jan 2020 18:51:00.000,222.538,-76.687,25393.170920
1 Jan 2020 18:51:30.000,224.073,-76.806,25290.052236
1 Jan 2020 18:52:00.000,225.644,-76.927,25189.735487
1 Jan 2020 18:52:30.000,227.251,-77.051,25092.311518
1 Jan 2020 18:53:00.000,228.897,-77.175,24997.869955
1 Jan 2020 18:53:30.000,230.581,-77.301,24906.499041
1 Jan 2020 18:54:00.000,232.307,-77.427,24818.285288
1 Jan 2020 18:54:30.000,234.074,-77.554,24733.314068
1 Jan 2020 18:55:00.000,235.884,-77.680,24651.668295
1 Jan 2020 18:55:30.000,237.738,-77.805,24573.429029
1 Jan 2020 18:56:00.000,239.637,-77.928,24498.675103
1 Jan 2020 18:56:30.000,241.581,-78.050,24427.482959
1 Jan 2020 18:57:00.000,243.570,-78.169,24359.926465
1 Jan 2020 18:57:30.000,245.605,-78.284,24296.076751
1 Jan 2020 18:58:00.000,247.686,-78.396,24236.002034
1 Jan 2020 18:58:30.000,249.812,-78.504,24179.767338
1 Jan 2020 18:59:00.000,251.982,-78.607,24127.434803
1 Jan 2020 18:59:30.000,254.196,-78.704,24079.062798
1 Jan 2020 19:00:00.000,256.452,-78.795,24034.706265
1 Jan 2020 19:00:30.000,258.748,-78.879,23994.416441
1 Jan 2020 19:01:00.000,261.081,-78.956,23958.240723
1 Jan 2020 19:01:30.000,263.449,-79.025,23926.222531
1 Jan 2020 19:02:00.000,265.848,-79.086,23898.401190
1 Jan 2020 19:02:30.000,268.276,-79.139,23874.811772
1 Jan 2020 19:03:00.000,270.728,-79.182,23855.485170
1 Jan 2020 19:03:30.000,273.199,-79.216,23840.447731
1 Jan 2020 19:04:00.000,275.685,-79.240,23829.721369
1 Jan 2020 19:04:30.000,278.181,-79.255,23823.323449
1 Jan 2020 19:05:00.000,280.682,-79.260,23821.266732
1 Jan 2020 19:05:30.000,283.184,-79.254,23823.559336
1 Jan 2020 19:06:00.000,285.680,-79.239,23830.204732
1 Jan 2020 19:06:30.000,288.166,-79.214,23841.201643
1 Jan 2020 19:07:00.000,290.636,-79.179,23856.544167
1 Jan 2020 19:07:30.000,293.087,-79.135,23876.221715
1 Jan 2020 19:08:00.000,295.514,-79.081,23900.219061
1 Jan 2020 19:08:30.000,297.912,-79.019,23928.516379
1 Jan 2020 19:09:00.000,300.278,-78.948,23961.089301
1 Jan 2020 19:09:30.000,302.608,-78.870,23997.908983
1 Jan 2020 19:10:00.000,304.900,-78.784,24038.942290
1 Jan 2020 19:10:30.000,307.152,-78.691,24084.151481
1 Jan 2020 19:11:00.000,309.360,-78.593,24133.494904
1 Jan 2020 19:11:30.000,311.524,-78.488,24186.926726
1 Jan 2020 19:12:00.000,313.642,-78.378,24244.397146
1 Jan 2020 19:12:30.000,315.713,-78.264,24305.852528
1 Jan 2020 19:13:00.000,317.737,-78.146,24371.235537
1 Jan 2020 19:13:30.000,319.714,-78.024,24440.485287
1 Jan 2020 19:14:00.000,321.644,-77.900,24513.537650
1 Jan 2020 19:14:30.000,323.526,-77.774,24590.324784
1 Jan 2020 19:15:00.000,325.363,-77.646,24670.776225
1 Jan 2020 19:15:30.000,327.153,-77.518,24754.818439
1 Jan 2020 19:16:00.000,328.899,-77.389,24842.375137
1 Jan 2020 19:16:30.000,330.602,-77.260,24933.367445
1 Jan 2020 19:17:00.000,332.261,-77.132,25027.714073
1 Jan 2020 19:17:30.000,333.880,-77.004,25125.331479
1 Jan 2020 19:18:00.000,335.458,-76.879,25226.134045
1 Jan 2020 19:18:30.000,336.997,-76.755,25330.034234
1 Jan 2020 19:19:00.000,338.499,-76.634,25436.942988
1 Jan 2020 19:19:30.000,339.965,-76.515,25546.768982
1 Jan 2020 19:20:00.000,341.396,-76.399,25659.420132
1 Jan 2020 19:20:30.000,342.794,-76.287,25774.802857
1 Jan 2020 19:21:00.000,344.160,-76.178,25892.822446
1 Jan 2020 19:21:30.000,345.495,-76.074,26013.383212
1 Jan 2020 19:22:00.000,346.801,-75.973,26136.388626
1 Jan 2020 19:22:30.000,348.078,-75.878,26261.741460
1 Jan 2020 19:23:00.000,349.329,-75.786,26389.343908
1 Jan 2020 19:23:30.000,350.554,-75.700,26519.097723
1 Jan 2020 19:24:00.000,351.755,-75.619,26650.904326
1 Jan 2020 19:24:30.000,352.932,-75.543,26784.664930
1 Jan 2020 19:25:00.000,354.087,-75.472,26920.280640
1 Jan 2020 19:25:30.000,355.220,-75.407,27057.652561
1 Jan 2020 19:26:00.000,356.334,-75.347,27196.681895
1 Jan 2020 19:26:30.000,357.428,-75.293,27337.270031
1 Jan 2020 19:27:00.000,358.504,-75.245,27479.318630
1 Jan 2020 19:27:30.000,359.563,-75.202,27622.729998
1 Jan 2020 19:28:00.000,0.606,-75.165,27767.406009
1 Jan 2020 19:28:30.000,1.632,-75.135,27913.249896
1 Jan 2020 19:29:00.000,2.645,-75.110,28060.165175
1 Jan 2020 19:29:30.000,3.643,-75.091,28208.055986
1 Jan 2020 19:30:00.000,4.628,-75.078,28356.827156
1 Jan 2020 19:30:30.000,5.601,-75.071,28506.384243
1 Jan 2020 19:30:50.391,6.256,-75.070,28608.440017
1 Jan 2020 20:46:38.394,216.890,-75.074,28611.010879
1 Jan 2020 20:47:08.000,217.436,-75.078,28432.986510
1 Jan 2020 20:47:38.000,217.991,-75.091,28252.569399
1 Jan 2020 20:48:08.000,218.548,-75.112,28072.245662
1 Jan 2020 20:48:38.000,219.107,-75.143,27892.135915
1 Jan 2020 20:49:08.000,219.669,-75.183,27712.363288
1 Jan 2020 20:49:38.000,220.235,-75.233,27533.053410
1 Jan 2020 20:50:08.000,220.805,-75.292,27354.334396
1 Jan 2020 20:50:38.000,221.381,-75.360,27176.336819
1 Jan 2020 20:51:08.000,221.963,-75.439,26999.193676
1 Jan 2020 20:51:38.000,222.552,-75.527,26823.040354
1 Jan 2020 20:52:08.000,223.149,-75.626,26648.014572
1 Jan 2020 20:52:38.000,223.755,-75.735,26474.256326
1 Jan 2020 20:53:08.000,224.372,-75.854,26301.907818
1 Jan 2020 20:53:38.000,224.999,-75.983,26131.113374
1 Jan 2020 20:54:08.000,225.640,-76.123,25962.019351
1 Jan 2020 20:54:38.000,226.294,-76.274,25794.774026
1 Jan 2020 20:55:08.000,226.964,-76.435,25629.527484
1 Jan 2020 20:55:38.000,227.652,-76.607,25466.431472
1 Jan 2020 20:56:08.000,228.358,-76.790,25305.639258
1 Jan 2020 20:56:38.000,229.086,-76.983,25147.305458
1 Jan 2020 20:57:08.000,229.837,-77.187,24991.585552
1 Jan 2020 20:57:38.000,230.614,-77.401,24838.636906
1 Jan 2020 20:58:08.000,231.420,-77.626,24688.616710
1 Jan 2020 20:58:38.000,232.258,-77.861,24541.682972
1 Jan 2020 20:59:08.000,233.130,-78.106,24397.993961
1 Jan 2020 20:59:38.000,234.042,-78.361,24257.707926
1 Jan 2020 21:00:08.000,234.997,-78.625,24120.982805
1 Jan 2020 21:00:38.000,236.001,-78.899,23987.975917
1 Jan 2020 21:01:08.000,237.058,-79.182,23858.843628
1 Jan 2020 21:01:38.000,238.175,-79.473,23733.740754
1 Jan 2020 21:02:08.000,239.359,-79.772,23612.821222
1 Jan 2020 21:02:38.000,240.619,-80.078,23496.236133
1 Jan 2020 21:03:08.000,241.963,-80.391,23384.134418
1 Jan 2020 21:03:38.000,243.402,-80.710,23276.662167
1 Jan 2020 21:04:08.000,244.949,-81.034,23173.962204
1 Jan 2020 21:04:38.000,246.617,-81.362,23076.173669
1 Jan 2020 21:05:08.000,248.422,-81.693,22983.431392
1 Jan 2020 21:05:38.000,250.382,-82.026,22895.866210
1 Jan 2020 21:06:08.000,252.518,-82.358,22813.603378
1 Jan 2020 21:06:38.000,254.855,-82.688,22736.762913
1 Jan 2020 21:07:08.000,257.418,-83.014,22665.458958
1 Jan 2020 21:07:38.000,260.236,-83.333,22599.799360
1 Jan 2020 21:08:08.000,263.342,-83.644,22539.885145
1 Jan 2020 21:08:38.000,266.767,-83.941,22485.810580
1 Jan 2020 21:09:08.000,270.545,-84.222,22437.662089
1 Jan 2020 21:09:38.000,274.703,-84.483,22395.518374
1 Jan 2020 21:10:08.000,279.261,-84.718,22359.449970
1 Jan 2020 21:10:38.000,284.223,-84.923,22329.518896
1 Jan 2020 21:11:08.000,289.574,-85.093,22305.778566
1 Jan 2020 21:11:38.000,295.268,-85.223,22288.273267
1 Jan 2020 21:12:08.000,301.228,-85.308,22277.038171
1 Jan 2020 21:12:38.000,307.351,-85.346,22272.099116
1 Jan 2020 21:13:08.000,313.511,-85.336,22273.472514
1 Jan 2020 21:13:38.000,319.579,-85.277,22281.165214
1 Jan 2020 21:14:08.000,325.436,-85.171,22295.174545
1 Jan 2020 21:14:38.000,330.987,-85.023,22315.488291
1 Jan 2020 21:15:08.000,336.169,-84.836,22342.084754
1 Jan 2020 21:15:38.000,340.949,-84.616,22374.932934
1 Jan 2020 21:16:08.000,345.319,-84.367,22413.992359
1 Jan 2020 21:16:38.000,349.291,-84.095,22459.213710
1 Jan 2020 21:17:08.000,352.887,-83.803,22510.538752
1 Jan 2020 21:17:38.000,356.139,-83.497,22567.900657
1 Jan 2020 21:18:08.000,359.079,-83.179,22631.224291
1 Jan 2020 21:18:38.000,1.739,-82.852,22700.426695
1 Jan 2020 21:19:08.000,4.150,-82.520,22775.416763
1 Jan 2020 21:19:38.000,6.340,-82.184,22856.096588
1 Jan 2020 21:20:08.000,8.336,-81.847,22942.361202
1 Jan 2020 21:20:38.000,10.158,-81.511,23034.099137
1 Jan 2020 21:21:08.000,11.827,-81.176,23131.192837
1 Jan 2020 21:21:38.000,13.360,-80.845,23233.519294
1 Jan 2020 21:22:08.000,14.773,-80.518,23340.949630
1 Jan 2020 21:22:38.000,16.078,-80.196,23453.350784
1 Jan 2020 21:23:08.000,17.287,-79.881,23570.585112
1 Jan 2020 21:23:38.000,18.410,-79.573,23692.511021
1 Jan 2020 21:24:08.000,19.456,-79.273,23818.983391
1 Jan 2020 21:24:38.000,20.432,-78.981,23949.853986
1 Jan 2020 21:25:08.000,21.345,-78.698,24084.972121
1 Jan 2020 21:25:38.000,22.201,-78.425,24224.184001
1 Jan 2020 21:26:08.000,23.005,-78.161,24367.334666
1 Jan 2020 21:26:38.000,23.762,-77.907,24514.267315
1 Jan 2020 21:27:08.000,24.476,-77.664,24664.823906
1 Jan 2020 21:27:38.000,25.151,-77.431,24818.845490
1 Jan 2020 21:28:08.000,25.789,-77.209,24976.172518
1 Jan 2020 21:28:38.000,26.393,-76.997,25136.645134
1 Jan 2020 21:29:08.000,26.967,-76.797,25300.103455
1 Jan 2020 21:29:38.000,27.513,-76.608,25466.387821
1 Jan 2020 21:30:08.000,28.031,-76.430,25635.339039
1 Jan 2020 21:30:38.000,28.526,-76.264,25806.798945
1 Jan 2020 21:31:08.000,28.997,-76.108,25980.609243
1 Jan 2020 21:31:38.000,29.447,-75.964,26156.613732
1 Jan 2020 21:32:08.000,29.877,-75.831,26334.657121
1 Jan 2020 21:32:38.000,30.289,-75.709,26514.585522
1 Jan 2020 21:33:08.000,30.682,-75.598,26696.246590
1 Jan 2020 21:33:38.000,31.060,-75.498,26879.489649
1 Jan 2020 21:34:08.000,31.421,-75.409,27064.165803
1 Jan 2020 21:34:38.000,31.768,-75.331,27250.128036
1 Jan 2020 21:35:08.000,32.101,-75.264,27437.231301
1 Jan 2020 21:35:38.000,32.421,-75.207,27625.332593
1 Jan 2020 21:36:08.000,32.729,-75.160,27814.291016
1 Jan 2020 21:36:38.000,33.024,-75.124,28003.967843
1 Jan 2020 21:37:08.000,33.308,-75.097,28194.226555
1 Jan 2020 21:37:38.000,33.582,-75.081,28384.932888
1 Jan 2020 21:38:08.000,33.845,-75.075,28575.954860
1 Jan 2020 21:38:13.495,33.892,-75.075,28610.965350
1 Jan 2020 22:50:27.960,212.228,-75.070,28608.148549
1 Jan 2020 22:50:57.000,211.879,-75.074,28425.771329
1 Jan 2020 22:51:27.000,211.508,-75.088,28237.724432
1 Jan 2020 22:51:57.000,211.124,-75.111,28050.171787
1 Jan 2020 22:52:27.000,210.728,-75.145,27863.245207
1 Jan 2020 22:52:57.000,210.320,-75.188,27677.078591
1 Jan 2020 22:53:27.000,209.897,-75.241,27491.807873
1 Jan 2020 22:53:57.000,209.459,-75.304,27307.570974
1 Jan 2020 22:54:27.000,209.007,-75.377,27124.507744
1 Jan 2020 22:54:57.000,208.537,-75.461,26942.759887
1 Jan 2020 22:55:27.000,208.051,-75.555,26762.470886
1 Jan 2020 22:55:57.000,207.545,-75.659,26583.785910
1 Jan 2020 22:56:27.000,207.021,-75.774,26406.851714
1 Jan 2020 22:56:57.000,206.475,-75.900,26231.816522
1 Jan 2020 22:57:27.000,205.906,-76.036,26058.829905
1 Jan 2020 22:57:57.000,205.314,-76.183,25888.042634
1 Jan 2020 22:58:27.000,204.696,-76.340,25719.606532
1 Jan 2020 22:58:57.000,204.050,-76.507,25553.674302
1 Jan 2020 22:59:27.000,203.375,-76.685,25390.399013
1 Jan 2020 22:59:57.000,202.668,-76.874,25229.935221
1 Jan 2020 23:00:27.000,201.927,-77.072,25072.436766
1 Jan 2020 23:00:57.000,201.149,-77.281,24918.057869
1 Jan 2020 23:01:27.000,200.331,-77.499,24766.952549
1 Jan 2020 23:01:57.000,199.470,-77.727,24619.274358
1 Jan 2020 23:02:27.000,198.561,-77.964,24475.176097
1 Jan 2020 23:02:57.000,197.602,-78.210,24334.809524
1 Jan 2020 23:03:27.000,196.586,-78.465,24198.324768
1 Jan 2020 23:03:57.000,195.510,-78.728,24065.871067
1 Jan 2020 23:04:27.000,194.367,-78.998,23937.594822
1 Jan 2020 23:04:57.000,193.151,-79.275,23813.640315
