STKdata/stk_90fov_4leo/Satellite-MEO_Satellite10102-To-Satellite-LEO_Satellite10000 AER.csv

"Time (UTCG)","Azimuth (deg)","Elevation (deg)","Range (km)"
1 Jan 2020 00:14:43.912,260.214,-75.078,28610.855629
1 Jan 2020 00:15:13.000,258.560,-75.078,28572.404024
1 Jan 2020 00:15:43.000,256.848,-75.078,28535.935006
1 Jan 2020 00:16:13.000,255.128,-75.079,28502.736389
1 Jan 2020 00:16:43.000,253.403,-75.080,28472.836914
1 Jan 2020 00:17:13.000,251.673,-75.081,28446.260166
1 Jan 2020 00:17:43.000,249.938,-75.082,28423.024523
1 Jan 2020 00:18:13.000,248.198,-75.083,28403.143106
1 Jan 2020 00:18:43.000,246.455,-75.083,28386.623753
1 Jan 2020 00:19:13.000,244.709,-75.084,28373.469001
1 Jan 2020 00:19:43.000,242.960,-75.085,28363.676047
1 Jan 2020 00:20:13.000,241.210,-75.085,28357.236913
1 Jan 2020 00:20:43.000,239.458,-75.085,28354.138234
1 Jan 2020 00:21:13.000,237.706,-75.085,28354.361462
1 Jan 2020 00:21:43.000,235.954,-75.085,28357.882876
1 Jan 2020 00:22:13.000,234.202,-75.084,28364.673649
1 Jan 2020 00:22:43.000,232.452,-75.083,28374.699928
1 Jan 2020 00:23:13.000,230.703,-75.082,28387.922928
1 Jan 2020 00:23:43.000,228.957,-75.081,28404.299034
1 Jan 2020 00:24:13.000,227.213,-75.080,28423.779917
1 Jan 2020 00:24:43.000,225.473,-75.079,28446.312672
1 Jan 2020 00:25:13.000,223.737,-75.078,28471.839927
1 Jan 2020 00:25:43.000,222.004,-75.077,28500.300020
1 Jan 2020 00:26:13.000,220.277,-75.076,28531.627141
1 Jan 2020 00:26:43.000,218.554,-75.075,28565.751496
1 Jan 2020 00:27:13.000,216.836,-75.075,28602.599478
1 Jan 2020 00:27:19.372,216.472,-75.075,28610.769237
1 Jan 2020 01:30:33.573,10.330,-75.077,28611.368092
1 Jan 2020 01:31:03.000,8.740,-75.078,28529.232288
1 Jan 2020 01:31:33.000,7.110,-75.081,28446.851741
1 Jan 2020 01:32:03.000,5.470,-75.085,28365.964486
1 Jan 2020 01:32:33.000,3.821,-75.091,28286.697178
1 Jan 2020 01:33:03.000,2.160,-75.099,28209.176043
1 Jan 2020 01:33:33.000,0.489,-75.108,28133.526651
1 Jan 2020 01:34:03.000,358.807,-75.118,28059.873704
1 Jan 2020 01:34:33.000,357.114,-75.130,27988.340797
1 Jan 2020 01:35:03.000,355.410,-75.142,27919.050184
1 Jan 2020 01:35:33.000,353.693,-75.156,27852.122537
1 Jan 2020 01:36:03.000,351.966,-75.170,27787.676697
1 Jan 2020 01:36:33.000,350.226,-75.185,27725.829423
1 Jan 2020 01:37:03.000,348.476,-75.200,27666.695140
1 Jan 2020 01:37:33.000,346.714,-75.215,27610.385677
1 Jan 2020 01:38:03.000,344.940,-75.231,27557.009970
1 Jan 2020 01:38:33.000,343.156,-75.246,27506.673982
1 Jan 2020 01:39:03.000,341.361,-75.261,27459.480164
1 Jan 2020 01:39:33.000,339.556,-75.276,27415.527395
1 Jan 2020 01:40:03.000,337.742,-75.290,27374.910676
1 Jan 2020 01:40:33.000,335.918,-75.303,27337.720883
1 Jan 2020 01:41:03.000,334.086,-75.316,27304.044526
1 Jan 2020 01:41:33.000,332.247,-75.327,27273.963508
1 Jan 2020 01:42:03.000,330.400,-75.338,27247.554906
1 Jan 2020 01:42:33.000,328.548,-75.347,27224.890748
1 Jan 2020 01:43:03.000,326.690,-75.354,27206.037801
1 Jan 2020 01:43:33.000,324.828,-75.360,27191.057383
1 Jan 2020 01:44:03.000,322.963,-75.365,27180.005181
1 Jan 2020 01:44:33.000,321.095,-75.368,27172.931083
1 Jan 2020 01:45:03.000,319.227,-75.369,27169.879026
1 Jan 2020 01:45:33.000,317.359,-75.369,27170.886861
1 Jan 2020 01:46:03.000,315.492,-75.367,27175.986234
1 Jan 2020 01:46:33.000,313.627,-75.363,27185.202542
1 Jan 2020 01:47:03.000,311.766,-75.358,27198.554642
1 Jan 2020 01:47:33.000,309.910,-75.350,27216.055094
1 Jan 2020 01:48:03.000,308.060,-75.342,27237.709922
1 Jan 2020 01:48:33.000,306.216,-75.332,27263.518636
1 Jan 2020 01:49:03.000,304.381,-75.320,27293.474236
1 Jan 2020 01:49:33.000,302.554,-75.308,27327.563224
1 Jan 2020 01:50:03.000,300.738,-75.294,27365.765641
1 Jan 2020 01:50:33.000,298.933,-75.279,27408.055231
1 Jan 2020 01:51:03.000,297.140,-75.264,27454.399102
1 Jan 2020 01:51:33.000,295.360,-75.247,27504.758427
1 Jan 2020 01:52:03.000,293.593,-75.231,27559.088157
1 Jan 2020 01:52:33.000,291.840,-75.214,27617.337245
1 Jan 2020 01:53:03.000,290.103,-75.198,27679.448788
1 Jan 2020 01:53:33.000,288.381,-75.181,27745.360188
1 Jan 2020 01:54:03.000,286.674,-75.165,27815.003319
1 Jan 2020 01:54:33.000,284.984,-75.150,27888.304713
1 Jan 2020 01:55:03.000,283.311,-75.135,27965.185910
1 Jan 2020 01:55:33.000,281.654,-75.122,28045.563044
1 Jan 2020 01:56:03.000,280.015,-75.110,28129.347975
1 Jan 2020 01:56:33.000,278.393,-75.100,28216.447904
1 Jan 2020 01:57:03.000,276.788,-75.091,28306.765750
1 Jan 2020 01:57:33.000,275.200,-75.085,28400.200380
1 Jan 2020 01:58:03.000,273.629,-75.080,28496.646848
1 Jan 2020 01:58:33.000,272.075,-75.079,28595.996628
1 Jan 2020 01:58:37.509,271.842,-75.079,28611.173467
1 Jan 2020 03:04:26.380,66.030,-75.071,28607.817715
1 Jan 2020 03:04:56.000,65.172,-75.076,28417.118931
1 Jan 2020 03:05:26.000,64.300,-75.091,28223.829248
1 Jan 2020 03:05:56.000,63.423,-75.116,28030.578261
1 Jan 2020 03:06:26.000,62.540,-75.152,27837.552349
1 Jan 2020 03:06:56.000,61.649,-75.198,27644.942207
1 Jan 2020 03:07:26.000,60.748,-75.255,27452.942790
1 Jan 2020 03:07:56.000,59.837,-75.324,27261.753246
1 Jan 2020 03:08:26.000,58.912,-75.403,27071.576821
1 Jan 2020 03:08:56.000,57.973,-75.494,26882.620758
1 Jan 2020 03:09:26.000,57.017,-75.596,26695.096161
1 Jan 2020 03:09:56.000,56.042,-75.710,26509.217845
1 Jan 2020 03:10:26.000,55.046,-75.835,26325.204158
1 Jan 2020 03:10:56.000,54.026,-75.972,26143.276773
1 Jan 2020 03:11:26.000,52.979,-76.120,25963.660453
1 Jan 2020 03:11:56.000,51.903,-76.280,25786.582792
1 Jan 2020 03:12:26.000,50.794,-76.451,25612.273907
1 Jan 2020 03:12:56.000,49.649,-76.634,25440.966114
1 Jan 2020 03:13:26.000,48.463,-76.827,25272.893300
1 Jan 2020 03:13:56.000,47.234,-77.031,25108.291549
1 Jan 2020 03:14:26.000,45.955,-77.246,24947.397145
1 Jan 2020 03:14:56.000,44.623,-77.470,24790.447128
1 Jan 2020 03:15:26.000,43.232,-77.704,24637.678517
1 Jan 2020 03:15:56.000,41.775,-77.947,24489.327741
1 Jan 2020 03:16:26.000,40.247,-78.198,24345.630047
1 Jan 2020 03:16:56.000,38.640,-78.456,24206.818645
1 Jan 2020 03:17:26.000,36.946,-78.720,24073.124892
1 Jan 2020 03:17:56.000,35.157,-78.990,23944.776287
1 Jan 2020 03:18:26.000,33.265,-79.264,23821.996604
1 Jan 2020 03:18:56.000,31.258,-79.541,23705.004903
1 Jan 2020 03:19:26.000,29.128,-79.818,23594.014745
1 Jan 2020 03:19:56.000,26.862,-80.096,23489.233207
1 Jan 2020 03:20:26.000,24.451,-80.371,23390.860756
1 Jan 2020 03:20:56.000,21.883,-80.641,23299.089361
1 Jan 2020 03:21:26.000,19.148,-80.904,23214.102388
1 Jan 2020 03:21:56.000,16.236,-81.158,23136.073590
1 Jan 2020 03:22:26.000,13.139,-81.399,23065.166210
1 Jan 2020 03:22:56.000,9.852,-81.626,23001.532610
1 Jan 2020 03:23:26.000,6.375,-81.834,22945.312886
1 Jan 2020 03:23:56.000,2.709,-82.022,22896.634599
1 Jan 2020 03:24:26.000,358.866,-82.185,22855.611969
1 Jan 2020 03:24:56.000,354.860,-82.321,22822.345436
1 Jan 2020 03:25:26.000,350.716,-82.427,22796.920861
1 Jan 2020 03:25:56.000,346.464,-82.501,22779.409250
1 Jan 2020 03:26:26.000,342.141,-82.543,22769.866333
1 Jan 2020 03:26:56.000,337.788,-82.549,22768.332214
1 Jan 2020 03:27:26.000,333.449,-82.521,22774.831198
1 Jan 2020 03:27:56.000,329.167,-82.459,22789.371653
1 Jan 2020 03:28:26.000,324.980,-82.365,22811.946034
1 Jan 2020 03:28:56.000,320.923,-82.239,22842.530687
1 Jan 2020 03:29:26.000,317.024,-82.084,22881.086357
1 Jan 2020 03:29:56.000,313.303,-81.903,22927.558194
1 Jan 2020 03:30:26.000,309.773,-81.699,22981.876245
1 Jan 2020 03:30:56.000,306.441,-81.475,23043.955391
1 Jan 2020 03:31:26.000,303.307,-81.235,23113.696494
1 Jan 2020 03:31:56.000,300.370,-80.980,23190.986506
1 Jan 2020 03:32:26.000,297.622,-80.714,23275.699176
1 Jan 2020 03:32:56.000,295.054,-80.440,23367.695919
1 Jan 2020 03:33:26.000,292.658,-80.159,23466.825694
1 Jan 2020 03:33:56.000,290.421,-79.875,23572.926959
1 Jan 2020 03:34:26.000,288.334,-79.590,23685.827645
1 Jan 2020 03:34:56.000,286.385,-79.305,23805.346139
1 Jan 2020 03:35:26.000,284.564,-79.022,23931.292331
1 Jan 2020 03:35:56.000,282.860,-78.743,24063.467460
1 Jan 2020 03:36:26.000,281.265,-78.468,24201.666345
1 Jan 2020 03:36:56.000,279.770,-78.200,24345.677240
1 Jan 2020 03:37:26.000,278.367,-77.940,24495.282852
1 Jan 2020 03:37:56.000,277.048,-77.687,24650.261101
1 Jan 2020 03:38:26.000,275.807,-77.444,24810.386152
1 Jan 2020 03:38:56.000,274.638,-77.210,24975.427966
1 Jan 2020 03:39:26.000,273.534,-76.987,25145.154705
1 Jan 2020 03:39:56.000,272.492,-76.775,25319.332234
1 Jan 2020 03:40:26.000,271.506,-76.575,25497.725018
1 Jan 2020 03:40:56.000,270.572,-76.386,25680.096690
1 Jan 2020 03:41:26.000,269.686,-76.210,25866.210588
1 Jan 2020 03:41:56.000,268.845,-76.046,26055.830253
1 Jan 2020 03:42:26.000,268.046,-75.895,26248.719889
1 Jan 2020 03:42:56.000,267.285,-75.756,26444.645124
1 Jan 2020 03:43:26.000,266.561,-75.630,26643.372031
1 Jan 2020 03:43:56.000,265.870,-75.518,26844.669527
1 Jan 2020 03:44:26.000,265.211,-75.418,27048.308321
1 Jan 2020 03:44:56.000,264.581,-75.331,27254.061547
1 Jan 2020 03:45:26.000,263.979,-75.257,27461.705010
1 Jan 2020 03:45:56.000,263.402,-75.196,27671.017413
1 Jan 2020 03:46:26.000,262.850,-75.147,27881.780555
1 Jan 2020 03:46:56.000,262.321,-75.112,28093.779499
1 Jan 2020 03:47:26.000,261.813,-75.088,28306.802725
1 Jan 2020 03:47:56.000,261.326,-75.077,28520.642250
1 Jan 2020 03:48:07.967,261.137,-75.076,28606.125627
1 Jan 2020 04:51:05.243,80.852,-75.067,28600.982706
1 Jan 2020 04:51:35.000,81.290,-75.073,28387.348439
1 Jan 2020 04:52:05.000,81.752,-75.092,28172.646798
1 Jan 2020 04:52:35.000,82.233,-75.123,27958.830684
1 Jan 2020 04:53:05.000,82.736,-75.166,27746.110280
1 Jan 2020 04:53:35.000,83.263,-75.223,27534.699367
1 Jan 2020 04:54:05.000,83.814,-75.293,27324.815187
1 Jan 2020 04:54:35.000,84.390,-75.376,27116.678297
1 Jan 2020 04:55:05.000,84.995,-75.472,26910.512389
1 Jan 2020 04:55:35.000,85.629,-75.581,26706.544089
1 Jan 2020 04:56:05.000,86.295,-75.703,26505.002723
1 Jan 2020 04:56:35.000,86.995,-75.839,26306.120058
1 Jan 2020 04:57:05.000,87.732,-75.988,26110.130007
1 Jan 2020 04:57:35.000,88.508,-76.150,25917.268303
1 Jan 2020 04:58:05.000,89.326,-76.325,25727.771810
1 Jan 2020 04:58:35.000,90.189,-76.513,25541.879426
1 Jan 2020 04:59:05.000,91.102,-76.713,25359.829689
1 Jan 2020 04:59:35.000,92.068,-76.925,25181.861612
1 Jan 2020 05:00:05.000,93.092,-77.149,25008.213837
1 Jan 2020 05:00:35.000,94.179,-77.385,24839.124086
1 Jan 2020 05:01:05.000,95.333,-77.631,24674.828562
1 Jan 2020 05:01:35.000,96.562,-77.887,24515.561030
1 Jan 2020 05:02:05.000,97.872,-78.152,24361.553340
1 Jan 2020 05:02:35.000,99.270,-78.426,24213.032921
1 Jan 2020 05:03:05.000,100.764,-78.708,24070.223260
1 Jan 2020 05:03:35.000,102.364,-78.996,23933.342838
1 Jan 2020 05:04:05.000,104.078,-79.289,23802.604114
1 Jan 2020 05:04:35.000,105.918,-79.585,23678.213640
1 Jan 2020 05:05:05.000,107.895,-79.884,23560.369850
1 Jan 2020 05:05:35.000,110.021,-80.182,23449.263176
1 Jan 2020 05:06:05.000,112.308,-80.479,23345.074979
1 Jan 2020 05:06:35.000,114.771,-80.772,23247.976534
1 Jan 2020 05:07:05.000,117.420,-81.058,23158.129032
1 Jan 2020 05:07:35.000,120.270,-81.335,23075.681570
1 Jan 2020 05:08:05.000,123.329,-81.600,23000.771234
1 Jan 2020 05:08:35.000,126.607,-81.849,22933.522054
1 Jan 2020 05:09:05.000,130.107,-82.079,22874.044855
1 Jan 2020 05:09:35.000,133.828,-82.288,22822.435869
1 Jan 2020 05:10:05.000,137.762,-82.471,22778.776735
1 Jan 2020 05:10:35.000,141.893,-82.625,22743.133819
1 Jan 2020 05:11:05.000,146.196,-82.747,22715.558148
1 Jan 2020 05:11:35.000,150.635,-82.835,22696.084606
1 Jan 2020 05:12:05.000,155.170,-82.888,22684.732072
1 Jan 2020 05:12:35.000,159.751,-82.903,22681.503180
1 Jan 2020 05:13:05.000,164.327,-82.880,22686.384398
1 Jan 2020 05:13:35.000,168.847,-82.821,22699.345918
1 Jan 2020 05:14:05.000,173.266,-82.727,22720.341948
1 Jan 2020 05:14:35.000,177.542,-82.599,22749.310958
1 Jan 2020 05:15:05.000,181.646,-82.440,22786.175903
1 Jan 2020 05:15:35.000,185.554,-82.255,22830.844801
1 Jan 2020 05:16:05.000,189.253,-82.045,22883.211145
1 Jan 2020 05:16:35.000,192.738,-81.814,22943.154574
1 Jan 2020 05:17:05.000,196.009,-81.567,23010.541194
1 Jan 2020 05:17:35.000,199.072,-81.305,23085.224727
1 Jan 2020 05:18:05.000,201.937,-81.032,23167.046953
1 Jan 2020 05:18:35.000,204.614,-80.750,23255.838562
1 Jan 2020 05:19:05.000,207.115,-80.464,23351.420122
1 Jan 2020 05:19:35.000,209.455,-80.173,23453.602278
1 Jan 2020 05:20:05.000,211.646,-79.882,23562.187518
1 Jan 2020 05:20:35.000,213.700,-79.591,23676.970418
1 Jan 2020 05:21:05.000,215.629,-79.303,23797.738634
1 Jan 2020 05:21:35.000,217.445,-79.019,23924.273735
1 Jan 2020 05:22:05.000,219.158,-78.740,24056.352256
1 Jan 2020 05:22:35.000,220.778,-78.467,24193.745590
1 Jan 2020 05:23:05.000,222.313,-78.201,24336.222097
1 Jan 2020 05:23:35.000,223.771,-77.944,24483.546970
1 Jan 2020 05:24:05.000,225.160,-77.696,24635.483157
1 Jan 2020 05:24:35.000,226.486,-77.458,24791.792034
1 Jan 2020 05:25:05.000,227.755,-77.229,24952.234042
1 Jan 2020 05:25:35.000,228.973,-77.011,25116.569279
1 Jan 2020 05:26:05.000,230.144,-76.805,25284.558335
1 Jan 2020 05:26:35.000,231.273,-76.609,25455.961693
1 Jan 2020 05:27:05.000,232.364,-76.426,25630.541864
1 Jan 2020 05:27:35.000,233.421,-76.253,25808.062720
1 Jan 2020 05:28:05.000,234.447,-76.093,25988.290164
1 Jan 2020 05:28:35.000,235.445,-75.945,26170.992484
1 Jan 2020 05:29:05.000,236.419,-75.809,26355.940680
1 Jan 2020 05:29:35.000,237.370,-75.684,26542.908745
1 Jan 2020 05:30:05.000,238.302,-75.572,26731.673927
1 Jan 2020 05:30:35.000,239.216,-75.471,26922.016948
1 Jan 2020 05:31:05.000,240.115,-75.382,27113.722199
1 Jan 2020 05:31:35.000,241.000,-75.305,27306.577912
1 Jan 2020 05:32:05.000,241.874,-75.239,27500.376299
1 Jan 2020 05:32:35.000,242.738,-75.185,27694.913678
1 Jan 2020 05:33:05.000,243.594,-75.141,27889.990567
1 Jan 2020 05:33:35.000,244.443,-75.108,28085.411765
1 Jan 2020 05:34:05.000,245.287,-75.087,28280.986418
1 Jan 2020 05:34:35.000,246.127,-75.075,28476.528064
1 Jan 2020 05:34:53.816,246.652,-75.073,28599.070341
1 Jan 2020 06:40:30.834,91.460,-75.063,28594.491152
1 Jan 2020 06:41:00.000,92.949,-75.065,28492.959563
1 Jan 2020 06:41:30.000,94.497,-75.069,28391.323609
1 Jan 2020 06:42:00.000,96.064,-75.076,28292.640243
1 Jan 2020 06:42:30.000,97.648,-75.085,28197.020431
1 Jan 2020 06:43:00.000,99.251,-75.096,28104.571555
1 Jan 2020 06:43:30.000,100.872,-75.109,28015.397171
1 Jan 2020 06:44:00.000,102.510,-75.124,27929.596764
1 Jan 2020 06:44:30.000,104.167,-75.140,27847.265509
1 Jan 2020 06:45:00.000,105.842,-75.157,27768.494036
1 Jan 2020 06:45:30.000,107.534,-75.175,27693.368057
1 Jan 2020 06:46:00.000,109.243,-75.194,27621.968724
1 Jan 2020 06:46:30.000,110.970,-75.213,27554.371541
1 Jan 2020 06:47:00.000,112.713,-75.232,27490.646747
1 Jan 2020 06:47:30.000,114.471,-75.251,27430.858979
1 Jan 2020 06:48:00.000,116.245,-75.270,27375.067089
1 Jan 2020 06:48:30.000,118.034,-75.289,27323.323984
1 Jan 2020 06:49:00.000,119.836,-75.307,27275.676470
1 Jan 2020 06:49:30.000,121.650,-75.323,27232.165017
1 Jan 2020 06:50:00.000,123.477,-75.339,27192.824059
1 Jan 2020 06:50:30.000,125.315,-75.354,27157.681259
1 Jan 2020 06:51:00.000,127.162,-75.367,27126.757857
1 Jan 2020 06:51:30.000,129.018,-75.378,27100.068498
1 Jan 2020 06:52:00.000,130.881,-75.388,27077.621196
1 Jan 2020 06:52:30.000,132.751,-75.397,27059.417306
1 Jan 2020 06:53:00.000,134.626,-75.403,27045.451473
1 Jan 2020 06:53:30.000,136.505,-75.408,27035.711870
1 Jan 2020 06:54:00.000,138.387,-75.410,27030.179902
1 Jan 2020 06:54:30.000,140.270,-75.411,27028.830497
1 Jan 2020 06:55:00.000,142.153,-75.410,27031.632128
1 Jan 2020 06:55:30.000,144.035,-75.407,27038.546912
1 Jan 2020 06:56:00.000,145.916,-75.402,27049.530729
1 Jan 2020 06:56:30.000,147.792,-75.395,27064.533361
1 Jan 2020 06:57:00.000,149.665,-75.387,27083.498639
1 Jan 2020 06:57:30.000,151.532,-75.377,27106.364642
1 Jan 2020 06:58:00.000,153.392,-75.366,27133.063834
1 Jan 2020 06:58:30.000,155.246,-75.353,27163.523297
1 Jan 2020 06:59:00.000,157.091,-75.339,27197.664941
1 Jan 2020 06:59:30.000,158.927,-75.325,27235.405718
1 Jan 2020 07:00:00.000,160.754,-75.309,27276.657863
1 Jan 2020 07:00:30.000,162.570,-75.292,27321.329132
1 Jan 2020 07:01:00.000,164.376,-75.275,27369.323052
1 Jan 2020 07:01:30.000,166.171,-75.258,27420.539225
1 Jan 2020 07:02:00.000,167.954,-75.241,27474.873406
1 Jan 2020 07:02:30.000,169.725,-75.223,27532.218030
1 Jan 2020 07:03:00.000,171.484,-75.206,27592.462303
1 Jan 2020 07:03:30.000,173.231,-75.189,27655.492518
1 Jan 2020 07:04:00.000,174.965,-75.172,27721.192310
1 Jan 2020 07:04:30.000,176.688,-75.157,27789.442931
1 Jan 2020 07:05:00.000,178.398,-75.142,27860.123502
1 Jan 2020 07:05:30.000,180.096,-75.128,27933.111277
1 Jan 2020 07:06:00.000,181.782,-75.115,28008.281898
1 Jan 2020 07:06:30.000,183.456,-75.104,28085.509637
1 Jan 2020 07:07:00.000,185.119,-75.094,28164.667646
1 Jan 2020 07:07:30.000,186.771,-75.086,28245.628190
1 Jan 2020 07:08:00.000,188.412,-75.079,28328.262878
1 Jan 2020 07:08:30.000,190.043,-75.074,28412.442982
1 Jan 2020 07:09:00.000,191.664,-75.071,28498.039263
1 Jan 2020 07:09:30.000,193.276,-75.070,28584.922758
1 Jan 2020 07:09:33.210,193.448,-75.070,28594.291296
1 Jan 2020 08:13:38.055,42.512,-75.061,28592.248309
1 Jan 2020 08:14:08.000,44.231,-75.061,28561.643976
1 Jan 2020 08:14:38.000,45.957,-75.062,28533.823320
1 Jan 2020 08:15:08.000,47.688,-75.062,28508.908573
1 Jan 2020 08:15:38.000,49.422,-75.063,28486.959317
1 Jan 2020 08:16:08.000,51.159,-75.063,28468.030836
1 Jan 2020 08:16:38.000,52.898,-75.064,28452.173981
1 Jan 2020 08:17:08.000,54.640,-75.064,28439.435033
1 Jan 2020 08:17:38.000,56.383,-75.065,28429.855585
1 Jan 2020 08:18:08.000,58.127,-75.065,28423.472435
1 Jan 2020 08:18:38.000,59.872,-75.065,28420.317483
1 Jan 2020 08:19:08.000,61.617,-75.065,28420.417675
1 Jan 2020 08:19:38.000,63.361,-75.065,28423.794825
1 Jan 2020 08:20:08.000,65.104,-75.065,28430.465700
1 Jan 2020 08:20:38.000,66.845,-75.064,28440.441881
1 Jan 2020 08:21:08.000,68.584,-75.064,28453.729752
1 Jan 2020 08:21:38.000,70.319,-75.063,28470.330473
1 Jan 2020 08:22:08.000,72.052,-75.063,28490.239980
1 Jan 2020 08:22:38.000,73.780,-75.062,28513.448987
1 Jan 2020 08:23:08.000,75.503,-75.062,28539.943010
1 Jan 2020 08:23:38.000,77.221,-75.061,28569.702397
1 Jan 2020 08:23:58.860,78.412,-75.061,28592.306402
1 Jan 2020 09:34:09.087,303.060,-75.068,28594.687952
1 Jan 2020 09:34:39.000,304.249,-75.071,28432.554113
1 Jan 2020 09:35:09.000,305.449,-75.082,28269.990915
1 Jan 2020 09:35:39.000,306.658,-75.099,28107.633206
1 Jan 2020 09:36:09.000,307.878,-75.124,27945.650190
1 Jan 2020 09:36:39.000,309.110,-75.157,27784.214453
1 Jan 2020 09:37:09.000,310.355,-75.196,27623.501860
1 Jan 2020 09:37:39.000,311.616,-75.243,27463.691440
1 Jan 2020 09:38:09.000,312.893,-75.298,27304.965256
1 Jan 2020 09:38:39.000,314.189,-75.360,27147.508248
1 Jan 2020 09:39:09.000,315.506,-75.429,26991.508072
1 Jan 2020 09:39:39.000,316.845,-75.505,26837.154910
1 Jan 2020 09:40:09.000,318.208,-75.589,26684.641256
1 Jan 2020 09:40:39.000,319.598,-75.680,26534.161692
1 Jan 2020 09:41:09.000,321.017,-75.778,26385.912629
1 Jan 2020 09:41:39.000,322.466,-75.882,26240.092030
1 Jan 2020 09:42:09.000,323.949,-75.992,26096.899110
1 Jan 2020 09:42:39.000,325.467,-76.109,25956.534005
1 Jan 2020 09:43:09.000,327.024,-76.231,25819.197425
1 Jan 2020 09:43:39.000,328.621,-76.359,25685.090062
1 Jan 2020 09:44:09.000,330.261,-76.491,25554.413021
1 Jan 2020 09:44:39.000,331.946,-76.628,25427.366136
1 Jan 2020 09:45:09.000,333.680,-76.768,25304.148353
1 Jan 2020 09:45:39.000,335.465,-76.911,25184.957044
1 Jan 2020 09:46:09.000,337.303,-77.057,25069.987503
1 Jan 2020 09:46:39.000,339.197,-77.204,24959.432422
1 Jan 2020 09:47:09.000,341.148,-77.352,24853.481214
1 Jan 2020 09:47:39.000,343.161,-77.500,24752.320002
1 Jan 2020 09:48:09.000,345.235,-77.647,24656.130208
1 Jan 2020 09:48:39.000,347.372,-77.792,24565.088533
1 Jan 2020 09:49:09.000,349.575,-77.934,24479.366220
1 Jan 2020 09:49:39.000,351.843,-78.071,24399.128453
1 Jan 2020 09:50:09.000,354.176,-78.204,24324.533674
1 Jan 2020 09:50:39.000,356.573,-78.330,24255.733354
1 Jan 2020 09:51:09.000,359.035,-78.449,24192.870840
1 Jan 2020 09:51:39.000,1.557,-78.559,24136.081177
1 Jan 2020 09:52:09.000,4.137,-78.660,24085.490451
1 Jan 2020 09:52:39.000,6.770,-78.750,24041.215232
1 Jan 2020 09:53:09.000,9.453,-78.829,24003.362219
1 Jan 2020 09:53:39.000,12.178,-78.895,23972.027542
1 Jan 2020 09:54:09.000,14.939,-78.948,23947.296502
1 Jan 2020 09:54:39.000,17.727,-78.986,23929.243142
1 Jan 2020 09:55:09.000,20.535,-79.011,23917.929938
1 Jan 2020 09:55:39.000,23.354,-79.021,23913.407434
1 Jan 2020 09:56:09.000,26.174,-79.016,23915.714109
1 Jan 2020 09:56:39.000,28.985,-78.996,23924.876150
1 Jan 2020 09:57:09.000,31.779,-78.961,23940.907346
1 Jan 2020 09:57:39.000,34.547,-78.912,23963.809114
1 Jan 2020 09:58:09.000,37.279,-78.849,23993.570183
1 Jan 2020 09:58:39.000,39.969,-78.772,24030.167118
1 Jan 2020 09:59:09.000,42.608,-78.683,24073.564146
1 Jan 2020 09:59:39.000,45.192,-78.583,24123.713405
1 Jan 2020 10:00:09.000,47.715,-78.472,24180.555318
1 Jan 2020 10:00:39.000,50.172,-78.351,24244.018334
1 Jan 2020 10:01:09.000,52.560,-78.222,24314.020064
1 Jan 2020 10:01:39.000,54.877,-78.085,24390.467133
1 Jan 2020 10:02:09.000,57.122,-77.942,24473.255733
1 Jan 2020 10:02:39.000,59.294,-77.795,24562.272256
1 Jan 2020 10:03:09.000,61.392,-77.643,24657.393072
1 Jan 2020 10:03:39.000,63.418,-77.489,24758.486091
1 Jan 2020 10:04:09.000,65.371,-77.333,24865.410611
1 Jan 2020 10:04:39.000,67.255,-77.177,24978.018034
1 Jan 2020 10:05:09.000,69.069,-77.021,25096.152432
1 Jan 2020 10:05:39.000,70.818,-76.866,25219.651360
1 Jan 2020 10:06:09.000,72.502,-76.714,25348.345460
1 Jan 2020 10:06:39.000,74.124,-76.565,25482.060472
1 Jan 2020 10:07:09.000,75.686,-76.420,25620.616845
1 Jan 2020 10:07:39.000,77.191,-76.280,25763.830535
1 Jan 2020 10:08:09.000,78.642,-76.145,25911.513541
1 Jan 2020 10:08:39.000,80.041,-76.016,26063.474442
1 Jan 2020 10:09:09.000,81.390,-75.894,26219.518903
1 Jan 2020 10:09:39.000,82.692,-75.779,26379.450479
1 Jan 2020 10:10:09.000,83.949,-75.671,26543.069868
1 Jan 2020 10:10:39.000,85.164,-75.571,26710.177174
1 Jan 2020 10:11:09.000,86.338,-75.479,26880.571137
1 Jan 2020 10:11:39.000,87.473,-75.396,27054.049830
1 Jan 2020 10:12:09.000,88.573,-75.322,27230.411039
1 Jan 2020 10:12:39.000,89.638,-75.257,27409.452622
1 Jan 2020 10:13:09.000,90.671,-75.201,27590.972833
1 Jan 2020 10:13:39.000,91.673,-75.154,27774.770638
1 Jan 2020 10:14:09.000,92.646,-75.117,27960.645991
1 Jan 2020 10:14:39.000,93.592,-75.090,28148.400100
1 Jan 2020 10:15:09.000,94.512,-75.072,28337.835665
1 Jan 2020 10:15:39.000,95.408,-75.064,28528.757098
1 Jan 2020 10:15:49.494,95.716,-75.063,28595.857342
1 Jan 2020 11:18:59.695,282.717,-75.072,28600.718966
1 Jan 2020 11:19:29.000,282.711,-75.078,28383.123067
1 Jan 2020 11:19:59.000,282.693,-75.098,28160.541192
1 Jan 2020 11:20:29.000,282.662,-75.131,27938.336574
1 Jan 2020 11:20:59.000,282.618,-75.178,27716.719104
1 Jan 2020 11:21:29.000,282.561,-75.240,27495.903241
1 Jan 2020 11:21:59.000,282.490,-75.315,27276.107951
1 Jan 2020 11:22:29.000,282.406,-75.406,27057.556632
1 Jan 2020 11:22:59.000,282.306,-75.512,26840.477010
1 Jan 2020 11:23:29.000,282.192,-75.633,26625.101019
1 Jan 2020 11:23:59.000,282.061,-75.769,26411.664643
1 Jan 2020 11:24:29.000,281.913,-75.921,26200.407743
1 Jan 2020 11:24:59.000,281.747,-76.089,25991.573837
1 Jan 2020 11:25:29.000,281.562,-76.273,25785.409856
1 Jan 2020 11:25:59.000,281.356,-76.474,25582.165864
1 Jan 2020 11:26:29.000,281.129,-76.690,25382.094727
1 Jan 2020 11:26:59.000,280.877,-76.923,25185.451419
1 Jan 2020 11:27:29.000,280.600,-77.173,24992.493971
1 Jan 2020 11:27:59.000,280.295,-77.439,24803.480961
1 Jan 2020 11:28:29.000,279.960,-77.721,24618.672396
1 Jan 2020 11:28:59.000,279.591,-78.020,24438.328809
1 Jan 2020 11:29:29.000,279.184,-78.335,24262.710664
1 Jan 2020 11:29:59.000,278.736,-78.665,24092.077704
1 Jan 2020 11:30:29.000,278.241,-79.012,23926.687944
1 Jan 2020 11:30:59.000,277.694,-79.374,23766.798169
1 Jan 2020 11:31:29.000,277.088,-79.750,23612.661256
1 Jan 2020 11:31:59.000,276.415,-80.141,23464.526600
1 Jan 2020 11:32:29.000,275.663,-80.546,23322.638917
1 Jan 2020 11:32:59.000,274.821,-80.964,23187.237092
1 Jan 2020 11:33:29.000,273.873,-81.395,23058.554182
1 Jan 2020 11:33:59.000,272.801,-81.836,22936.815005
1 Jan 2020 11:34:29.000,271.581,-82.288,22822.236128
1 Jan 2020 11:34:59.000,270.182,-82.748,22715.024619
1 Jan 2020 11:35:29.000,268.565,-83.216,22615.376857
1 Jan 2020 11:35:59.000,266.681,-83.688,22523.478365
1 Jan 2020 11:36:29.000,264.462,-84.163,22439.501596
1 Jan 2020 11:36:59.000,261.820,-84.637,22363.605860
1 Jan 2020 11:37:29.000,258.638,-85.107,22295.936094
1 Jan 2020 11:37:59.000,254.758,-85.565,22236.622536
1 Jan 2020 11:38:29.000,249.969,-86.006,22185.779194
1 Jan 2020 11:38:59.000,244.004,-86.417,22143.503685
1 Jan 2020 11:39:29.000,236.552,-86.785,22109.876445
1 Jan 2020 11:39:59.000,227.336,-87.090,22084.960489
1 Jan 2020 11:40:29.000,216.291,-87.306,22068.800590
1 Jan 2020 11:40:59.000,203.838,-87.411,22061.423289
1 Jan 2020 11:41:29.000,190.972,-87.391,22062.836646
1 Jan 2020 11:41:59.000,178.893,-87.247,22073.030194
1 Jan 2020 11:42:29.000,168.421,-86.999,22091.974957
1 Jan 2020 11:42:59.000,159.789,-86.672,22119.623674
1 Jan 2020 11:43:29.000,152.834,-86.289,22155.911145
1 Jan 2020 11:43:59.000,147.253,-85.868,22200.754381
1 Jan 2020 11:44:29.000,142.744,-85.423,22254.053467
1 Jan 2020 11:44:59.000,139.060,-84.962,22315.691942
1 Jan 2020 11:45:29.000,136.010,-84.493,22385.537669
1 Jan 2020 11:45:59.000,133.448,-84.020,22463.443124
1 Jan 2020 11:46:29.000,131.270,-83.549,22549.246925
1 Jan 2020 11:46:59.000,129.393,-83.080,22642.774278
1 Jan 2020 11:47:29.000,127.758,-82.618,22743.838182
1 Jan 2020 11:47:59.000,126.318,-82.163,22852.239763
1 Jan 2020 11:48:29.000,125.038,-81.718,22967.770204
1 Jan 2020 11:48:59.000,123.889,-81.283,23090.211131
1 Jan 2020 11:49:29.000,122.850,-80.859,23219.335771
1 Jan 2020 11:49:59.000,121.902,-80.448,23354.910183
1 Jan 2020 11:50:29.000,121.031,-80.051,23496.693300
1 Jan 2020 11:50:59.000,120.226,-79.667,23644.439271
1 Jan 2020 11:51:29.000,119.477,-79.298,23797.897472
1 Jan 2020 11:51:59.000,118.776,-78.943,23956.813616
1 Jan 2020 11:52:29.000,118.115,-78.604,24120.930601
1 Jan 2020 11:52:59.000,117.490,-78.281,24289.989589
1 Jan 2020 11:53:29.000,116.896,-77.973,24463.729652
1 Jan 2020 11:53:59.000,116.328,-77.681,24641.890123
1 Jan 2020 11:54:29.000,115.783,-77.405,24824.210166
1 Jan 2020 11:54:59.000,115.257,-77.145,25010.429641
1 Jan 2020 11:55:29.000,114.749,-76.901,25200.289666
1 Jan 2020 11:55:59.000,114.255,-76.674,25393.533115
1 Jan 2020 11:56:29.000,113.773,-76.462,25589.905078
1 Jan 2020 11:56:59.000,113.303,-76.266,25789.153268
1 Jan 2020 11:57:29.000,112.841,-76.085,25991.028391
1 Jan 2020 11:57:59.000,112.386,-75.921,26195.284792
1 Jan 2020 11:58:29.000,111.938,-75.771,26401.679431
1 Jan 2020 11:58:59.000,111.494,-75.637,26609.974090
1 Jan 2020 11:59:29.000,111.054,-75.518,26819.934283
1 Jan 2020 11:59:59.000,110.616,-75.413,27031.329756
1 Jan 2020 12:00:29.000,110.180,-75.323,27243.934643
1 Jan 2020 12:00:59.000,109.744,-75.247,27457.527582
1 Jan 2020 12:01:29.000,109.308,-75.184,27671.891818
1 Jan 2020 12:01:59.000,108.871,-75.136,27886.815280
1 Jan 2020 12:02:29.000,108.431,-75.100,28102.090632
1 Jan 2020 12:02:59.000,107.989,-75.077,28317.515312
1 Jan 2020 12:03:29.000,107.544,-75.067,28532.891555
1 Jan 2020 12:03:38.740,107.398,-75.067,28602.773735
1 Jan 2020 13:07:37.631,272.404,-75.076,28607.800238
1 Jan 2020 13:08:07.000,271.170,-75.079,28457.909830
1 Jan 2020 13:08:37.000,269.886,-75.088,28306.968405
1 Jan 2020 13:09:07.000,268.577,-75.103,28158.384742
1 Jan 2020 13:09:37.000,267.244,-75.123,28012.322854
1 Jan 2020 13:10:07.000,265.885,-75.150,27868.945671
1 Jan 2020 13:10:37.000,264.498,-75.181,27728.414746
1 Jan 2020 13:11:07.000,263.083,-75.217,27590.889953
1 Jan 2020 13:11:37.000,261.639,-75.258,27456.529168
1 Jan 2020 13:12:07.000,260.166,-75.303,27325.487945
1 Jan 2020 13:12:37.000,258.661,-75.352,27197.919179
1 Jan 2020 13:13:07.000,257.124,-75.405,27073.972531
1 Jan 2020 13:13:37.000,255.556,-75.461,26953.795000
1 Jan 2020 13:14:07.000,253.954,-75.520,26837.529165
1 Jan 2020 13:14:37.000,252.319,-75.582,26725.313761
1 Jan 2020 13:15:07.000,250.650,-75.645,26617.283072
1 Jan 2020 13:15:37.000,248.947,-75.709,26513.566570
1 Jan 2020 13:16:07.000,247.210,-75.775,26414.288541
1 Jan 2020 13:16:37.000,245.438,-75.841,26319.567545
1 Jan 2020 13:17:07.000,243.632,-75.907,26229.516787
1 Jan 2020 13:17:37.000,241.792,-75.973,26144.242662
1 Jan 2020 13:18:07.000,239.919,-76.037,26063.845157
1 Jan 2020 13:18:37.000,238.014,-76.101,25988.417339
1 Jan 2020 13:19:07.000,236.076,-76.161,25918.045042
1 Jan 2020 13:19:37.000,234.108,-76.220,25852.806442
1 Jan 2020 13:20:07.000,232.111,-76.275,25792.772324
1 Jan 2020 13:20:37.000,230.087,-76.327,25738.005006
1 Jan 2020 13:21:07.000,228.037,-76.375,25688.558672
1 Jan 2020 13:21:37.000,225.963,-76.419,25644.479033
1 Jan 2020 13:22:07.000,223.867,-76.458,25605.803154
1 Jan 2020 13:22:37.000,221.753,-76.493,25572.559225
1 Jan 2020 13:23:07.000,219.622,-76.522,25544.766828
1 Jan 2020 13:23:37.000,217.478,-76.545,25522.436285
1 Jan 2020 13:24:07.000,215.322,-76.563,25505.569010
1 Jan 2020 13:24:37.000,213.158,-76.575,25494.157404
1 Jan 2020 13:25:07.000,210.990,-76.582,25488.184880
1 Jan 2020 13:25:37.000,208.819,-76.582,25487.625888
1 Jan 2020 13:26:07.000,206.649,-76.577,25492.446171
1 Jan 2020 13:26:37.000,204.483,-76.566,25502.602641
1 Jan 2020 13:27:07.000,202.323,-76.549,25518.043720
1 Jan 2020 13:27:37.000,200.173,-76.527,25538.709483
1 Jan 2020 13:28:07.000,198.034,-76.500,25564.531878
1 Jan 2020 13:28:37.000,195.910,-76.468,25595.434997
1 Jan 2020 13:29:07.000,193.803,-76.431,25631.335289
1 Jan 2020 13:29:37.000,191.713,-76.390,25672.141929
1 Jan 2020 13:30:07.000,189.644,-76.345,25717.757098
1 Jan 2020 13:30:37.000,187.597,-76.296,25768.076329
1 Jan 2020 13:31:07.000,185.574,-76.245,25822.988853
1 Jan 2020 13:31:37.000,183.574,-76.190,25882.377971
1 Jan 2020 13:32:07.000,181.600,-76.134,25946.121496
1 Jan 2020 13:32:37.000,179.651,-76.076,26014.091860
1 Jan 2020 13:33:07.000,177.730,-76.016,26086.156912
1 Jan 2020 13:33:37.000,175.835,-75.955,26162.180043
1 Jan 2020 13:34:07.000,173.967,-75.894,26242.020644
1 Jan 2020 13:34:37.000,172.125,-75.833,26325.534499
1 Jan 2020 13:35:07.000,170.311,-75.772,26412.574175
1 Jan 2020 13:35:37.000,168.523,-75.712,26502.989398
1 Jan 2020 13:36:07.000,166.760,-75.653,26596.627438
1 Jan 2020 13:36:37.000,165.024,-75.595,26693.333595
1 Jan 2020 13:37:07.000,163.312,-75.539,26792.951064
1 Jan 2020 13:37:37.000,161.623,-75.485,26895.322017
1 Jan 2020 13:38:07.000,159.958,-75.434,27000.287451
1 Jan 2020 13:38:37.000,158.316,-75.385,27107.687631
1 Jan 2020 13:39:07.000,156.695,-75.339,27217.362397
1 Jan 2020 13:39:37.000,155.094,-75.296,27329.151459
1 Jan 2020 13:40:07.000,153.513,-75.257,27442.894678
1 Jan 2020 13:40:37.000,151.950,-75.221,27558.432326
1 Jan 2020 13:41:07.000,150.405,-75.188,27675.605341
1 Jan 2020 13:41:37.000,148.876,-75.159,27794.255563
1 Jan 2020 13:42:07.000,147.362,-75.135,27914.225949
1 Jan 2020 13:42:37.000,145.862,-75.114,28035.360786
1 Jan 2020 13:43:07.000,144.376,-75.097,28157.505881
1 Jan 2020 13:43:37.000,142.902,-75.084,28280.508738
1 Jan 2020 13:44:07.000,141.439,-75.075,28404.218726
1 Jan 2020 13:44:37.000,139.987,-75.070,28528.487230
1 Jan 2020 13:44:56.291,139.057,-75.069,28608.622548
1 Jan 2020 16:05:43.013,41.975,-75.074,28610.517160
1 Jan 2020 16:06:13.000,40.539,-75.076,28484.086195
1 Jan 2020 16:06:43.000,39.092,-75.083,28358.038522
1 Jan 2020 16:07:13.000,37.635,-75.094,28232.575408
1 Jan 2020 16:07:43.000,36.166,-75.108,28107.847311
1 Jan 2020 16:08:13.000,34.685,-75.128,27984.006744
1 Jan 2020 16:08:43.000,33.190,-75.151,27861.208114
1 Jan 2020 16:09:13.000,31.681,-75.178,27739.607559
1 Jan 2020 16:09:43.000,30.155,-75.209,27619.362764
1 Jan 2020 16:10:13.000,28.612,-75.245,27500.632764
1 Jan 2020 16:10:43.000,27.052,-75.283,27383.577737
1 Jan 2020 16:11:13.000,25.472,-75.326,27268.358779
1 Jan 2020 16:11:43.000,23.872,-75.372,27155.137659
1 Jan 2020 16:12:13.000,22.251,-75.421,27044.076569
1 Jan 2020 16:12:43.000,20.608,-75.472,26935.337852
1 Jan 2020 16:13:13.000,18.941,-75.527,26829.083713
1 Jan 2020 16:13:43.000,17.250,-75.584,26725.475924
1 Jan 2020 16:14:13.000,15.535,-75.643,26624.675505
1 Jan 2020 16:14:43.000,13.793,-75.704,26526.842272
1 Jan 2020 16:15:13.000,12.026,-75.767,26432.134996
1 Jan 2020 16:15:43.000,10.231,-75.830,26340.710289
1 Jan 2020 16:16:13.000,8.409,-75.894,26252.722748
1 Jan 2020 16:16:43.000,6.559,-75.959,26168.324452
1 Jan 2020 16:17:13.000,4.681,-76.023,26087.664574
1 Jan 2020 16:17:43.000,2.774,-76.087,26010.888991
1 Jan 2020 16:18:13.000,0.840,-76.149,25938.139885
1 Jan 2020 16:18:43.000,358.878,-76.210,25869.555275
1 Jan 2020 16:19:13.000,356.889,-76.270,25805.268894
1 Jan 2020 16:19:43.000,354.874,-76.327,25745.409355
1 Jan 2020 16:20:13.000,352.833,-76.381,25690.100052
1 Jan 2020 16:20:43.000,350.768,-76.431,25639.458685
1 Jan 2020 16:21:13.000,348.680,-76.478,25593.596883
1 Jan 2020 16:21:43.000,346.571,-76.521,25552.619827
1 Jan 2020 16:22:13.000,344.443,-76.559,25516.625877
1 Jan 2020 16:22:43.000,342.297,-76.593,25485.706302
1 Jan 2020 16:23:13.000,340.137,-76.621,25459.944834
1 Jan 2020 16:23:43.000,337.964,-76.644,25439.417455
1 Jan 2020 16:24:13.000,335.782,-76.661,25424.192098
1 Jan 2020 16:24:43.000,333.593,-76.672,25414.328390
1 Jan 2020 16:25:13.000,331.401,-76.677,25409.877473
1 Jan 2020 16:25:43.000,329.208,-76.676,25410.881668
1 Jan 2020 16:26:13.000,327.017,-76.669,25417.374509
1 Jan 2020 16:26:43.000,324.832,-76.655,25429.380499
1 Jan 2020 16:27:13.000,322.655,-76.636,25446.915038
1 Jan 2020 16:27:43.000,320.490,-76.610,25469.984373
1 Jan 2020 16:28:13.000,318.340,-76.579,25498.585662
1 Jan 2020 16:28:43.000,316.208,-76.543,25532.706634
1 Jan 2020 16:29:13.000,314.095,-76.501,25572.326154
1 Jan 2020 16:29:43.000,312.006,-76.455,25617.413973
1 Jan 2020 16:30:13.000,309.941,-76.404,25667.930927
1 Jan 2020 16:30:43.000,307.904,-76.349,25723.829082
1 Jan 2020 16:31:13.000,305.895,-76.290,25785.052059
1 Jan 2020 16:31:43.000,303.917,-76.228,25851.534692
1 Jan 2020 16:32:13.000,301.971,-76.164,25923.204077
1 Jan 2020 16:32:43.000,300.058,-76.097,25999.979305
1 Jan 2020 16:33:13.000,298.179,-76.029,26081.771871
1 Jan 2020 16:33:43.000,296.335,-75.960,26168.485989
1 Jan 2020 16:34:13.000,294.526,-75.891,26260.018906
1 Jan 2020 16:34:43.000,292.752,-75.821,26356.261450
1 Jan 2020 16:35:13.000,291.014,-75.752,26457.097577
1 Jan 2020 16:35:43.000,289.312,-75.684,26562.405920
1 Jan 2020 16:36:13.000,287.645,-75.617,26672.059379
1 Jan 2020 16:36:43.000,286.012,-75.553,26785.925681
1 Jan 2020 16:37:13.000,284.415,-75.491,26903.867762
1 Jan 2020 16:37:43.000,282.851,-75.432,27025.744142
1 Jan 2020 16:38:13.000,281.320,-75.376,27151.409301
1 Jan 2020 16:38:43.000,279.822,-75.324,27280.714281
1 Jan 2020 16:39:13.000,278.355,-75.276,27413.506135
1 Jan 2020 16:39:43.000,276.919,-75.233,27549.629653
1 Jan 2020 16:40:13.000,275.513,-75.194,27688.926813
1 Jan 2020 16:40:43.000,274.136,-75.160,27831.237337
1 Jan 2020 16:41:13.000,272.786,-75.132,27976.399033
1 Jan 2020 16:41:43.000,271.463,-75.110,28124.248107
1 Jan 2020 16:42:13.000,270.166,-75.093,28274.619471
1 Jan 2020 16:42:43.000,268.893,-75.082,28427.347041
1 Jan 2020 16:43:13.000,267.643,-75.078,28582.264015
1 Jan 2020 16:43:18.303,267.425,-75.078,28609.861267
1 Jan 2020 17:47:15.143,72.862,-75.070,28605.608549
1 Jan 2020 17:47:45.000,72.438,-75.076,28390.606991
1 Jan 2020 17:48:15.000,72.017,-75.095,28174.469438
1 Jan 2020 17:48:45.000,71.599,-75.126,27958.424376
1 Jan 2020 17:49:15.000,71.184,-75.171,27742.673479
1 Jan 2020 17:49:45.000,70.770,-75.230,27527.423224
1 Jan 2020 17:50:15.000,70.358,-75.302,27312.884859
1 Jan 2020 17:50:45.000,69.947,-75.388,27099.274350
1 Jan 2020 17:51:15.000,69.534,-75.489,26886.812318
1 Jan 2020 17:51:45.000,69.121,-75.604,26675.723940
1 Jan 2020 17:52:15.000,68.705,-75.735,26466.238840
1 Jan 2020 17:52:45.000,68.286,-75.880,26258.590944
1 Jan 2020 17:53:15.000,67.862,-76.041,26053.018309
1 Jan 2020 17:53:45.000,67.432,-76.218,25849.762923
1 Jan 2020 17:54:15.000,66.996,-76.410,25649.070467
1 Jan 2020 17:54:45.000,66.550,-76.618,25451.190040
1 Jan 2020 17:55:15.000,66.094,-76.842,25256.373849
1 Jan 2020 17:55:45.000,65.626,-77.083,25064.876549
1 Jan 2020 17:56:15.000,65.144,-77.340,24876.956072
1 Jan 2020 17:56:45.000,64.645,-77.612,24692.871330
1 Jan 2020 17:57:15.000,64.126,-77.902,24512.882966
1 Jan 2020 17:57:45.000,63.585,-78.207,24337.252499
1 Jan 2020 17:58:15.000,63.017,-78.528,24166.241730
1 Jan 2020 17:58:45.000,62.419,-78.865,24000.112105
1 Jan 2020 17:59:15.000,61.785,-79.218,23839.123734
1 Jan 2020 17:59:45.000,61.110,-79.586,23683.535784
1 Jan 2020 18:00:15.000,60.386,-79.968,23533.603972
1 Jan 2020 18:00:45.000,59.605,-80.366,23389.580880
1 Jan 2020 18:01:15.000,58.756,-80.777,23251.714785
1 Jan 2020 18:01:45.000,57.828,-81.201,23120.248526
1 Jan 2020 18:02:15.000,56.803,-81.638,22995.419407
1 Jan 2020 18:02:45.000,55.663,-82.086,22877.456923
1 Jan 2020 18:03:15.000,54.383,-82.544,22766.582638
1 Jan 2020 18:03:45.000,52.930,-83.011,22663.008952
1 Jan 2020 18:04:15.000,51.264,-83.486,22566.937919
1 Jan 2020 18:04:45.000,49.329,-83.966,22478.560953
1 Jan 2020 18:05:15.000,47.051,-84.448,22398.056761
1 Jan 2020 18:05:45.000,44.331,-84.931,22325.591123
1 Jan 2020 18:06:15.000,41.031,-85.408,22261.315703
1 Jan 2020 18:06:45.000,36.962,-85.875,22205.367587
1 Jan 2020 18:07:15.000,31.862,-86.324,22157.867867
1 Jan 2020 18:07:45.000,25.383,-86.741,22118.921354
1 Jan 2020 18:08:15.000,17.111,-87.110,22088.615792
1 Jan 2020 18:08:45.000,6.671,-87.407,22067.021497
1 Jan 2020 18:09:15.000,354.043,-87.602,22054.190636
1 Jan 2020 18:09:45.000,339.972,-87.667,22050.157106
1 Jan 2020 18:10:15.000,325.968,-87.591,22054.936295
1 Jan 2020 18:10:45.000,313.503,-87.386,22068.524900
1 Jan 2020 18:11:15.000,303.256,-87.082,22090.901059
1 Jan 2020 18:11:45.000,295.162,-86.707,22122.024443
1 Jan 2020 18:12:15.000,288.838,-86.286,22161.836611
1 Jan 2020 18:12:45.000,283.870,-85.834,22210.261044
1 Jan 2020 18:13:15.000,279.918,-85.364,22267.204112
1 Jan 2020 18:13:45.000,276.727,-84.884,22332.555341
1 Jan 2020 18:14:15.000,274.111,-84.400,22406.188301
1 Jan 2020 18:14:45.000,271.937,-83.915,22487.960787
1 Jan 2020 18:15:15.000,270.107,-83.433,22577.716467
1 Jan 2020 18:15:45.000,268.549,-82.956,22675.285223
1 Jan 2020 18:16:15.000,267.210,-82.487,22780.484387
1 Jan 2020 18:16:45.000,266.048,-82.026,22893.118984
1 Jan 2020 18:17:15.000,265.033,-81.577,23012.983781
1 Jan 2020 18:17:45.000,264.140,-81.138,23139.863592
1 Jan 2020 18:18:15.000,263.350,-80.712,23273.534449
1 Jan 2020 18:18:45.000,262.647,-80.300,23413.764861
1 Jan 2020 18:19:15.000,262.020,-79.901,23560.315766
1 Jan 2020 18:19:45.000,261.458,-79.517,23712.943022
1 Jan 2020 18:20:15.000,260.954,-79.148,23871.397327
1 Jan 2020 18:20:45.000,260.499,-78.794,24035.425362
1 Jan 2020 18:21:15.000,260.089,-78.457,24204.770652
1 Jan 2020 18:21:45.000,259.718,-78.135,24379.174672
1 Jan 2020 18:22:15.000,259.383,-77.830,24558.376412
1 Jan 2020 18:22:45.000,259.080,-77.541,24742.114887
1 Jan 2020 18:23:15.000,258.806,-77.268,24930.128614
1 Jan 2020 18:23:45.000,258.558,-77.012,25122.156523
1 Jan 2020 18:24:15.000,258.336,-76.773,25317.938521
1 Jan 2020 18:24:45.000,258.135,-76.550,25517.216007
1 Jan 2020 18:25:15.000,257.956,-76.344,25719.732344
1 Jan 2020 18:25:45.000,257.797,-76.154,25925.233277
1 Jan 2020 18:26:15.000,257.655,-75.980,26133.467307
1 Jan 2020 18:26:45.000,257.531,-75.822,26344.186390
1 Jan 2020 18:27:15.000,257.423,-75.680,26557.144796
1 Jan 2020 18:27:45.000,257.330,-75.554,26772.101505
1 Jan 2020 18:28:15.000,257.253,-75.443,26988.819009
1 Jan 2020 18:28:45.000,257.189,-75.347,27207.063851
1 Jan 2020 18:29:15.000,257.139,-75.266,27426.606785
1 Jan 2020 18:29:45.000,257.102,-75.200,27647.222910
1 Jan 2020 18:30:15.000,257.078,-75.148,27868.691768
1 Jan 2020 18:30:45.000,257.066,-75.110,28090.797439
1 Jan 2020 18:31:15.000,257.066,-75.086,28313.328590
1 Jan 2020 18:31:45.000,257.078,-75.076,28536.078530
1 Jan 2020 18:31:54.091,257.084,-75.075,28603.591224
1 Jan 2020 19:35:07.114,84.440,-75.066,28598.363365
1 Jan 2020 19:35:37.000,85.343,-75.070,28409.199232
1 Jan 2020 19:36:07.000,86.275,-75.085,28220.766049
1 Jan 2020 19:36:37.000,87.231,-75.109,28033.981361
1 Jan 2020 19:37:07.000,88.214,-75.142,27849.040876
1 Jan 2020 19:37:37.000,89.226,-75.184,27666.141768
1 Jan 2020 19:38:07.000,90.268,-75.236,27485.482441
1 Jan 2020 19:38:37.000,91.342,-75.297,27307.262271
1 Jan 2020 19:39:07.000,92.449,-75.367,27131.681325
1 Jan 2020 19:39:37.000,93.592,-75.445,26958.940059
1 Jan 2020 19:40:07.000,94.773,-75.532,26789.238992
1 Jan 2020 19:40:37.000,95.993,-75.627,26622.778355
1 Jan 2020 19:41:07.000,97.255,-75.730,26459.757438
1 Jan 2020 19:41:37.000,98.560,-75.840,26300.375324
1 Jan 2020 19:42:07.000,99.912,-75.958,26144.828765
1 Jan 2020 19:42:37.000,101.312,-76.081,25993.312878
1 Jan 2020 19:43:07.000,102.763,-76.211,25846.020398
1 Jan 2020 19:43:37.000,104.267,-76.346,25703.141193
1 Jan 2020 19:44:07.000,105.826,-76.485,25564.861760
1 Jan 2020 19:44:37.000,107.444,-76.628,25431.364454
1 Jan 2020 19:45:07.000,109.121,-76.775,25302.827963
1 Jan 2020 19:45:37.000,110.861,-76.924,25179.425241
1 Jan 2020 19:46:07.000,112.665,-77.075,25061.323969
1 Jan 2020 19:46:37.000,114.535,-77.226,24948.685743
1 Jan 2020 19:47:07.000,116.473,-77.377,24841.665511
1 Jan 2020 19:47:37.000,118.480,-77.526,24740.410801
1 Jan 2020 19:48:07.000,120.557,-77.673,24645.062016
1 Jan 2020 19:48:37.000,122.705,-77.816,24555.750609
1 Jan 2020 19:49:07.000,124.923,-77.954,24472.599419
1 Jan 2020 19:49:37.000,127.211,-78.087,24395.721949
1 Jan 2020 19:50:07.000,129.567,-78.213,24325.221740
1 Jan 2020 19:50:37.000,131.988,-78.331,24261.192512
1 Jan 2020 19:51:07.000,134.473,-78.439,24203.716845
1 Jan 2020 19:51:37.000,137.017,-78.538,24152.866415
1 Jan 2020 19:52:07.000,139.614,-78.625,24108.701507
1 Jan 2020 19:52:37.000,142.260,-78.701,24071.270632
1 Jan 2020 19:53:07.000,144.948,-78.764,24040.610692
1 Jan 2020 19:53:37.000,147.670,-78.813,24016.746179
1 Jan 2020 19:54:07.000,150.418,-78.849,23999.689477
1 Jan 2020 19:54:37.000,153.185,-78.871,23989.440681
1 Jan 2020 19:55:07.000,155.961,-78.878,23985.987551
1 Jan 2020 19:55:37.000,158.737,-78.872,23989.305723
1 Jan 2020 19:56:07.000,161.505,-78.850,23999.358553
1 Jan 2020 19:56:37.000,164.256,-78.816,24016.097469
1 Jan 2020 19:57:07.000,166.982,-78.767,24039.462141
1 Jan 2020 19:57:37.000,169.676,-78.706,24069.380774
1 Jan 2020 19:58:07.000,172.330,-78.633,24105.770354
1 Jan 2020 19:58:37.000,174.940,-78.548,24148.537121
1 Jan 2020 19:59:07.000,177.500,-78.453,24197.576917
1 Jan 2020 19:59:37.000,180.005,-78.349,24252.775660
1 Jan 2020 20:00:07.000,182.453,-78.236,24314.009890
1 Jan 2020 20:00:37.000,184.841,-78.115,24381.147014
1 Jan 2020 20:01:07.000,187.167,-77.989,24454.046241
1 Jan 2020 20:01:37.000,189.431,-77.857,24532.558885
1 Jan 2020 20:02:07.000,191.633,-77.721,24616.529000
1 Jan 2020 20:02:37.000,193.773,-77.582,24705.793960
1 Jan 2020 20:03:07.000,195.851,-77.440,24800.185182
1 Jan 2020 20:03:37.000,197.869,-77.298,24899.528195
1 Jan 2020 20:04:07.000,199.829,-77.155,25003.643988
1 Jan 2020 20:04:37.000,201.732,-77.012,25112.349090
1 Jan 2020 20:05:07.000,203.580,-76.871,25225.456260
1 Jan 2020 20:05:37.000,205.377,-76.733,25342.775042
1 Jan 2020 20:06:07.000,207.124,-76.597,25464.112300
1 Jan 2020 20:06:37.000,208.823,-76.464,25589.272743
1 Jan 2020 20:07:07.000,210.477,-76.335,25718.059610
1 Jan 2020 20:07:37.000,212.089,-76.211,25850.274387
1 Jan 2020 20:08:07.000,213.661,-76.092,25985.718395
1 Jan 2020 20:08:37.000,215.195,-75.979,26124.192471
1 Jan 2020 20:09:07.000,216.693,-75.871,26265.497555
1 Jan 2020 20:09:37.000,218.159,-75.769,26409.435069
1 Jan 2020 20:10:07.000,219.594,-75.673,26555.807275
1 Jan 2020 20:10:37.000,221.001,-75.585,26704.417600
1 Jan 2020 20:11:07.000,222.380,-75.503,26855.070941
1 Jan 2020 20:11:37.000,223.736,-75.428,27007.573947
1 Jan 2020 20:12:07.000,225.069,-75.360,27161.735275
1 Jan 2020 20:12:37.000,226.381,-75.299,27317.365822
1 Jan 2020 20:13:07.000,227.675,-75.245,27474.278940
1 Jan 2020 20:13:37.000,228.951,-75.199,27632.290626
1 Jan 2020 20:14:07.000,230.212,-75.160,27791.219695
1 Jan 2020 20:14:37.000,231.460,-75.128,27950.887934
1 Jan 2020 20:15:07.000,232.695,-75.104,28111.120233
1 Jan 2020 20:15:37.000,233.920,-75.086,28271.744712
1 Jan 2020 20:16:07.000,235.135,-75.076,28432.592819
1 Jan 2020 20:16:37.000,236.342,-75.072,28593.499423
1 Jan 2020 20:16:37.635,236.368,-75.072,28596.903423
1 Jan 2020 21:27:19.942,102.963,-75.063,28593.106718
1 Jan 2020 21:27:49.000,104.628,-75.063,28567.051678
1 Jan 2020 21:28:19.000,106.353,-75.064,28543.351160
1 Jan 2020 21:28:49.000,108.081,-75.064,28522.916912
1 Jan 2020 21:29:19.000,109.814,-75.065,28505.760002
1 Jan 2020 21:29:49.000,111.549,-75.065,28491.886319
1 Jan 2020 21:30:19.000,113.287,-75.066,28481.296566
1 Jan 2020 21:30:49.000,115.026,-75.066,28473.986257
1 Jan 2020 21:31:19.000,116.767,-75.066,28469.945735
1 Jan 2020 21:31:49.000,118.509,-75.066,28469.160199
1 Jan 2020 21:32:19.000,120.251,-75.066,28471.609732
1 Jan 2020 21:32:49.000,121.993,-75.066,28477.269427
1 Jan 2020 21:33:19.000,123.734,-75.066,28486.109336
1 Jan 2020 21:33:49.000,125.473,-75.066,28498.094640
1 Jan 2020 21:34:19.000,127.211,-75.066,28513.185715
1 Jan 2020 21:34:49.000,128.946,-75.065,28531.338234
1 Jan 2020 21:35:19.000,130.678,-75.065,28552.503288
1 Jan 2020 21:35:49.000,132.406,-75.065,28576.627507
1 Jan 2020 21:36:07.757,133.485,-75.065,28593.188660
1 Jan 2020 22:40:51.380,344.755,-75.064,28592.751630
1 Jan 2020 22:41:21.000,346.337,-75.065,28504.916196
1 Jan 2020 22:41:51.000,347.950,-75.068,28417.163223
1 Jan 2020 22:42:21.000,349.572,-75.073,28330.755808
1 Jan 2020 22:42:51.000,351.204,-75.080,28245.824189
1 Jan 2020 22:43:21.000,352.847,-75.088,28162.498558
1 Jan 2020 22:43:51.000,354.502,-75.098,28080.908844
1 Jan 2020 22:44:21.000,356.168,-75.110,28001.184496
1 Jan 2020 22:44:51.000,357.846,-75.123,27923.454259
1 Jan 2020 22:45:21.000,359.536,-75.138,27847.845936
1 Jan 2020 22:45:51.000,1.238,-75.154,27774.486148
1 Jan 2020 22:46:21.000,2.954,-75.170,27703.500088
1 Jan 2020 22:46:51.000,4.681,-75.188,27635.011266
1 Jan 2020 22:47:21.000,6.422,-75.206,27569.141250
1 Jan 2020 22:47:51.000,8.176,-75.225,27506.009403
1 Jan 2020 22:48:21.000,9.942,-75.244,27445.732568
1 Jan 2020 22:48:51.000,11.720,-75.263,27388.425007
1 Jan 2020 22:49:21.000,13.511,-75.281,27334.197807
1 Jan 2020 22:49:51.000,15.314,-75.300,27283.158833
1 Jan 2020 22:50:21.000,17.128,-75.318,27235.412400
1 Jan 2020 22:50:51.000,18.953,-75.336,27191.059006
1 Jan 2020 22:51:21.000,20.789,-75.353,27150.195071
1 Jan 2020 22:51:51.000,22.634,-75.368,27112.912676
1 Jan 2020 22:52:21.000,24.489,-75.383,27079.299309
1 Jan 2020 22:52:51.000,26.352,-75.396,27049.437623
1 Jan 2020 22:53:21.000,28.222,-75.408,27023.405217
1 Jan 2020 22:53:51.000,30.099,-75.418,27001.274370
1 Jan 2020 22:54:21.000,31.981,-75.427,26983.111865
1 Jan 2020 22:54:51.000,33.867,-75.433,26968.978774
1 Jan 2020 22:55:21.000,35.757,-75.438,26958.930278
1 Jan 2020 22:55:51.000,37.648,-75.441,26953.015495
1 Jan 2020 22:56:21.000,39.541,-75.442,26951.277327
1 Jan 2020 22:56:51.000,41.432,-75.440,26953.752373
1 Jan 2020 22:57:21.000,43.322,-75.437,26960.470634
1 Jan 2020 22:57:51.000,45.209,-75.432,26971.455670
1 Jan 2020 22:58:21.000,47.092,-75.425,26986.724364
1 Jan 2020 22:58:51.000,48.969,-75.415,27006.286900
1 Jan 2020 22:59:21.000,50.839,-75.404,27030.146732
1 Jan 2020 22:59:51.000,52.701,-75.392,27058.300568
1 Jan 2020 23:00:21.000,54.554,-75.377,27090.738376
1 Jan 2020 23:00:51.000,56.396,-75.362,27127.443512
1 Jan 2020 23:01:21.000,58.227,-75.344,27168.392375
1 Jan 2020 23:01:51.000,60.045,-75.326,27213.555055
1 Jan 2020 23:02:21.000,61.850,-75.307,27262.895046
1 Jan 2020 23:02:51.000,63.640,-75.287,27316.369438
1 Jan 2020 23:03:21.000,65.415,-75.267,27373.929048
1 Jan 2020 23:03:51.000,67.174,-75.246,27435.518560
1 Jan 2020 23:04:21.000,68.917,-75.225,27501.076684
1 Jan 2020 23:04:51.000,70.643,-75.204,27570.536470
1 Jan 2020 23:05:21.000,72.351,-75.184,27643.824934
1 Jan 2020 23:05:51.000,74.041,-75.165,27720.864088
1 Jan 2020 23:06:21.000,75.713,-75.146,27801.570604
1 Jan 2020 23:06:51.000,77.367,-75.129,27885.856169
1 Jan 2020 23:07:21.000,79.001,-75.113,27973.627707
1 Jan 2020 23:07:51.000,80.618,-75.099,28064.787625
1 Jan 2020 23:08:21.000,82.215,-75.087,28159.234043
1 Jan 2020 23:08:51.000,83.794,-75.077,28256.861047
1 Jan 2020 23:09:21.000,85.354,-75.069,28357.558931
1 Jan 2020 23:09:51.000,86.897,-75.064,28461.214640
1 Jan 2020 23:10:21.000,88.421,-75.062,28567.711269
1 Jan 2020 23:10:28.012,88.775,-75.062,28592.998879
2 Jan 2020 00:15:57.001,292.997,-75.070,28596.474087
2 Jan 2020 00:16:27.000,293.817,-75.075,28399.807557
2 Jan 2020 00:16:57.000,294.639,-75.090,28202.984639
2 Jan 2020 00:17:27.000,295.465,-75.116,28006.194597
2 Jan 2020 00:17:57.000,296.297,-75.153,27809.626103
2 Jan 2020 00:18:27.000,297.135,-75.201,27613.472229
2 Jan 2020 00:18:57.000,297.982,-75.260,27417.930392
2 Jan 2020 00:19:27.000,298.839,-75.331,27223.202290
2 Jan 2020 00:19:57.000,299.708,-75.414,27029.493815
2 Jan 2020 00:20:27.000,300.591,-75.508,26837.014950
2 Jan 2020 00:20:57.000,301.489,-75.615,26645.979640
2 Jan 2020 00:21:27.000,302.405,-75.733,26456.605646
2 Jan 2020 00:21:57.000,303.341,-75.864,26269.114364
2 Jan 2020 00:22:27.000,304.299,-76.006,26083.730624
2 Jan 2020 00:22:57.000,305.283,-76.161,25900.682456
2 Jan 2020 00:23:27.000,306.295,-76.328,25720.200824
2 Jan 2020 00:23:57.000,307.338,-76.508,25542.519330
2 Jan 2020 00:24:27.000,308.417,-76.699,25367.873878
2 Jan 2020 00:24:57.000,309.534,-76.901,25196.502038
2 Jan 2020 00:25:27.000,310.694,-77.116,25028.643706
2 Jan 2020 00:25:57.000,311.902,-77.341,24864.539045
2 Jan 2020 00:26:27.000,313.163,-77.578,24704.429070
2 Jan 2020 00:26:57.000,314.482,-77.824,24548.554854
2 Jan 2020 00:27:27.000,315.867,-78.081,24397.156954
2 Jan 2020 00:27:57.000,317.323,-78.346,24250.474796
2 Jan 2020 00:28:27.000,318.859,-78.620,24108.745806
2 Jan 2020 00:28:57.000,320.482,-78.901,23972.205615
2 Jan 2020 00:29:27.000,322.203,-79.189,23841.085976
2 Jan 2020 00:29:57.000,324.032,-79.482,23715.614915
2 Jan 2020 00:30:27.000,325.979,-79.778,23596.015719
2 Jan 2020 00:30:57.000,328.058,-80.077,23482.506116
2 Jan 2020 00:31:27.000,330.281,-80.377,23375.297269
2 Jan 2020 00:31:57.000,332.661,-80.674,23274.593649
2 Jan 2020 00:32:27.000,335.214,-80.969,23180.591077
2 Jan 2020 00:32:57.000,337.953,-81.256,23093.476616
2 Jan 2020 00:33:27.000,340.893,-81.535,23013.427534
2 Jan 2020 00:33:57.000,344.046,-81.802,22940.610365
2 Jan 2020 00:34:27.000,347.422,-82.054,22875.180544
2 Jan 2020 00:34:57.000,351.027,-82.287,22817.280946
2 Jan 2020 00:35:27.000,354.862,-82.498,22767.041628
2 Jan 2020 00:35:57.000,358.919,-82.683,22724.578978
2 Jan 2020 00:36:27.000,3.183,-82.838,22689.995282
2 Jan 2020 00:36:57.000,7.627,-82.961,22663.377870
2 Jan 2020 00:37:27.000,12.215,-83.049,22644.798848
2 Jan 2020 00:37:57.000,16.900,-83.099,22634.314652
2 Jan 2020 00:38:27.000,21.629,-83.110,22631.965705
2 Jan 2020 00:38:57.000,26.346,-83.082,22637.776219
2 Jan 2020 00:39:27.000,30.994,-83.015,22651.754062
2 Jan 2020 00:39:57.000,35.522,-82.911,22673.890790
2 Jan 2020 00:40:27.000,39.887,-82.773,22704.161455
2 Jan 2020 00:40:57.000,44.055,-82.603,22742.525118
2 Jan 2020 00:41:27.000,48.002,-82.404,22788.924875
2 Jan 2020 00:41:57.000,51.716,-82.180,22843.288365
2 Jan 2020 00:42:27.000,55.192,-81.934,22905.527726
2 Jan 2020 00:42:57.000,58.432,-81.671,22975.540768
2 Jan 2020 00:43:27.000,61.444,-81.393,23053.211107
2 Jan 2020 00:43:57.000,64.238,-81.104,23138.408901
2 Jan 2020 00:44:27.000,66.828,-80.807,23230.991748
2 Jan 2020 00:44:57.000,69.227,-80.504,23330.804587
2 Jan 2020 00:45:27.000,71.451,-80.198,23437.681700
2 Jan 2020 00:45:57.000,73.512,-79.891,23551.446703
2 Jan 2020 00:46:27.000,75.425,-79.586,23671.913567
2 Jan 2020 00:46:57.000,77.203,-79.283,23798.887692
2 Jan 2020 00:47:27.000,78.856,-78.985,23932.165779
2 Jan 2020 00:47:57.000,80.397,-78.693,24071.538095
2 Jan 2020 00:48:27.000,81.834,-78.407,24216.788354
2 Jan 2020 00:48:57.000,83.178,-78.130,24367.694752
2 Jan 2020 00:49:27.000,84.435,-77.862,24524.030756
2 Jan 2020 00:49:57.000,85.613,-77.604,24685.566159
2 Jan 2020 00:50:27.000,86.719,-77.356,24852.066627
2 Jan 2020 00:50:57.000,87.760,-77.120,25023.296152
2 Jan 2020 00:51:27.000,88.739,-76.895,25199.016548
2 Jan 2020 00:51:57.000,89.663,-76.683,25378.988362
2 Jan 2020 00:52:27.000,90.534,-76.483,25562.971456
2 Jan 2020 00:52:57.000,91.359,-76.296,25750.725547
2 Jan 2020 00:53:27.000,92.139,-76.122,25942.010714
2 Jan 2020 00:53:57.000,92.878,-75.961,26136.587859
2 Jan 2020 00:54:27.000,93.580,-75.813,26334.219481
2 Jan 2020 00:54:57.000,94.246,-75.679,26534.668673
2 Jan 2020 00:55:27.000,94.879,-75.558,26737.701552
2 Jan 2020 00:55:57.000,95.482,-75.451,26943.086189
2 Jan 2020 00:56:27.000,96.056,-75.357,27150.593240
2 Jan 2020 00:56:57.000,96.603,-75.276,27359.996193
2 Jan 2020 00:57:27.000,97.125,-75.209,27571.071591
2 Jan 2020 00:57:57.000,97.623,-75.154,27783.599222
2 Jan 2020 00:58:27.000,98.098,-75.113,27997.362286
2 Jan 2020 00:58:57.000,98.553,-75.084,28212.147541
2 Jan 2020 00:59:27.000,98.988,-75.068,28427.745418
2 Jan 2020 00:59:50.660,99.318,-75.065,28598.219245
2 Jan 2020 02:02:46.658,278.697,-75.074,28603.378016
2 Jan 2020 02:03:16.000,278.207,-75.079,28394.786508
2 Jan 2020 02:03:46.000,277.686,-75.097,28182.273224
2 Jan 2020 02:04:16.000,277.143,-75.127,27970.727340
2 Jan 2020 02:04:46.000,276.578,-75.170,27760.358418
2 Jan 2020 02:05:16.000,275.989,-75.225,27551.379401
2 Jan 2020 02:05:46.000,275.375,-75.293,27344.006470
2 Jan 2020 02:06:16.000,274.733,-75.373,27138.458879
2 Jan 2020 02:06:46.000,274.062,-75.466,26934.958762
2 Jan 2020 02:07:16.000,273.360,-75.572,26733.730921
2 Jan 2020 02:07:46.000,272.625,-75.691,26535.002577
2 Jan 2020 02:08:16.000,271.854,-75.823,26339.003096
2 Jan 2020 02:08:46.000,271.045,-75.967,26145.963686
2 Jan 2020 02:09:16.000,270.196,-76.123,25956.117055
2 Jan 2020 02:09:46.000,269.302,-76.292,25769.696709
2 Jan 2020 02:10:16.000,268.361,-76.473,25586.937865
2 Jan 2020 02:10:46.000,267.369,-76.665,25408.075016
2 Jan 2020 02:11:16.000,266.322,-76.869,25233.342781
2 Jan 2020 02:11:46.000,265.215,-77.084,25062.975052
2 Jan 2020 02:12:16.000,264.044,-77.309,24897.204435
2 Jan 2020 02:12:46.000,262.804,-77.544,24736.261664
2 Jan 2020 02:13:16.000,261.488,-77.788,24580.374669
2 Jan 2020 02:13:46.000,260.091,-78.040,24429.769112
2 Jan 2020 02:14:16.000,258.605,-78.300,24284.665897
2 Jan 2020 02:14:46.000,257.023,-78.566,24145.281648
2 Jan 2020 02:15:16.000,255.337,-78.837,24011.827672
2 Jan 2020 02:15:46.000,253.539,-79.111,23884.508964
2 Jan 2020 02:16:16.000,251.618,-79.388,23763.524325
2 Jan 2020 02:16:46.000,249.567,-79.666,23649.064211
2 Jan 2020 02:17:16.000,247.374,-79.942,23541.310858
2 Jan 2020 02:17:46.000,245.030,-80.216,23440.437257
2 Jan 2020 02:18:16.000,242.526,-80.484,23346.606184
2 Jan 2020 02:18:46.000,239.851,-80.744,23259.970219
2 Jan 2020 02:19:16.000,237.000,-80.994,23180.669817
2 Jan 2020 02:19:46.000,233.964,-81.231,23108.833418
2 Jan 2020 02:20:16.000,230.743,-81.453,23044.576459
2 Jan 2020 02:20:46.000,227.335,-81.656,22988.001262
2 Jan 2020 02:21:16.000,223.748,-81.837,22939.195722
2 Jan 2020 02:21:46.000,219.991,-81.994,22898.233345
2 Jan 2020 02:22:16.000,216.083,-82.124,22865.172623
2 Jan 2020 02:22:46.000,212.046,-82.225,22840.057005
2 Jan 2020 02:23:16.000,207.911,-82.295,22822.914168
2 Jan 2020 02:23:46.000,203.713,-82.333,22813.756176
2 Jan 2020 02:24:16.000,199.488,-82.338,22812.579295
2 Jan 2020 02:24:46.000,195.278,-82.310,22819.364096
2 Jan 2020 02:25:16.000,191.119,-82.249,22834.075396
2 Jan 2020 02:25:46.000,187.048,-82.157,22856.662559
2 Jan 2020 02:26:16.000,183.094,-82.037,22887.059778
2 Jan 2020 02:26:46.000,179.282,-81.889,22925.186304
2 Jan 2020 02:27:16.000,175.630,-81.717,22970.947042
2 Jan 2020 02:27:46.000,172.149,-81.523,23024.232965
2 Jan 2020 02:28:16.000,168.846,-81.311,23084.921702
2 Jan 2020 02:28:46.000,165.721,-81.083,23152.878283
2 Jan 2020 02:29:16.000,162.772,-80.841,23227.955379
2 Jan 2020 02:29:46.000,159.994,-80.590,23309.994663
2 Jan 2020 02:30:16.000,157.378,-80.330,23398.827158
2 Jan 2020 02:30:46.000,154.916,-80.065,23494.274120
2 Jan 2020 02:31:16.000,152.598,-79.797,23596.147998
2 Jan 2020 02:31:46.000,150.413,-79.527,23704.252620
2 Jan 2020 02:32:16.000,148.353,-79.258,23818.384936
2 Jan 2020 02:32:46.000,146.407,-78.990,23938.335221
2 Jan 2020 02:33:16.000,144.566,-78.726,24063.888029
2 Jan 2020 02:33:46.000,142.822,-78.466,24194.822973
2 Jan 2020 02:34:16.000,141.166,-78.212,24330.915711
2 Jan 2020 02:34:46.000,139.590,-77.964,24471.937821
2 Jan 2020 02:35:16.000,138.087,-77.724,24617.658791
2 Jan 2020 02:35:46.000,136.651,-77.493,24767.845848
2 Jan 2020 02:36:16.000,135.277,-77.270,24922.264815
2 Jan 2020 02:36:46.000,133.958,-77.057,25080.680710
2 Jan 2020 02:37:16.000,132.689,-76.854,25242.858316
2 Jan 2020 02:37:46.000,131.466,-76.661,25408.562711
2 Jan 2020 02:38:16.000,130.285,-76.478,25577.559758
2 Jan 2020 02:38:46.000,129.142,-76.307,25749.616838
2 Jan 2020 02:39:16.000,128.033,-76.146,25924.502141
2 Jan 2020 02:39:46.000,126.954,-75.997,26101.986722
2 Jan 2020 02:40:16.000,125.904,-75.859,26281.843732
2 Jan 2020 02:40:46.000,124.878,-75.732,26463.848997
2 Jan 2020 02:41:16.000,123.875,-75.617,26647.781299
2 Jan 2020 02:41:46.000,122.892,-75.513,26833.422615
2 Jan 2020 02:42:16.000,121.927,-75.420,27020.558336
2 Jan 2020 02:42:46.000,120.978,-75.339,27208.977449
2 Jan 2020 02:43:16.000,120.043,-75.268,27398.472708
2 Jan 2020 02:43:46.000,119.119,-75.209,27588.840760
2 Jan 2020 02:44:16.000,118.206,-75.160,27779.882273
2 Jan 2020 02:44:46.000,117.301,-75.122,27971.402025
2 Jan 2020 02:45:16.000,116.403,-75.094,28163.208983
2 Jan 2020 02:45:46.000,115.511,-75.076,28355.116367
2 Jan 2020 02:46:16.000,114.623,-75.068,28546.941695
2 Jan 2020 02:46:25.124,114.354,-75.068,28605.236105
2 Jan 2020 03:52:20.353,267.895,-75.077,28609.762318
2 Jan 2020 03:52:50.000,266.351,-75.078,28514.011118
2 Jan 2020 03:53:20.000,264.773,-75.082,28420.013686
2 Jan 2020 03:53:50.000,263.178,-75.087,28329.033965
2 Jan 2020 03:54:20.000,261.566,-75.095,28241.173954
2 Jan 2020 03:54:50.000,259.938,-75.104,28156.531765
2 Jan 2020 03:55:20.000,258.293,-75.115,28075.201393
2 Jan 2020 03:55:50.000,256.632,-75.127,27997.272491
2 Jan 2020 03:56:20.000,254.955,-75.140,27922.830151
2 Jan 2020 03:56:50.000,253.262,-75.154,27851.954695
2 Jan 2020 03:57:20.000,251.553,-75.168,27784.721329
2 Jan 2020 03:57:50.000,249.829,-75.183,27721.200493
2 Jan 2020 03:58:20.000,248.091,-75.199,27661.456859
2 Jan 2020 03:58:50.000,246.338,-75.214,27605.549703
2 Jan 2020 03:59:20.000,244.572,-75.229,27553.532610
2 Jan 2020 03:59:50.000,242.793,-75.243,27505.453322
2 Jan 2020 04:00:20.000,241.003,-75.257,27461.353610
2 Jan 2020 04:00:50.000,239.201,-75.270,27421.269156
2 Jan 2020 04:01:20.000,237.388,-75.282,27385.229361
2 Jan 2020 04:01:50.000,235.567,-75.294,27353.257629
2 Jan 2020 04:02:20.000,233.737,-75.303,27325.370748
2 Jan 2020 04:02:50.000,231.900,-75.312,27301.579217
2 Jan 2020 04:03:20.000,230.057,-75.320,27281.887125
2 Jan 2020 04:03:50.000,228.208,-75.325,27266.292143
2 Jan 2020 04:04:20.000,226.355,-75.330,27254.785537
2 Jan 2020 04:04:50.000,224.500,-75.332,27247.352194
2 Jan 2020 04:05:20.000,222.642,-75.334,27243.970638
2 Jan 2020 04:05:50.000,220.784,-75.333,27244.613261
2 Jan 2020 04:06:20.000,218.926,-75.331,27249.246153
