STKdata/stk_70fov_6leo/Satellite-MEO_Satellite10204-To-Satellite-LEO_Satellite20000 AER.csv

"Time (UTCG)","Azimuth (deg)","Elevation (deg)","Range (km)"
1 Jan 2020 00:56:33.721,318.955,-75.985,26109.602620
1 Jan 2020 00:57:03.000,319.524,-76.157,25904.522776
1 Jan 2020 00:57:33.000,320.124,-76.350,25697.203681
1 Jan 2020 00:58:03.000,320.744,-76.560,25493.002965
1 Jan 2020 00:58:33.000,321.387,-76.787,25292.203173
1 Jan 2020 00:59:03.000,322.055,-77.030,25095.089798
1 Jan 2020 00:59:33.000,322.753,-77.290,24901.950790
1 Jan 2020 01:00:03.000,323.484,-77.566,24713.076000
1 Jan 2020 01:00:33.000,324.253,-77.859,24528.756569
1 Jan 2020 01:01:03.000,325.066,-78.168,24349.283945
1 Jan 2020 01:01:33.000,325.929,-78.493,24174.950388
1 Jan 2020 01:02:03.000,326.848,-78.833,24006.046294
1 Jan 2020 01:02:33.000,327.833,-79.189,23842.860591
1 Jan 2020 01:03:03.000,328.893,-79.559,23685.679502
1 Jan 2020 01:03:33.000,330.040,-79.942,23534.785344
1 Jan 2020 01:04:03.000,331.288,-80.338,23390.456396
1 Jan 2020 01:04:33.000,332.655,-80.747,23252.964446
1 Jan 2020 01:05:03.000,334.160,-81.165,23122.574589
1 Jan 2020 01:05:33.000,335.829,-81.592,22999.543842
1 Jan 2020 01:06:03.000,337.691,-82.027,22884.119751
1 Jan 2020 01:06:33.000,339.783,-82.466,22776.540019
1 Jan 2020 01:07:03.000,342.152,-82.908,22677.030047
1 Jan 2020 01:07:33.000,344.853,-83.348,22585.802596
1 Jan 2020 01:08:03.000,347.954,-83.784,22503.056277
1 Jan 2020 01:08:33.000,351.537,-84.210,22428.974930
1 Jan 2020 01:09:03.000,355.700,-84.619,22363.725759
1 Jan 2020 01:09:33.000,0.549,-85.004,22307.458854
1 Jan 2020 01:10:03.000,6.194,-85.356,22260.306060
1 Jan 2020 01:10:33.000,12.723,-85.662,22222.380424
1 Jan 2020 01:11:03.000,20.164,-85.910,22193.775012
1 Jan 2020 01:11:33.000,28.436,-86.087,22174.562618
1 Jan 2020 01:12:03.000,37.309,-86.180,22164.795198
1 Jan 2020 01:12:33.000,46.412,-86.183,22164.503545
1 Jan 2020 01:13:03.000,55.312,-86.096,22173.697033
1 Jan 2020 01:13:33.000,63.630,-85.924,22192.363612
1 Jan 2020 01:14:03.000,71.122,-85.680,22220.469957
1 Jan 2020 01:14:33.000,77.698,-85.376,22257.961421
1 Jan 2020 01:15:03.000,83.379,-85.025,22304.762801
1 Jan 2020 01:15:33.000,88.250,-84.640,22360.778609
1 Jan 2020 01:16:03.000,92.419,-84.230,22425.893897
1 Jan 2020 01:16:33.000,95.994,-83.803,22499.974472
1 Jan 2020 01:17:03.000,99.073,-83.366,22582.868537
1 Jan 2020 01:17:33.000,101.739,-82.923,22674.407129
1 Jan 2020 01:18:03.000,104.063,-82.478,22774.405454
1 Jan 2020 01:18:33.000,106.099,-82.035,22882.663228
1 Jan 2020 01:19:03.000,107.896,-81.597,22998.966906
1 Jan 2020 01:19:33.000,109.489,-81.166,23123.090131
1 Jan 2020 01:20:03.000,110.910,-80.744,23254.795317
1 Jan 2020 01:20:33.000,112.184,-80.332,23393.833976
1 Jan 2020 01:21:03.000,113.331,-79.932,23539.949180
1 Jan 2020 01:21:33.000,114.369,-79.544,23692.875893
1 Jan 2020 01:22:03.000,115.311,-79.170,23852.342314
1 Jan 2020 01:22:33.000,116.170,-78.811,24018.071271
1 Jan 2020 01:23:03.000,116.955,-78.467,24189.780151
1 Jan 2020 01:23:33.000,117.675,-78.139,24367.183591
1 Jan 2020 01:24:03.000,118.338,-77.827,24549.993325
1 Jan 2020 01:24:33.000,118.949,-77.532,24737.919357
1 Jan 2020 01:25:03.000,119.513,-77.253,24930.670804
1 Jan 2020 01:25:33.000,120.035,-76.992,25127.956672
1 Jan 2020 01:26:03.000,120.519,-76.747,25329.486913
1 Jan 2020 01:26:33.000,120.969,-76.519,25534.971714
1 Jan 2020 01:27:03.000,121.388,-76.309,25744.124131
1 Jan 2020 01:27:33.000,121.777,-76.116,25956.659273
1 Jan 2020 01:27:54.270,122.037,-75.989,26109.242691
1 Jan 2020 02:39:12.626,294.773,-75.982,26103.829453
1 Jan 2020 02:39:42.000,293.876,-76.144,25910.971908
1 Jan 2020 02:40:12.000,292.914,-76.322,25717.723335
1 Jan 2020 02:40:42.000,291.900,-76.514,25528.497699
1 Jan 2020 02:41:12.000,290.831,-76.718,25343.563028
1 Jan 2020 02:41:42.000,289.701,-76.934,25163.187224
1 Jan 2020 02:42:12.000,288.506,-77.161,24987.637415
1 Jan 2020 02:42:42.000,287.239,-77.400,24817.178994
1 Jan 2020 02:43:12.000,285.894,-77.649,24652.075965
1 Jan 2020 02:43:42.000,284.465,-77.907,24492.588500
1 Jan 2020 02:44:12.000,282.943,-78.173,24338.973216
1 Jan 2020 02:44:42.000,281.321,-78.447,24191.482022
1 Jan 2020 02:45:12.000,279.590,-78.727,24050.360969
1 Jan 2020 02:45:42.000,277.740,-79.011,23915.850262
1 Jan 2020 02:46:12.000,275.761,-79.298,23788.181851
1 Jan 2020 02:46:42.000,273.642,-79.586,23667.579412
1 Jan 2020 02:47:12.000,271.372,-79.873,23554.257112
1 Jan 2020 02:47:42.000,268.940,-80.157,23448.418396
1 Jan 2020 02:48:12.000,266.336,-80.435,23350.255863
1 Jan 2020 02:48:42.000,263.548,-80.705,23259.948984
1 Jan 2020 02:49:12.000,260.569,-80.963,23177.664049
1 Jan 2020 02:49:42.000,257.392,-81.207,23103.552914
1 Jan 2020 02:50:12.000,254.015,-81.433,23037.752701
1 Jan 2020 02:50:42.000,250.439,-81.639,22980.384171
1 Jan 2020 02:51:12.000,246.673,-81.820,22931.551591
1 Jan 2020 02:51:42.000,242.730,-81.974,22891.341878
1 Jan 2020 02:52:12.000,238.633,-82.098,22859.824410
1 Jan 2020 02:52:42.000,234.411,-82.189,22837.050057
1 Jan 2020 02:53:12.000,230.099,-82.246,22823.051225
1 Jan 2020 02:53:42.000,225.740,-82.268,22817.841529
1 Jan 2020 02:54:12.000,221.375,-82.253,22821.415793
1 Jan 2020 02:54:42.000,217.050,-82.203,22833.749899
1 Jan 2020 02:55:12.000,212.805,-82.118,22854.801051
1 Jan 2020 02:55:42.000,208.677,-82.001,22884.508034
1 Jan 2020 02:56:12.000,204.696,-81.854,22922.791433
1 Jan 2020 02:56:42.000,200.884,-81.679,22969.554297
1 Jan 2020 02:57:12.000,197.255,-81.480,23024.682592
1 Jan 2020 02:57:42.000,193.819,-81.261,23088.045986
1 Jan 2020 02:58:12.000,190.576,-81.023,23159.498222
1 Jan 2020 02:58:42.000,187.526,-80.771,23238.878458
1 Jan 2020 02:59:12.000,184.662,-80.508,23326.011812
1 Jan 2020 02:59:42.000,181.974,-80.235,23420.710496
1 Jan 2020 03:00:12.000,179.455,-79.958,23522.774252
1 Jan 2020 03:00:42.000,177.091,-79.676,23631.992123
1 Jan 2020 03:01:12.000,174.873,-79.393,23748.142952
1 Jan 2020 03:01:42.000,172.790,-79.112,23870.996518
1 Jan 2020 03:02:12.000,170.829,-78.832,24000.314759
1 Jan 2020 03:02:42.000,168.981,-78.557,24135.851950
1 Jan 2020 03:03:12.000,167.237,-78.287,24277.356889
1 Jan 2020 03:03:42.000,165.587,-78.024,24424.573056
1 Jan 2020 03:04:12.000,164.023,-77.769,24577.239726
1 Jan 2020 03:04:42.000,162.537,-77.523,24735.092848
1 Jan 2020 03:05:12.000,161.122,-77.287,24897.866129
1 Jan 2020 03:05:42.000,159.771,-77.060,25065.290843
1 Jan 2020 03:06:12.000,158.479,-76.845,25237.098037
1 Jan 2020 03:06:42.000,157.241,-76.641,25413.018256
1 Jan 2020 03:07:12.000,156.051,-76.449,25592.782429
1 Jan 2020 03:07:42.000,154.905,-76.269,25776.122462
1 Jan 2020 03:08:12.000,153.798,-76.101,25962.771778
1 Jan 2020 03:08:34.327,152.998,-75.985,26103.675802
1 Jan 2020 04:23:54.960,281.897,-75.982,26102.296019
1 Jan 2020 04:24:24.000,280.017,-76.052,26017.192361
1 Jan 2020 04:24:54.000,278.038,-76.122,25934.689097
1 Jan 2020 04:25:24.000,276.022,-76.190,25857.814498
1 Jan 2020 04:25:54.000,273.971,-76.255,25786.689444
1 Jan 2020 04:26:24.000,271.887,-76.317,25721.425760
1 Jan 2020 04:26:54.000,269.771,-76.375,25662.125674
1 Jan 2020 04:27:24.000,267.624,-76.428,25608.881826
1 Jan 2020 04:27:54.000,265.450,-76.477,25561.776244
1 Jan 2020 04:28:24.000,263.252,-76.520,25520.880447
1 Jan 2020 04:28:54.000,261.031,-76.557,25486.255022
1 Jan 2020 04:29:24.000,258.792,-76.587,25457.949316
1 Jan 2020 04:29:54.000,256.538,-76.611,25436.001440
1 Jan 2020 04:30:24.000,254.272,-76.628,25420.437752
1 Jan 2020 04:30:54.000,251.999,-76.638,25411.272987
1 Jan 2020 04:31:24.000,249.722,-76.642,25408.510117
1 Jan 2020 04:31:54.000,247.445,-76.637,25412.140336
1 Jan 2020 04:32:24.000,245.172,-76.626,25422.143122
1 Jan 2020 04:32:54.000,242.906,-76.608,25438.486267
1 Jan 2020 04:33:24.000,240.652,-76.583,25461.126063
1 Jan 2020 04:33:54.000,238.412,-76.552,25490.007471
1 Jan 2020 04:34:24.000,236.191,-76.515,25525.064399
1 Jan 2020 04:34:54.000,233.991,-76.472,25566.219825
1 Jan 2020 04:35:24.000,231.814,-76.423,25613.386335
1 Jan 2020 04:35:54.000,229.665,-76.370,25666.466349
1 Jan 2020 04:36:24.000,227.543,-76.313,25725.352543
1 Jan 2020 04:36:54.000,225.452,-76.251,25789.928279
1 Jan 2020 04:37:24.000,223.393,-76.187,25860.068160
1 Jan 2020 04:37:54.000,221.368,-76.120,25935.638106
1 Jan 2020 04:38:24.000,219.376,-76.051,26016.496441
1 Jan 2020 04:38:53.895,217.426,-75.981,26102.184454
1 Jan 2020 05:56:22.739,326.857,-75.987,26106.331797
1 Jan 2020 05:56:52.000,324.973,-76.061,26016.311880
1 Jan 2020 05:57:22.000,323.005,-76.135,25928.982519
1 Jan 2020 05:57:52.000,321.000,-76.209,25846.837830
1 Jan 2020 05:58:22.000,318.959,-76.280,25770.030386
1 Jan 2020 05:58:52.000,316.884,-76.348,25698.705358
1 Jan 2020 05:59:22.000,314.775,-76.413,25632.999910
1 Jan 2020 05:59:52.000,312.633,-76.474,25573.042995
1 Jan 2020 06:00:22.000,310.462,-76.531,25518.954385
1 Jan 2020 06:00:52.000,308.262,-76.582,25470.844527
1 Jan 2020 06:01:22.000,306.037,-76.628,25428.814016
1 Jan 2020 06:01:52.000,303.789,-76.668,25392.953152
1 Jan 2020 06:02:22.000,301.522,-76.702,25363.341704
1 Jan 2020 06:02:52.000,299.239,-76.728,25340.048353
1 Jan 2020 06:03:22.000,296.944,-76.748,25323.130557
1 Jan 2020 06:03:52.000,294.641,-76.760,25312.634262
1 Jan 2020 06:04:22.000,292.333,-76.765,25308.593721
1 Jan 2020 06:04:52.000,290.025,-76.762,25311.031293
1 Jan 2020 06:05:22.000,287.721,-76.751,25319.957413
1 Jan 2020 06:05:52.000,285.425,-76.733,25335.370516
1 Jan 2020 06:06:22.000,283.142,-76.708,25357.257053
1 Jan 2020 06:06:52.000,280.874,-76.675,25385.591625
1 Jan 2020 06:07:22.000,278.625,-76.636,25420.336843
1 Jan 2020 06:07:52.000,276.400,-76.591,25461.443862
1 Jan 2020 06:08:22.000,274.200,-76.540,25508.852366
1 Jan 2020 06:08:52.000,272.030,-76.483,25562.490886
1 Jan 2020 06:09:22.000,269.892,-76.422,25622.277217
1 Jan 2020 06:09:52.000,267.787,-76.356,25688.118346
1 Jan 2020 06:10:22.000,265.717,-76.287,25759.911455
1 Jan 2020 06:10:52.000,263.685,-76.214,25837.543939
1 Jan 2020 06:11:22.000,261.692,-76.139,25920.893951
1 Jan 2020 06:11:52.000,259.737,-76.063,26009.830878
1 Jan 2020 06:12:22.000,257.822,-75.986,26104.216001
1 Jan 2020 06:12:22.569,257.787,-75.984,26106.059240
1 Jan 2020 07:27:22.812,29.209,-75.993,26112.929946
1 Jan 2020 07:27:52.000,28.221,-76.150,25925.515752
1 Jan 2020 07:28:22.000,27.172,-76.325,25735.898245
1 Jan 2020 07:28:52.000,26.084,-76.512,25549.598504
1 Jan 2020 07:29:22.000,24.953,-76.713,25366.886608
1 Jan 2020 07:29:52.000,23.775,-76.925,25188.034334
1 Jan 2020 07:30:22.000,22.545,-77.150,25013.314603
1 Jan 2020 07:30:52.000,21.257,-77.387,24843.000889
1 Jan 2020 07:31:22.000,19.906,-77.635,24677.366324
1 Jan 2020 07:31:52.000,18.483,-77.893,24516.683972
1 Jan 2020 07:32:22.000,16.982,-78.162,24361.224603
1 Jan 2020 07:32:52.000,15.394,-78.438,24211.256872
1 Jan 2020 07:33:22.000,13.711,-78.723,24067.046227
1 Jan 2020 07:33:52.000,11.922,-79.015,23928.854004
1 Jan 2020 07:34:22.000,10.016,-79.311,23796.936275
1 Jan 2020 07:34:52.000,7.983,-79.611,23671.543756
1 Jan 2020 07:35:22.000,5.808,-79.913,23552.919459
1 Jan 2020 07:35:52.000,3.478,-80.214,23441.298574
1 Jan 2020 07:36:22.000,0.980,-80.513,23336.907197
1 Jan 2020 07:36:52.000,358.300,-80.807,23239.961131
1 Jan 2020 07:37:22.000,355.423,-81.093,23150.665475
1 Jan 2020 07:37:52.000,352.337,-81.368,23069.212629
1 Jan 2020 07:38:22.000,349.032,-81.629,22995.781958
1 Jan 2020 07:38:52.000,345.502,-81.871,22930.538575
1 Jan 2020 07:39:22.000,341.744,-82.092,22873.632782
1 Jan 2020 07:39:52.000,337.765,-82.287,22825.198676
1 Jan 2020 07:40:22.000,333.578,-82.454,22785.353752
1 Jan 2020 07:40:52.000,329.208,-82.588,22754.198083
1 Jan 2020 07:41:22.000,324.687,-82.686,22731.813855
1 Jan 2020 07:41:52.000,320.060,-82.746,22718.264655
1 Jan 2020 07:42:22.000,315.377,-82.767,22713.595243
1 Jan 2020 07:42:52.000,310.693,-82.748,22717.831277
1 Jan 2020 07:43:22.000,306.064,-82.689,22730.979040
1 Jan 2020 07:43:52.000,301.540,-82.592,22753.025572
1 Jan 2020 07:44:22.000,297.168,-82.459,22783.938673
1 Jan 2020 07:44:52.000,292.981,-82.292,22823.667237
1 Jan 2020 07:45:22.000,289.005,-82.096,22872.141208
1 Jan 2020 07:45:52.000,285.256,-81.874,22929.272561
1 Jan 2020 07:46:22.000,281.740,-81.629,22994.955510
1 Jan 2020 07:46:52.000,278.456,-81.366,23069.067385
1 Jan 2020 07:47:22.000,275.398,-81.088,23151.468775
1 Jan 2020 07:47:52.000,272.557,-80.798,23242.005200
1 Jan 2020 07:48:22.000,269.921,-80.500,23340.507426
1 Jan 2020 07:48:52.000,267.475,-80.196,23446.792719
1 Jan 2020 07:49:22.000,265.206,-79.890,23560.665072
1 Jan 2020 07:49:52.000,263.100,-79.582,23681.917303
1 Jan 2020 07:50:22.000,261.144,-79.277,23810.331359
1 Jan 2020 07:50:52.000,259.324,-78.975,23945.679523
1 Jan 2020 07:51:22.000,257.628,-78.678,24087.725702
1 Jan 2020 07:51:52.000,256.047,-78.387,24236.225399
1 Jan 2020 07:52:22.000,254.570,-78.105,24390.928269
1 Jan 2020 07:52:52.000,253.187,-77.832,24551.578058
1 Jan 2020 07:53:22.000,251.891,-77.569,24717.913801
1 Jan 2020 07:53:52.000,250.674,-77.316,24889.670715
1 Jan 2020 07:54:22.000,249.529,-77.076,25066.581367
1 Jan 2020 07:54:52.000,248.450,-76.847,25248.375261
1 Jan 2020 07:55:22.000,247.432,-76.632,25434.781421
1 Jan 2020 07:55:52.000,246.470,-76.430,25625.527895
1 Jan 2020 07:56:22.000,245.559,-76.241,25820.342715
1 Jan 2020 07:56:52.000,244.694,-76.066,26018.954506
1 Jan 2020 07:57:06.044,244.305,-75.989,26113.160166
1 Jan 2020 09:08:23.111,59.053,-75.997,26119.370820
1 Jan 2020 09:08:53.000,59.499,-76.176,25906.942942
1 Jan 2020 09:09:23.000,59.978,-76.372,25696.968080
1 Jan 2020 09:09:53.000,60.489,-76.585,25490.523901
1 Jan 2020 09:10:23.000,61.037,-76.815,25287.894861
1 Jan 2020 09:10:53.000,61.625,-77.062,25089.367416
1 Jan 2020 09:11:23.000,62.257,-77.325,24895.229461
1 Jan 2020 09:11:53.000,62.937,-77.604,24705.769702
1 Jan 2020 09:12:23.000,63.671,-77.900,24521.276657
1 Jan 2020 09:12:53.000,64.465,-78.211,24342.039188
1 Jan 2020 09:13:23.000,65.326,-78.537,24168.343766
1 Jan 2020 09:13:53.000,66.263,-78.878,24000.474905
1 Jan 2020 09:14:23.000,67.284,-79.233,23838.713909
1 Jan 2020 09:14:53.000,68.402,-79.601,23683.337647
1 Jan 2020 09:15:23.000,69.629,-79.982,23534.618545
1 Jan 2020 09:15:53.000,70.981,-80.373,23392.821968
1 Jan 2020 09:16:23.000,72.478,-80.774,23258.206149
1 Jan 2020 09:16:53.000,74.141,-81.183,23131.020791
1 Jan 2020 09:17:23.000,75.997,-81.599,23011.505665
1 Jan 2020 09:17:53.000,78.078,-82.018,22899.890397
1 Jan 2020 09:18:23.000,80.422,-82.439,22796.391839
1 Jan 2020 09:18:53.000,83.073,-82.857,22701.213902
1 Jan 2020 09:19:23.000,86.086,-83.270,22614.546017
1 Jan 2020 09:19:53.000,89.521,-83.672,22536.562680
1 Jan 2020 09:20:23.000,93.445,-84.058,22467.421451
1 Jan 2020 09:20:53.000,97.931,-84.420,22407.262648
1 Jan 2020 09:21:23.000,103.044,-84.752,22356.208201
1 Jan 2020 09:21:53.000,108.832,-85.044,22314.361280
1 Jan 2020 09:22:23.000,115.304,-85.285,22281.804975
1 Jan 2020 09:22:53.000,122.403,-85.466,22258.602189
1 Jan 2020 09:23:23.000,129.989,-85.578,22244.795060
1 Jan 2020 09:23:53.000,137.840,-85.614,22240.404811
1 Jan 2020 09:24:23.000,145.682,-85.573,22245.431364
1 Jan 2020 09:24:53.000,153.242,-85.456,22259.853502
1 Jan 2020 09:25:23.000,160.304,-85.271,22283.629000
1 Jan 2020 09:25:53.000,166.738,-85.026,22316.694756
1 Jan 2020 09:26:23.000,172.492,-84.733,22358.967391
1 Jan 2020 09:26:53.000,177.581,-84.400,22410.343688
1 Jan 2020 09:27:23.000,182.054,-84.037,22470.701382
1 Jan 2020 09:27:53.000,185.979,-83.652,22539.899522
1 Jan 2020 09:28:23.000,189.426,-83.252,22617.779943
1 Jan 2020 09:28:53.000,192.464,-82.842,22704.167846
1 Jan 2020 09:29:23.000,195.152,-82.426,22798.873075
1 Jan 2020 09:29:53.000,197.543,-82.009,22901.690595
1 Jan 2020 09:30:23.000,199.682,-81.594,23012.402530
1 Jan 2020 09:30:53.000,201.605,-81.182,23130.778738
1 Jan 2020 09:31:23.000,203.345,-80.777,23256.578133
1 Jan 2020 09:31:53.000,204.928,-80.380,23389.550118
1 Jan 2020 09:32:23.000,206.375,-79.993,23529.434788
1 Jan 2020 09:32:53.000,207.705,-79.617,23675.965520
1 Jan 2020 09:33:23.000,208.934,-79.253,23828.869156
1 Jan 2020 09:33:53.000,210.075,-78.902,23987.867325
1 Jan 2020 09:34:23.000,211.139,-78.565,24152.677485
1 Jan 2020 09:34:53.000,212.137,-78.243,24323.014222
1 Jan 2020 09:35:23.000,213.075,-77.935,24498.588995
1 Jan 2020 09:35:53.000,213.962,-77.643,24679.112790
1 Jan 2020 09:36:23.000,214.803,-77.366,24864.295770
1 Jan 2020 09:36:53.000,215.605,-77.106,25053.848328
1 Jan 2020 09:37:23.000,216.371,-76.861,25247.481786
1 Jan 2020 09:37:53.000,217.105,-76.632,25444.909029
1 Jan 2020 09:38:23.000,217.812,-76.420,25645.845090
1 Jan 2020 09:38:53.000,218.495,-76.224,25850.007975
1 Jan 2020 09:39:23.000,219.157,-76.044,26057.117899
1 Jan 2020 09:39:31.978,219.351,-75.993,26119.629611
1 Jan 2020 10:52:55.734,75.244,-75.998,26122.566031
1 Jan 2020 10:53:25.000,76.918,-76.101,25996.657624
1 Jan 2020 10:53:55.000,78.684,-76.210,25872.583664
1 Jan 2020 10:54:25.000,80.502,-76.321,25753.749393
1 Jan 2020 10:54:55.000,82.373,-76.433,25640.336839
1 Jan 2020 10:55:25.000,84.297,-76.545,25532.521390
1 Jan 2020 10:55:55.000,86.276,-76.656,25430.470993
1 Jan 2020 10:56:25.000,88.309,-76.766,25334.346220
1 Jan 2020 10:56:55.000,90.396,-76.873,25244.298609
1 Jan 2020 10:57:25.000,92.537,-76.976,25160.470768
1 Jan 2020 10:57:55.000,94.730,-77.076,25082.995612
1 Jan 2020 10:58:25.000,96.973,-77.170,25011.995674
1 Jan 2020 10:58:55.000,99.265,-77.257,24947.583097
1 Jan 2020 10:59:25.000,101.602,-77.338,24889.858346
1 Jan 2020 10:59:55.000,103.982,-77.411,24838.910286
1 Jan 2020 11:00:25.000,106.399,-77.476,24794.815638
1 Jan 2020 11:00:55.000,108.851,-77.532,24757.638537
1 Jan 2020 11:01:25.000,111.331,-77.577,24727.430554
1 Jan 2020 11:01:55.000,113.835,-77.613,24704.229934
1 Jan 2020 11:02:25.000,116.356,-77.638,24688.061755
1 Jan 2020 11:02:55.000,118.889,-77.652,24678.937714
1 Jan 2020 11:03:25.000,121.427,-77.655,24676.856038
1 Jan 2020 11:03:55.000,123.965,-77.648,24681.801586
1 Jan 2020 11:04:25.000,126.495,-77.629,24693.745750
1 Jan 2020 11:04:55.000,129.012,-77.600,24712.646708
1 Jan 2020 11:05:25.000,131.510,-77.561,24738.449582
1 Jan 2020 11:05:55.000,133.984,-77.511,24771.086739
1 Jan 2020 11:06:25.000,136.428,-77.453,24810.477954
1 Jan 2020 11:06:55.000,138.838,-77.386,24856.530979
1 Jan 2020 11:07:25.000,141.211,-77.311,24909.141839
1 Jan 2020 11:07:55.000,143.543,-77.229,24968.195323
1 Jan 2020 11:08:25.000,145.831,-77.141,25033.565580
1 Jan 2020 11:08:55.000,148.073,-77.047,25105.116317
1 Jan 2020 11:09:25.000,150.267,-76.948,25182.701863
1 Jan 2020 11:09:55.000,152.412,-76.846,25266.167451
1 Jan 2020 11:10:25.000,154.508,-76.741,25355.349904
1 Jan 2020 11:10:55.000,156.554,-76.634,25450.078273
1 Jan 2020 11:11:25.000,158.550,-76.526,25550.174613
1 Jan 2020 11:11:55.000,160.497,-76.418,25655.454053
1 Jan 2020 11:12:25.000,162.397,-76.310,25765.726290
1 Jan 2020 11:12:55.000,164.249,-76.203,25880.795660
1 Jan 2020 11:13:25.000,166.055,-76.098,26000.461909
1 Jan 2020 11:13:54.544,167.790,-75.997,26122.602281
1 Jan 2020 12:31:54.854,59.333,-75.995,26120.263466
1 Jan 2020 12:32:24.000,61.324,-76.039,26065.157325
1 Jan 2020 12:32:54.000,63.396,-76.082,26013.941272
1 Jan 2020 12:33:24.000,65.491,-76.121,25968.404584
1 Jan 2020 12:33:54.000,67.605,-76.156,25928.634139
1 Jan 2020 12:34:24.000,69.737,-76.186,25894.707091
1 Jan 2020 12:34:54.000,71.885,-76.211,25866.690534
1 Jan 2020 12:35:24.000,74.044,-76.231,25844.641361
1 Jan 2020 12:35:54.000,76.213,-76.246,25828.605825
1 Jan 2020 12:36:24.000,78.389,-76.256,25818.619496
1 Jan 2020 12:36:54.000,80.568,-76.259,25814.707074
1 Jan 2020 12:37:24.000,82.747,-76.257,25816.882307
1 Jan 2020 12:37:54.000,84.924,-76.250,25825.147879
1 Jan 2020 12:38:24.000,87.094,-76.237,25839.495463
1 Jan 2020 12:38:54.000,89.256,-76.218,25859.905724
1 Jan 2020 12:39:24.000,91.406,-76.194,25886.348407
1 Jan 2020 12:39:54.000,93.542,-76.166,25918.782520
1 Jan 2020 12:40:24.000,95.660,-76.132,25957.156286
1 Jan 2020 12:40:54.000,97.758,-76.094,26001.407668
1 Jan 2020 12:41:24.000,99.834,-76.052,26051.464421
1 Jan 2020 12:41:54.000,101.886,-76.007,26107.244430
1 Jan 2020 12:42:00.688,102.341,-75.996,26120.450903
1 Jan 2020 13:59:17.129,346.121,-75.987,26113.998623
1 Jan 2020 13:59:47.000,347.504,-76.126,25948.065376
1 Jan 2020 14:00:17.000,348.937,-76.273,25784.920554
1 Jan 2020 14:00:47.000,350.418,-76.429,25625.533280
1 Jan 2020 14:01:17.000,351.951,-76.593,25470.151375
1 Jan 2020 14:01:47.000,353.539,-76.763,25319.022116
1 Jan 2020 14:02:17.000,355.188,-76.940,25172.391629
1 Jan 2020 14:02:47.000,356.900,-77.123,25030.504242
1 Jan 2020 14:03:17.000,358.681,-77.311,24893.601592
1 Jan 2020 14:03:47.000,0.535,-77.502,24761.922735
1 Jan 2020 14:04:17.000,2.466,-77.696,24635.702135
1 Jan 2020 14:04:47.000,4.479,-77.892,24515.169727
1 Jan 2020 14:05:17.000,6.578,-78.088,24400.549895
1 Jan 2020 14:05:47.000,8.766,-78.283,24292.060649
1 Jan 2020 14:06:17.000,11.048,-78.476,24189.912621
1 Jan 2020 14:06:47.000,13.426,-78.664,24094.308857
1 Jan 2020 14:07:17.000,15.902,-78.847,24005.442984
1 Jan 2020 14:07:47.000,18.479,-79.023,23923.499033
1 Jan 2020 14:08:17.000,21.155,-79.189,23848.650433
1 Jan 2020 14:08:47.000,23.929,-79.345,23781.059115
1 Jan 2020 14:09:17.000,26.798,-79.488,23720.875103
1 Jan 2020 14:09:47.000,29.758,-79.616,23668.235198
1 Jan 2020 14:10:17.000,32.800,-79.729,23623.262679
1 Jan 2020 14:10:47.000,35.916,-79.824,23586.066542
1 Jan 2020 14:11:17.000,39.094,-79.901,23556.741053
1 Jan 2020 14:11:47.000,42.322,-79.957,23535.365035
1 Jan 2020 14:12:17.000,45.585,-79.993,23522.001595
1 Jan 2020 14:12:47.000,48.867,-80.007,23516.697767
1 Jan 2020 14:13:17.000,52.151,-80.000,23519.484187
1 Jan 2020 14:13:47.000,55.421,-79.971,23530.375017
1 Jan 2020 14:14:17.000,58.659,-79.921,23549.367828
1 Jan 2020 14:14:47.000,61.852,-79.850,23576.443710
1 Jan 2020 14:15:17.000,64.984,-79.760,23611.567111
1 Jan 2020 14:15:47.000,68.043,-79.652,23654.686442
1 Jan 2020 14:16:17.000,71.019,-79.526,23705.734124
1 Jan 2020 14:16:47.000,73.903,-79.385,23764.627149
1 Jan 2020 14:17:17.000,76.690,-79.231,23831.267079
1 Jan 2020 14:17:47.000,79.374,-79.065,23905.541253
1 Jan 2020 14:18:17.000,81.953,-78.888,23987.322954
1 Jan 2020 14:18:47.000,84.427,-78.703,24076.472167
1 Jan 2020 14:19:17.000,86.796,-78.512,24172.836493
1 Jan 2020 14:19:47.000,89.061,-78.316,24276.251096
1 Jan 2020 14:20:17.000,91.226,-78.116,24386.540668
1 Jan 2020 14:20:47.000,93.292,-77.915,24503.519462
1 Jan 2020 14:21:17.000,95.264,-77.714,24626.992305
1 Jan 2020 14:21:47.000,97.145,-77.513,24756.755658
1 Jan 2020 14:22:17.000,98.941,-77.316,24892.597541
1 Jan 2020 14:22:47.000,100.654,-77.122,25034.299711
1 Jan 2020 14:23:17.000,102.291,-76.933,25181.637585
1 Jan 2020 14:23:47.000,103.854,-76.750,25334.381256
1 Jan 2020 14:24:17.000,105.349,-76.573,25492.296272
1 Jan 2020 14:24:47.000,106.779,-76.404,25655.144650
1 Jan 2020 14:25:17.000,108.147,-76.243,25822.684521
1 Jan 2020 14:25:47.000,109.459,-76.091,25994.672412
1 Jan 2020 14:26:07.393,110.320,-75.992,26113.997058
1 Jan 2020 15:37:54.700,308.416,-75.984,26107.232329
1 Jan 2020 15:38:24.000,308.459,-76.163,25894.222513
1 Jan 2020 15:38:54.000,308.494,-76.365,25679.006530
1 Jan 2020 15:39:24.000,308.522,-76.585,25466.988783
1 Jan 2020 15:39:54.000,308.540,-76.823,25258.457445
1 Jan 2020 15:40:24.000,308.550,-77.079,25053.703783
1 Jan 2020 15:40:54.000,308.550,-77.354,24853.021653
1 Jan 2020 15:41:24.000,308.540,-77.648,24656.706948
1 Jan 2020 15:41:54.000,308.519,-77.961,24465.056668
1 Jan 2020 15:42:24.000,308.486,-78.291,24278.369436
1 Jan 2020 15:42:54.000,308.441,-78.641,24096.942935
1 Jan 2020 15:43:24.000,308.382,-79.009,23921.074302
1 Jan 2020 15:43:54.000,308.307,-79.395,23751.058933
1 Jan 2020 15:44:24.000,308.215,-79.798,23587.189288
1 Jan 2020 15:44:54.000,308.104,-80.220,23429.754882
1 Jan 2020 15:45:24.000,307.971,-80.658,23279.039690
1 Jan 2020 15:45:54.000,307.812,-81.114,23135.322054
1 Jan 2020 15:46:24.000,307.623,-81.585,22998.873248
1 Jan 2020 15:46:54.000,307.399,-82.072,22869.956040
1 Jan 2020 15:47:24.000,307.131,-82.574,22748.824417
1 Jan 2020 15:47:54.000,306.810,-83.090,22635.720867
1 Jan 2020 15:48:24.000,306.422,-83.619,22530.876108
1 Jan 2020 15:48:54.000,305.948,-84.161,22434.507437
1 Jan 2020 15:49:24.000,305.360,-84.714,22346.818152
1 Jan 2020 15:49:54.000,304.617,-85.276,22267.995361
1 Jan 2020 15:50:24.000,303.653,-85.848,22198.209535
1 Jan 2020 15:50:54.000,302.360,-86.426,22137.613163
1 Jan 2020 15:51:24.000,300.544,-87.009,22086.340213
1 Jan 2020 15:51:54.000,297.823,-87.594,22044.504571
1 Jan 2020 15:52:24.000,293.332,-88.175,22012.199748
1 Jan 2020 15:52:54.000,284.714,-88.738,21989.498085
1 Jan 2020 15:53:24.000,263.812,-89.232,21976.450421
1 Jan 2020 15:53:54.000,212.134,-89.425,21973.085458
1 Jan 2020 15:54:24.000,170.245,-89.097,21979.409761
1 Jan 2020 15:54:54.000,154.678,-88.572,21995.407699
1 Jan 2020 15:55:24.000,147.726,-88.001,22021.041409
1 Jan 2020 15:55:54.000,143.890,-87.418,22056.251239
1 Jan 2020 15:56:24.000,141.472,-86.834,22100.956062
1 Jan 2020 15:56:54.000,139.807,-86.252,22155.053960
1 Jan 2020 15:57:24.000,138.586,-85.676,22218.422482
1 Jan 2020 15:57:54.000,137.650,-85.108,22290.920072
1 Jan 2020 15:58:24.000,136.904,-84.548,22372.386595
1 Jan 2020 15:58:54.000,136.292,-83.999,22462.644614
1 Jan 2020 15:59:24.000,135.779,-83.462,22561.499816
1 Jan 2020 15:59:54.000,135.338,-82.937,22668.743146
1 Jan 2020 16:00:24.000,134.953,-82.425,22784.151378
1 Jan 2020 16:00:54.000,134.611,-81.928,22907.488713
1 Jan 2020 16:01:24.000,134.302,-81.447,23038.507218
1 Jan 2020 16:01:54.000,134.021,-80.980,23176.949294
1 Jan 2020 16:02:24.000,133.761,-80.531,23322.548126
1 Jan 2020 16:02:54.000,133.519,-80.098,23475.029112
1 Jan 2020 16:03:24.000,133.291,-79.682,23634.111336
1 Jan 2020 16:03:54.000,133.074,-79.284,23799.507610
1 Jan 2020 16:04:24.000,132.866,-78.904,23970.927229
1 Jan 2020 16:04:54.000,132.665,-78.542,24148.075932
1 Jan 2020 16:05:24.000,132.471,-78.199,24330.657164
1 Jan 2020 16:05:54.000,132.280,-77.874,24518.373001
1 Jan 2020 16:06:24.000,132.093,-77.568,24710.925315
1 Jan 2020 16:06:54.000,131.909,-77.280,24908.015362
1 Jan 2020 16:07:24.000,131.725,-77.011,25109.346315
1 Jan 2020 16:07:54.000,131.543,-76.760,25314.622732
1 Jan 2020 16:08:24.000,131.361,-76.527,25523.551451
1 Jan 2020 16:08:54.000,131.178,-76.313,25735.842131
1 Jan 2020 16:09:24.000,130.995,-76.117,25951.207724
1 Jan 2020 16:09:45.446,130.863,-75.988,26106.895528
1 Jan 2020 17:21:48.256,288.924,-75.982,26102.654679
1 Jan 2020 17:22:18.000,287.550,-76.119,25938.400949
1 Jan 2020 17:22:48.000,286.109,-76.264,25777.175615
1 Jan 2020 17:23:18.000,284.609,-76.417,25620.644738
1 Jan 2020 17:23:48.000,283.048,-76.576,25469.039733
1 Jan 2020 17:24:18.000,281.421,-76.740,25322.588499
1 Jan 2020 17:24:48.000,279.726,-76.909,25181.514727
1 Jan 2020 17:25:18.000,277.959,-77.082,25046.036928
1 Jan 2020 17:25:48.000,276.117,-77.257,24916.368697
1 Jan 2020 17:26:18.000,274.196,-77.433,24792.716433
1 Jan 2020 17:26:48.000,272.194,-77.610,24675.279593
1 Jan 2020 17:27:18.000,270.108,-77.786,24564.249650
1 Jan 2020 17:27:48.000,267.936,-77.960,24459.809135
1 Jan 2020 17:28:18.000,265.677,-78.130,24362.131611
1 Jan 2020 17:28:48.000,263.329,-78.294,24271.379772
1 Jan 2020 17:29:18.000,260.893,-78.452,24187.705474
1 Jan 2020 17:29:48.000,258.369,-78.601,24111.248828
1 Jan 2020 17:30:18.000,255.760,-78.741,24042.137379
1 Jan 2020 17:30:48.000,253.070,-78.869,23980.486061
1 Jan 2020 17:31:18.000,250.303,-78.985,23926.395711
1 Jan 2020 17:31:48.000,247.466,-79.087,23879.953157
1 Jan 2020 17:32:18.000,244.566,-79.174,23841.230528
1 Jan 2020 17:32:48.000,241.613,-79.244,23810.285171
1 Jan 2020 17:33:18.000,238.617,-79.298,23787.158851
1 Jan 2020 17:33:48.000,235.590,-79.333,23771.877847
1 Jan 2020 17:34:18.000,232.544,-79.351,23764.452690
1 Jan 2020 17:34:48.000,229.492,-79.350,23764.878213
1 Jan 2020 17:35:18.000,226.447,-79.330,23773.133365
1 Jan 2020 17:35:48.000,223.421,-79.293,23789.181466
1 Jan 2020 17:36:18.000,220.426,-79.238,23812.970373
1 Jan 2020 17:36:48.000,217.473,-79.167,23844.432683
1 Jan 2020 17:37:18.000,214.573,-79.080,23883.486170
1 Jan 2020 17:37:48.000,211.734,-78.978,23930.034162
1 Jan 2020 17:38:18.000,208.962,-78.863,23983.966046
1 Jan 2020 17:38:48.000,206.265,-78.735,24045.157915
1 Jan 2020 17:39:18.000,203.645,-78.597,24113.472825
1 Jan 2020 17:39:48.000,201.106,-78.450,24188.761976
1 Jan 2020 17:40:18.000,198.650,-78.296,24270.865080
1 Jan 2020 17:40:48.000,196.276,-78.135,24359.611185
1 Jan 2020 17:41:18.000,193.985,-77.969,24454.819573
1 Jan 2020 17:41:48.000,191.775,-77.800,24556.299998
1 Jan 2020 17:42:18.000,189.645,-77.629,24663.854287
1 Jan 2020 17:42:48.000,187.591,-77.457,24777.276608
1 Jan 2020 17:43:18.000,185.612,-77.286,24896.354397
1 Jan 2020 17:43:48.000,183.704,-77.116,25020.869145
1 Jan 2020 17:44:18.000,181.863,-76.948,25150.597367
1 Jan 2020 17:44:48.000,180.087,-76.785,25285.310577
1 Jan 2020 17:45:18.000,178.372,-76.625,25424.777173
1 Jan 2020 17:45:48.000,176.714,-76.471,25568.762381
1 Jan 2020 17:46:18.000,175.110,-76.323,25717.029116
1 Jan 2020 17:46:48.000,173.557,-76.181,25869.338618
1 Jan 2020 17:47:18.000,172.051,-76.046,26025.451067
1 Jan 2020 17:47:32.584,171.335,-75.983,26102.645332
1 Jan 2020 19:05:20.556,283.925,-75.983,26103.101089
1 Jan 2020 19:05:50.000,281.901,-76.022,26054.104712
1 Jan 2020 19:06:20.000,279.818,-76.059,26009.857283
1 Jan 2020 19:06:50.000,277.715,-76.091,25971.411679
1 Jan 2020 19:07:20.000,275.596,-76.119,25938.832729
1 Jan 2020 19:07:50.000,273.463,-76.143,25912.175054
1 Jan 2020 19:08:20.000,271.318,-76.161,25891.482807
1 Jan 2020 19:08:50.000,269.164,-76.174,25876.789638
1 Jan 2020 19:09:20.000,267.005,-76.182,25868.118330
1 Jan 2020 19:09:50.000,264.842,-76.184,25865.480864
1 Jan 2020 19:10:20.000,262.680,-76.181,25868.878325
1 Jan 2020 19:10:50.000,260.521,-76.172,25878.300912
1 Jan 2020 19:11:20.000,258.368,-76.158,25893.727931
1 Jan 2020 19:11:50.000,256.224,-76.140,25915.127939
1 Jan 2020 19:12:20.000,254.092,-76.116,25942.458840
1 Jan 2020 19:12:50.000,251.974,-76.087,25975.668066
1 Jan 2020 19:13:20.000,249.873,-76.054,26014.692787
1 Jan 2020 19:13:50.000,247.791,-76.017,26059.460235
1 Jan 2020 19:14:16.078,245.998,-75.982,26102.976697
1 Jan 2020 20:32:26.861,354.416,-75.990,26108.604549
1 Jan 2020 20:32:56.000,352.776,-76.098,25977.900114
1 Jan 2020 20:33:26.000,351.043,-76.213,25847.445656
1 Jan 2020 20:33:56.000,349.262,-76.331,25721.375828
1 Jan 2020 20:34:26.000,347.431,-76.452,25599.904277
1 Jan 2020 20:34:56.000,345.549,-76.575,25483.241060
1 Jan 2020 20:35:26.000,343.614,-76.698,25371.592009
1 Jan 2020 20:35:56.000,341.624,-76.822,25265.157936
1 Jan 2020 20:36:26.000,339.579,-76.946,25164.134544
1 Jan 2020 20:36:56.000,337.477,-77.067,25068.710869
1 Jan 2020 20:37:26.000,335.319,-77.187,24979.069197
1 Jan 2020 20:37:56.000,333.104,-77.302,24895.384227
1 Jan 2020 20:38:26.000,330.833,-77.413,24817.822393
1 Jan 2020 20:38:56.000,328.507,-77.518,24746.541105
1 Jan 2020 20:39:26.000,326.129,-77.617,24681.688492
1 Jan 2020 20:39:56.000,323.700,-77.708,24623.402159
1 Jan 2020 20:40:26.000,321.224,-77.791,24571.809012
1 Jan 2020 20:40:56.000,318.706,-77.864,24527.024578
1 Jan 2020 20:41:26.000,316.149,-77.927,24489.152452
1 Jan 2020 20:41:56.000,313.560,-77.979,24458.283959
1 Jan 2020 20:42:26.000,310.944,-78.020,24434.497493
1 Jan 2020 20:42:56.000,308.308,-78.049,24417.858310
1 Jan 2020 20:43:26.000,305.659,-78.065,24408.418173
1 Jan 2020 20:43:56.000,303.005,-78.069,24406.215131
1 Jan 2020 20:44:26.000,300.352,-78.060,24411.273241
1 Jan 2020 20:44:56.000,297.709,-78.038,24423.602581
1 Jan 2020 20:45:26.000,295.083,-78.004,24443.199140
1 Jan 2020 20:45:56.000,292.480,-77.958,24470.044855
1 Jan 2020 20:46:26.000,289.908,-77.901,24504.107809
1 Jan 2020 20:46:56.000,287.373,-77.832,24545.342040
1 Jan 2020 20:47:26.000,284.880,-77.754,24593.688285
1 Jan 2020 20:47:56.000,282.434,-77.666,24649.073957
1 Jan 2020 20:48:26.000,280.040,-77.569,24711.413574
1 Jan 2020 20:48:56.000,277.700,-77.465,24780.609321
1 Jan 2020 20:49:26.000,275.417,-77.354,24856.550945
1 Jan 2020 20:49:56.000,273.194,-77.238,24939.117101
1 Jan 2020 20:50:26.000,271.032,-77.118,25028.175357
1 Jan 2020 20:50:56.000,268.931,-76.994,25123.582907
1 Jan 2020 20:51:26.000,266.892,-76.867,25225.187369
1 Jan 2020 20:51:56.000,264.914,-76.739,25332.826702
1 Jan 2020 20:52:26.000,262.997,-76.611,25446.330914
1 Jan 2020 20:52:56.000,261.140,-76.484,25565.522024
1 Jan 2020 20:53:26.000,259.342,-76.357,25690.214904
1 Jan 2020 20:53:56.000,257.600,-76.234,25820.217941
1 Jan 2020 20:54:26.000,255.913,-76.113,25955.333926
1 Jan 2020 20:54:56.000,254.280,-75.996,26095.359796
1 Jan 2020 20:54:58.745,254.133,-75.986,26108.410407
1 Jan 2020 22:07:54.547,42.478,-75.995,26115.414284
1 Jan 2020 22:08:24.000,41.967,-76.170,25907.425638
1 Jan 2020 22:08:54.000,41.433,-76.365,25698.387404
1 Jan 2020 22:09:24.000,40.881,-76.577,25492.465411
1 Jan 2020 22:09:54.000,40.311,-76.806,25289.943908
1 Jan 2020 22:10:24.000,39.718,-77.053,25091.110176
1 Jan 2020 22:10:54.000,39.100,-77.316,24896.254033
1 Jan 2020 22:11:24.000,38.453,-77.597,24705.667278
1 Jan 2020 22:11:54.000,37.774,-77.894,24519.643079
1 Jan 2020 22:12:24.000,37.056,-78.208,24338.474982
1 Jan 2020 22:12:54.000,36.295,-78.539,24162.457435
1 Jan 2020 22:13:24.000,35.483,-78.886,23991.883075
1 Jan 2020 22:13:54.000,34.614,-79.249,23827.043139
1 Jan 2020 22:14:24.000,33.678,-79.627,23668.226218
1 Jan 2020 22:14:54.000,32.664,-80.020,23515.717041
1 Jan 2020 22:15:24.000,31.558,-80.426,23369.796351
1 Jan 2020 22:15:54.000,30.345,-80.846,23230.738416
1 Jan 2020 22:16:24.000,29.006,-81.277,23098.810834
1 Jan 2020 22:16:54.000,27.516,-81.718,22974.273125
1 Jan 2020 22:17:24.000,25.846,-82.169,22857.375324
1 Jan 2020 22:17:54.000,23.958,-82.626,22748.357609
1 Jan 2020 22:18:24.000,21.805,-83.088,22647.447798
1 Jan 2020 22:18:54.000,19.327,-83.552,22554.861011
1 Jan 2020 22:19:24.000,16.450,-84.013,22470.798132
1 Jan 2020 22:19:54.000,13.077,-84.468,22395.445193
1 Jan 2020 22:20:24.000,9.087,-84.910,22328.971452
1 Jan 2020 22:20:54.000,4.335,-85.332,22271.528928
1 Jan 2020 22:21:24.000,358.654,-85.723,22223.251235
1 Jan 2020 22:21:54.000,351.875,-86.071,22184.253033
1 Jan 2020 22:22:24.000,343.879,-86.359,22154.628801
1 Jan 2020 22:22:54.000,334.689,-86.571,22134.452552
1 Jan 2020 22:23:24.000,324.561,-86.688,22123.777251
1 Jan 2020 22:23:54.000,314.023,-86.701,22122.634486
1 Jan 2020 22:24:24.000,303.744,-86.607,22131.034190
1 Jan 2020 22:24:54.000,294.303,-86.416,22148.964648
1 Jan 2020 22:25:24.000,286.026,-86.143,22176.392630
1 Jan 2020 22:25:54.000,278.984,-85.807,22213.263362
1 Jan 2020 22:26:24.000,273.081,-85.424,22259.501279
1 Jan 2020 22:26:54.000,268.157,-85.007,22315.010310
1 Jan 2020 22:27:24.000,264.040,-84.567,22379.674713
1 Jan 2020 22:27:54.000,260.579,-84.112,22453.359301
1 Jan 2020 22:28:24.000,257.647,-83.649,22535.911091
1 Jan 2020 22:28:54.000,255.143,-83.184,22627.159761
1 Jan 2020 22:29:24.000,252.987,-82.718,22726.919000
1 Jan 2020 22:29:54.000,251.115,-82.257,22834.986868
1 Jan 2020 22:30:24.000,249.477,-81.802,22951.148039
1 Jan 2020 22:30:54.000,248.036,-81.355,23075.174274
1 Jan 2020 22:31:24.000,246.758,-80.918,23206.826019
1 Jan 2020 22:31:54.000,245.620,-80.493,23345.852748
1 Jan 2020 22:32:24.000,244.600,-80.080,23491.995449
1 Jan 2020 22:32:54.000,243.681,-79.682,23644.986969
1 Jan 2020 22:33:24.000,242.851,-79.297,23804.553377
1 Jan 2020 22:33:54.000,242.098,-78.928,23970.415368
1 Jan 2020 22:34:24.000,241.412,-78.575,24142.288212
1 Jan 2020 22:34:54.000,240.785,-78.238,24319.884457
1 Jan 2020 22:35:24.000,240.212,-77.918,24502.913785
1 Jan 2020 22:35:54.000,239.685,-77.615,24691.084203
1 Jan 2020 22:36:24.000,239.200,-77.329,24884.102888
1 Jan 2020 22:36:54.000,238.754,-77.061,25081.676969
1 Jan 2020 22:37:24.000,238.342,-76.810,25283.514603
1 Jan 2020 22:37:54.000,237.961,-76.577,25489.324252
1 Jan 2020 22:38:24.000,237.609,-76.361,25698.817338
1 Jan 2020 22:38:54.000,237.283,-76.162,25911.707418
1 Jan 2020 22:39:22.348,236.997,-75.990,26115.738831
1 Jan 2020 23:50:45.131,65.983,-75.997,26121.086832
1 Jan 2020 23:51:15.000,66.956,-76.159,25928.028790
1 Jan 2020 23:51:45.000,67.982,-76.335,25737.957905
1 Jan 2020 23:52:15.000,69.061,-76.522,25551.994698
1 Jan 2020 23:52:45.000,70.198,-76.722,25370.404328
1 Jan 2020 23:53:15.000,71.397,-76.933,25193.451448
1 Jan 2020 23:53:45.000,72.664,-77.154,25021.399544
1 Jan 2020 23:54:15.000,74.004,-77.386,24854.509956
1 Jan 2020 23:54:45.000,75.423,-77.627,24693.042226
1 Jan 2020 23:55:15.000,76.928,-77.877,24537.251636
1 Jan 2020 23:55:45.000,78.526,-78.133,24387.389492
1 Jan 2020 23:56:15.000,80.225,-78.396,24243.701962
1 Jan 2020 23:56:45.000,82.033,-78.664,24106.428947
1 Jan 2020 23:57:15.000,83.960,-78.935,23975.804072
1 Jan 2020 23:57:45.000,86.013,-79.207,23852.052322
1 Jan 2020 23:58:15.000,88.203,-79.479,23735.390025
1 Jan 2020 23:58:45.000,90.538,-79.749,23626.023641
1 Jan 2020 23:59:15.000,93.028,-80.015,23524.148585
1 Jan 2020 23:59:45.000,95.682,-80.273,23429.949107
2 Jan 2020 00:00:15.000,98.505,-80.522,23343.596090
2 Jan 2020 00:00:45.000,101.504,-80.758,23265.247015
2 Jan 2020 00:01:15.000,104.682,-80.979,23195.044758
2 Jan 2020 00:01:45.000,108.036,-81.182,23133.117326
2 Jan 2020 00:02:15.000,111.561,-81.364,23079.576313
2 Jan 2020 00:02:45.000,115.248,-81.522,23034.516799
2 Jan 2020 00:03:15.000,119.080,-81.654,22998.016569
2 Jan 2020 00:03:45.000,123.034,-81.757,22970.135952
2 Jan 2020 00:04:15.000,127.083,-81.829,22950.916946
2 Jan 2020 00:04:45.000,131.194,-81.869,22940.383302
2 Jan 2020 00:05:15.000,135.331,-81.876,22938.540255
2 Jan 2020 00:05:45.000,139.459,-81.849,22945.374565
2 Jan 2020 00:06:15.000,143.540,-81.791,22960.854438
2 Jan 2020 00:06:45.000,147.541,-81.702,22984.929822
2 Jan 2020 00:07:15.000,151.432,-81.583,23017.532711
2 Jan 2020 00:07:45.000,155.191,-81.437,23058.577385
2 Jan 2020 00:08:15.000,158.798,-81.266,23107.961123
2 Jan 2020 00:08:45.000,162.242,-81.074,23165.564673
2 Jan 2020 00:09:15.000,165.517,-80.863,23231.253045
2 Jan 2020 00:09:45.000,168.619,-80.636,23304.875902
2 Jan 2020 00:10:15.000,171.551,-80.396,23386.268906
2 Jan 2020 00:10:45.000,174.317,-80.146,23475.254257
2 Jan 2020 00:11:15.000,176.923,-79.888,23571.641688
2 Jan 2020 00:11:45.000,179.379,-79.625,23675.229597
2 Jan 2020 00:12:15.000,181.693,-79.358,23785.805321
2 Jan 2020 00:12:45.000,183.874,-79.091,23903.147153
2 Jan 2020 00:13:15.000,185.932,-78.825,24027.024662
2 Jan 2020 00:13:45.000,187.876,-78.561,24157.199839
2 Jan 2020 00:14:15.000,189.715,-78.302,24293.428267
2 Jan 2020 00:14:45.000,191.457,-78.047,24435.459274
2 Jan 2020 00:15:15.000,193.110,-77.800,24583.038035
2 Jan 2020 00:15:45.000,194.683,-77.560,24735.905676
2 Jan 2020 00:16:15.000,196.181,-77.328,24893.800315
2 Jan 2020 00:16:45.000,197.612,-77.106,25056.457867
2 Jan 2020 00:17:15.000,198.981,-76.893,25223.612804
2 Jan 2020 00:17:45.000,200.293,-76.692,25394.999135
2 Jan 2020 00:18:15.000,201.554,-76.501,25570.350002
2 Jan 2020 00:18:45.000,202.768,-76.321,25749.399892
2 Jan 2020 00:19:15.000,203.940,-76.154,25931.884147
2 Jan 2020 00:19:45.000,205.073,-75.998,26117.539747
2 Jan 2020 00:19:45.575,205.095,-75.995,26121.127816
2 Jan 2020 01:35:26.070,78.254,-75.997,26122.431666
2 Jan 2020 01:35:56.000,80.215,-76.064,26040.089596
2 Jan 2020 01:36:26.000,82.216,-76.130,25963.096061
2 Jan 2020 01:36:56.000,84.251,-76.193,25891.770841
2 Jan 2020 01:37:26.000,86.318,-76.253,25826.226691
2 Jan 2020 01:37:56.000,88.417,-76.309,25766.567069
2 Jan 2020 01:38:26.000,90.544,-76.361,25712.885624
2 Jan 2020 01:38:56.000,92.699,-76.408,25665.266206
2 Jan 2020 01:39:26.000,94.878,-76.450,25623.781931
2 Jan 2020 01:39:56.000,97.078,-76.486,25588.495274
2 Jan 2020 01:40:26.000,99.296,-76.516,25559.457707
2 Jan 2020 01:40:56.000,101.529,-76.540,25536.709428
2 Jan 2020 01:41:26.000,103.774,-76.558,25520.279367
2 Jan 2020 01:41:56.000,106.027,-76.569,25510.184778
2 Jan 2020 01:42:26.000,108.285,-76.573,25506.431354
2 Jan 2020 01:42:56.000,110.543,-76.570,25509.013151
2 Jan 2020 01:43:26.000,112.797,-76.561,25517.912611
2 Jan 2020 01:43:56.000,115.045,-76.544,25533.100634
2 Jan 2020 01:44:26.000,117.283,-76.522,25554.536692
2 Jan 2020 01:44:56.000,119.507,-76.493,25582.169014
2 Jan 2020 01:45:26.000,121.714,-76.458,25615.934800
2 Jan 2020 01:45:56.000,123.901,-76.418,25655.760531
2 Jan 2020 01:46:26.000,126.066,-76.372,25701.562090
2 Jan 2020 01:46:56.000,128.206,-76.322,25753.245370
2 Jan 2020 01:47:26.000,130.318,-76.268,25810.706482
2 Jan 2020 01:47:56.000,132.402,-76.210,25873.832214
2 Jan 2020 01:48:26.000,134.455,-76.149,25942.500460
2 Jan 2020 01:48:56.000,136.476,-76.085,26016.580801
2 Jan 2020 01:49:26.000,138.464,-76.019,26095.934559
2 Jan 2020 01:49:35.633,139.095,-75.998,26122.509411
2 Jan 2020 03:07:07.503,29.715,-75.992,26118.212509
2 Jan 2020 03:07:37.000,31.593,-76.070,26022.520606
2 Jan 2020 03:08:07.000,33.540,-76.150,25930.087131
2 Jan 2020 03:08:37.000,35.525,-76.228,25842.750815
2 Jan 2020 03:09:07.000,37.548,-76.305,25760.672523
2 Jan 2020 03:09:37.000,39.609,-76.379,25684.006144
2 Jan 2020 03:10:07.000,41.706,-76.451,25612.898036
2 Jan 2020 03:10:37.000,43.838,-76.519,25547.486401
2 Jan 2020 03:11:07.000,46.003,-76.583,25487.901123
2 Jan 2020 03:11:37.000,48.200,-76.642,25434.262703
2 Jan 2020 03:12:07.000,50.426,-76.695,25386.682167
2 Jan 2020 03:12:37.000,52.678,-76.743,25345.260507
2 Jan 2020 03:13:07.000,54.953,-76.784,25310.088243
2 Jan 2020 03:13:37.000,57.248,-76.818,25281.245166
2 Jan 2020 03:14:07.000,59.560,-76.845,25258.799787
2 Jan 2020 03:14:37.000,61.884,-76.865,25242.809198
2 Jan 2020 03:15:07.000,64.216,-76.876,25233.318774
2 Jan 2020 03:15:37.000,66.551,-76.880,25230.362000
2 Jan 2020 03:16:07.000,68.887,-76.876,25233.960261
2 Jan 2020 03:16:37.000,71.217,-76.864,25244.122824
2 Jan 2020 03:17:07.000,73.538,-76.844,25260.846764
2 Jan 2020 03:17:37.000,75.846,-76.816,25284.116982
2 Jan 2020 03:18:07.000,78.137,-76.781,25313.906354
2 Jan 2020 03:18:37.000,80.406,-76.739,25350.175582
2 Jan 2020 03:19:07.000,82.651,-76.690,25392.873761
2 Jan 2020 03:19:37.000,84.867,-76.635,25441.938359
2 Jan 2020 03:20:07.000,87.053,-76.575,25497.295554
2 Jan 2020 03:20:37.000,89.205,-76.509,25558.860664
2 Jan 2020 03:21:07.000,91.321,-76.440,25626.538070
2 Jan 2020 03:21:37.000,93.400,-76.366,25700.222262
2 Jan 2020 03:22:07.000,95.439,-76.290,25779.797852
2 Jan 2020 03:22:37.000,97.438,-76.211,25865.140137
2 Jan 2020 03:23:07.000,99.396,-76.130,25956.115590
2 Jan 2020 03:23:37.000,101.312,-76.049,26052.582541
2 Jan 2020 03:23:56.591,102.541,-75.995,26118.470081
2 Jan 2020 04:38:39.519,329.092,-75.986,26111.520676
2 Jan 2020 04:39:09.000,330.036,-76.147,25919.553758
2 Jan 2020 04:39:39.000,331.030,-76.324,25727.189579
2 Jan 2020 04:40:09.000,332.061,-76.515,25538.102870
2 Jan 2020 04:40:39.000,333.132,-76.720,25352.565432
2 Jan 2020 04:41:09.000,334.248,-76.937,25170.850989
2 Jan 2020 04:41:39.000,335.414,-77.168,24993.234648
2 Jan 2020 04:42:09.000,336.636,-77.411,24819.992314
2 Jan 2020 04:42:39.000,337.920,-77.666,24651.399799
2 Jan 2020 04:43:09.000,339.272,-77.932,24487.733120
2 Jan 2020 04:43:39.000,340.701,-78.209,24329.266247
2 Jan 2020 04:44:09.000,342.214,-78.495,24176.271313
2 Jan 2020 04:44:39.000,343.822,-78.791,24029.017504
2 Jan 2020 04:45:09.000,345.534,-79.094,23887.770158
2 Jan 2020 04:45:39.000,347.363,-79.403,23752.789602
2 Jan 2020 04:46:09.000,349.321,-79.717,23624.331074
2 Jan 2020 04:46:39.000,351.422,-80.034,23502.642327
2 Jan 2020 04:47:09.000,353.681,-80.353,23387.963519
2 Jan 2020 04:47:39.000,356.114,-80.670,23280.525919
2 Jan 2020 04:48:09.000,358.739,-80.983,23180.550678
2 Jan 2020 04:48:39.000,1.573,-81.289,23088.248418
2 Jan 2020 04:49:09.000,4.631,-81.586,23003.817172
2 Jan 2020 04:49:39.000,7.930,-81.869,22927.442039
2 Jan 2020 04:50:09.000,11.481,-82.135,22859.293922
2 Jan 2020 04:50:39.000,15.291,-82.380,22799.528957
2 Jan 2020 04:51:09.000,19.360,-82.599,22748.287046
2 Jan 2020 04:51:39.000,23.678,-82.788,22705.691441
2 Jan 2020 04:52:09.000,28.223,-82.944,22671.847875
2 Jan 2020 04:52:39.000,32.961,-83.062,22646.844077
2 Jan 2020 04:53:09.000,37.843,-83.139,22630.748986
2 Jan 2020 04:53:39.000,42.810,-83.174,22623.612511
2 Jan 2020 04:54:09.000,47.798,-83.165,22625.465205
2 Jan 2020 04:54:39.000,52.737,-83.113,22636.317975
2 Jan 2020 04:55:09.000,57.564,-83.018,22656.162161
2 Jan 2020 04:55:39.000,62.224,-82.884,22684.969522
2 Jan 2020 04:56:09.000,66.673,-82.713,22722.692544
2 Jan 2020 04:56:39.000,70.879,-82.510,22769.264388
2 Jan 2020 04:57:09.000,74.827,-82.277,22824.599834
2 Jan 2020 04:57:39.000,78.508,-82.021,22888.595495
2 Jan 2020 04:58:09.000,81.925,-81.745,22961.130682
2 Jan 2020 04:58:39.000,85.088,-81.452,23042.067552
2 Jan 2020 04:59:09.000,88.008,-81.147,23131.252774
2 Jan 2020 04:59:39.000,90.703,-80.833,23228.517858
2 Jan 2020 05:00:09.000,93.188,-80.513,23333.680417
2 Jan 2020 05:00:39.000,95.481,-80.191,23446.544408
2 Jan 2020 05:01:09.000,97.599,-79.868,23566.902256
2 Jan 2020 05:01:39.000,99.557,-79.546,23694.535164
2 Jan 2020 05:02:09.000,101.370,-79.229,23829.214352
2 Jan 2020 05:02:39.000,103.051,-78.917,23970.702374
2 Jan 2020 05:03:09.000,104.613,-78.612,24118.753090
2 Jan 2020 05:03:39.000,106.068,-78.315,24273.114278
2 Jan 2020 05:04:09.000,107.424,-78.028,24433.527584
2 Jan 2020 05:04:39.000,108.691,-77.751,24599.729742
2 Jan 2020 05:05:09.000,109.877,-77.486,24771.453501
2 Jan 2020 05:05:39.000,110.990,-77.233,24948.428819
2 Jan 2020 05:06:09.000,112.035,-76.993,25130.382451
2 Jan 2020 05:06:39.000,113.019,-76.765,25317.040587
2 Jan 2020 05:07:09.000,113.947,-76.552,25508.128356
2 Jan 2020 05:07:39.000,114.823,-76.352,25703.370813
2 Jan 2020 05:08:09.000,115.652,-76.167,25902.493567
2 Jan 2020 05:08:39.000,116.437,-75.996,26105.223349
2 Jan 2020 05:08:39.893,116.460,-75.991,26111.313360
2 Jan 2020 06:19:54.145,300.076,-75.983,26105.127789
2 Jan 2020 06:20:24.000,299.568,-76.160,25894.453195
2 Jan 2020 06:20:54.000,299.025,-76.355,25686.050728
2 Jan 2020 06:21:24.000,298.445,-76.566,25481.231910
2 Jan 2020 06:21:54.000,297.826,-76.793,25280.279374
2 Jan 2020 06:22:24.000,297.163,-77.037,25083.477543
2 Jan 2020 06:22:54.000,296.453,-77.297,24891.112052
2 Jan 2020 06:23:24.000,295.691,-77.572,24703.469117
2 Jan 2020 06:23:54.000,294.870,-77.863,24520.834532
2 Jan 2020 06:24:24.000,293.984,-78.168,24343.494195
2 Jan 2020 06:24:54.000,293.027,-78.488,24171.731368
2 Jan 2020 06:25:24.000,291.988,-78.822,24005.827112
2 Jan 2020 06:25:54.000,290.858,-79.169,23846.059032
2 Jan 2020 06:26:24.000,289.626,-79.529,23692.700061
2 Jan 2020 06:26:54.000,288.278,-79.899,23546.018447
2 Jan 2020 06:27:24.000,286.797,-80.279,23406.275155
2 Jan 2020 06:27:54.000,285.166,-80.667,23273.723800
2 Jan 2020 06:28:24.000,283.362,-81.062,23148.609262
2 Jan 2020 06:28:54.000,281.359,-81.462,23031.166309
2 Jan 2020 06:29:24.000,279.127,-81.863,22921.619391
2 Jan 2020 06:29:54.000,276.632,-82.264,22820.180048
2 Jan 2020 06:30:24.000,273.833,-82.660,22727.046761
2 Jan 2020 06:30:54.000,270.685,-83.048,22642.403450
2 Jan 2020 06:31:24.000,267.138,-83.423,22566.419032
2 Jan 2020 06:31:54.000,263.140,-83.779,22499.245477
2 Jan 2020 06:32:24.000,258.644,-84.110,22441.017524
2 Jan 2020 06:32:54.000,253.609,-84.408,22391.851577
2 Jan 2020 06:33:24.000,248.021,-84.666,22351.845356
2 Jan 2020 06:33:54.000,241.899,-84.875,22321.076637
2 Jan 2020 06:34:24.000,235.312,-85.027,22299.603165
2 Jan 2020 06:34:54.000,228.387,-85.115,22287.462121
2 Jan 2020 06:35:24.000,221.300,-85.136,22284.669994
2 Jan 2020 06:35:54.000,214.254,-85.088,22291.222239
2 Jan 2020 06:36:24.000,207.443,-84.974,22307.093463
2 Jan 2020 06:36:54.000,201.025,-84.799,22332.237582
2 Jan 2020 06:37:24.000,195.101,-84.570,22366.587965
2 Jan 2020 06:37:54.000,189.719,-84.297,22410.058068
2 Jan 2020 06:38:24.000,184.881,-83.986,22462.541871
2 Jan 2020 06:38:54.000,180.560,-83.647,22523.914683
2 Jan 2020 06:39:24.000,176.712,-83.285,22594.033515
2 Jan 2020 06:39:54.000,173.286,-82.907,22672.738538
2 Jan 2020 06:40:24.000,170.231,-82.519,22759.853669
2 Jan 2020 06:40:54.000,167.499,-82.124,22855.187840
2 Jan 2020 06:41:24.000,165.047,-81.726,22958.535464
2 Jan 2020 06:41:54.000,162.836,-81.330,23069.678454
2 Jan 2020 06:42:24.000,160.834,-80.936,23188.386788
2 Jan 2020 06:42:54.000,159.013,-80.547,23314.419809
2 Jan 2020 06:43:24.000,157.347,-80.166,23447.527631
2 Jan 2020 06:43:54.000,155.817,-79.794,23587.451340
2 Jan 2020 06:44:24.000,154.406,-79.432,23733.925533
2 Jan 2020 06:44:54.000,153.097,-79.081,23886.678496
2 Jan 2020 06:45:24.000,151.879,-78.743,24045.433498
2 Jan 2020 06:45:54.000,150.740,-78.418,24209.909809
2 Jan 2020 06:46:24.000,149.671,-78.106,24379.823968
2 Jan 2020 06:46:54.000,148.663,-77.809,24554.889536
2 Jan 2020 06:47:24.000,147.709,-77.527,24734.819685
2 Jan 2020 06:47:54.000,146.803,-77.260,24919.326859
2 Jan 2020 06:48:24.000,145.939,-77.008,25108.123798
2 Jan 2020 06:48:54.000,145.113,-76.772,25300.924219
2 Jan 2020 06:49:24.000,144.320,-76.552,25497.443440
2 Jan 2020 06:49:54.000,143.557,-76.347,25697.398943
2 Jan 2020 06:50:24.000,142.819,-76.158,25900.510883
2 Jan 2020 06:50:53.776,142.110,-75.986,26104.957018
2 Jan 2020 08:04:29.413,284.256,-75.982,26102.123011
2 Jan 2020 08:04:59.000,282.528,-76.082,25980.190224
2 Jan 2020 08:05:29.000,280.727,-76.186,25861.644784
2 Jan 2020 08:05:59.000,278.876,-76.291,25748.402965
2 Jan 2020 08:06:29.000,276.974,-76.396,25640.638725
2 Jan 2020 08:06:59.000,275.021,-76.501,25538.518996
2 Jan 2020 08:07:29.000,273.017,-76.604,25442.202921
2 Jan 2020 08:07:59.000,270.961,-76.705,25351.841902
2 Jan 2020 08:08:29.000,268.855,-76.804,25267.578025
2 Jan 2020 08:08:59.000,266.700,-76.898,25189.544159
2 Jan 2020 08:09:29.000,264.496,-76.988,25117.863242
2 Jan 2020 08:09:59.000,262.247,-77.072,25052.647638
2 Jan 2020 08:10:29.000,259.955,-77.150,24993.999133
2 Jan 2020 08:10:59.000,257.622,-77.220,24942.007748
2 Jan 2020 08:11:29.000,255.253,-77.283,24896.751832
2 Jan 2020 08:11:59.000,252.852,-77.337,24858.297570
2 Jan 2020 08:12:29.000,250.422,-77.383,24826.698608
2 Jan 2020 08:12:59.000,247.969,-77.419,24801.996081
2 Jan 2020 08:13:29.000,245.499,-77.445,24784.217962
2 Jan 2020 08:13:59.000,243.017,-77.461,24773.379243
2 Jan 2020 08:14:29.000,240.528,-77.467,24769.481765
2 Jan 2020 08:14:59.000,238.038,-77.462,24772.514201
2 Jan 2020 08:15:29.000,235.553,-77.447,24782.452155
2 Jan 2020 08:15:59.000,233.079,-77.423,24799.258170
2 Jan 2020 08:16:29.000,230.621,-77.388,24822.881983
2 Jan 2020 08:16:59.000,228.185,-77.345,24853.260726
2 Jan 2020 08:17:29.000,225.774,-77.292,24890.319263
2 Jan 2020 08:17:59.000,223.394,-77.231,24933.970362
2 Jan 2020 08:18:29.000,221.047,-77.163,24984.115320
2 Jan 2020 08:18:59.000,218.739,-77.088,25040.644254
2 Jan 2020 08:19:29.000,216.470,-77.006,25103.436611
2 Jan 2020 08:19:59.000,214.244,-76.919,25172.361771
2 Jan 2020 08:20:29.000,212.062,-76.828,25247.279245
2 Jan 2020 08:20:59.000,209.926,-76.733,25328.039754
2 Jan 2020 08:21:29.000,207.836,-76.635,25414.485485
2 Jan 2020 08:21:59.000,205.794,-76.535,25506.450787
2 Jan 2020 08:22:29.000,203.798,-76.433,25603.762778
2 Jan 2020 08:22:59.000,201.848,-76.331,25706.242119
2 Jan 2020 08:23:29.000,199.945,-76.230,25813.703059
2 Jan 2020 08:23:59.000,198.087,-76.129,25925.954909
2 Jan 2020 08:24:29.000,196.273,-76.030,26042.802088
2 Jan 2020 08:24:43.816,195.393,-75.982,26102.144592
2 Jan 2020 09:42:35.980,303.983,-75.985,26104.660941
2 Jan 2020 09:43:05.000,302.011,-76.032,26045.961567
2 Jan 2020 09:43:35.000,299.947,-76.078,25990.722294
2 Jan 2020 09:44:05.000,297.859,-76.121,25941.118098
2 Jan 2020 09:44:35.000,295.750,-76.159,25897.243805
2 Jan 2020 09:45:05.000,293.621,-76.193,25859.184720
2 Jan 2020 09:45:35.000,291.475,-76.222,25827.016250
2 Jan 2020 09:46:05.000,289.315,-76.246,25800.803760
2 Jan 2020 09:46:35.000,287.143,-76.265,25780.602067
2 Jan 2020 09:47:05.000,284.962,-76.278,25766.455386
2 Jan 2020 09:47:35.000,282.776,-76.286,25758.397101
2 Jan 2020 09:48:05.000,280.588,-76.288,25756.449644
2 Jan 2020 09:48:35.000,278.400,-76.284,25760.624363
2 Jan 2020 09:49:05.000,276.216,-76.274,25770.921518
2 Jan 2020 09:49:35.000,274.039,-76.258,25787.330263
2 Jan 2020 09:50:05.000,271.873,-76.237,25809.828696
2 Jan 2020 09:50:35.000,269.719,-76.211,25838.384006
2 Jan 2020 09:51:05.000,267.582,-76.180,25872.952407
2 Jan 2020 09:51:35.000,265.463,-76.144,25913.479617
2 Jan 2020 09:52:05.000,263.365,-76.103,25959.900888
2 Jan 2020 09:52:35.000,261.290,-76.059,26012.141321
2 Jan 2020 09:53:05.000,259.241,-76.011,26070.116166
2 Jan 2020 09:53:21.530,258.123,-75.983,26104.476055
2 Jan 2020 11:10:20.758,16.220,-75.992,26111.008484
2 Jan 2020 11:10:50.000,14.912,-76.131,25944.633230
2 Jan 2020 11:11:20.000,13.527,-76.282,25777.332308
2 Jan 2020 11:11:50.000,12.094,-76.443,25613.713852
2 Jan 2020 11:12:20.000,10.610,-76.611,25454.029627
2 Jan 2020 11:12:50.000,9.071,-76.788,25298.531210
2 Jan 2020 11:13:20.000,7.472,-76.972,25147.469393
2 Jan 2020 11:13:50.000,5.809,-77.163,25001.093533
2 Jan 2020 11:14:20.000,4.077,-77.359,24859.650661
2 Jan 2020 11:14:50.000,2.270,-77.560,24723.385612
2 Jan 2020 11:15:20.000,0.385,-77.764,24592.538977
2 Jan 2020 11:15:50.000,358.417,-77.971,24467.347183
2 Jan 2020 11:16:20.000,356.359,-78.180,24348.041454
2 Jan 2020 11:16:50.000,354.207,-78.388,24234.846968
2 Jan 2020 11:17:20.000,351.958,-78.595,24127.981834
2 Jan 2020 11:17:50.000,349.606,-78.798,24027.656890
2 Jan 2020 11:18:20.000,347.148,-78.997,23934.073797
2 Jan 2020 11:18:50.000,344.581,-79.189,23847.424857
2 Jan 2020 11:19:20.000,341.905,-79.372,23767.891973
2 Jan 2020 11:19:50.000,339.120,-79.545,23695.645698
2 Jan 2020 11:20:20.000,336.227,-79.705,23630.844825
2 Jan 2020 11:20:50.000,333.230,-79.851,23573.634966
2 Jan 2020 11:21:20.000,330.136,-79.981,23524.148253
2 Jan 2020 11:21:50.000,326.953,-80.093,23482.502497
2 Jan 2020 11:22:20.000,323.693,-80.185,23448.800730
2 Jan 2020 11:22:50.000,320.369,-80.257,23423.130389
2 Jan 2020 11:23:20.000,316.997,-80.306,23405.563029
2 Jan 2020 11:23:50.000,313.594,-80.333,23396.153894
2 Jan 2020 11:24:20.000,310.179,-80.336,23394.941575
2 Jan 2020 11:24:50.000,306.772,-80.316,23401.947841
2 Jan 2020 11:25:20.000,303.391,-80.273,23417.177514
2 Jan 2020 11:25:50.000,300.054,-80.207,23440.618518
2 Jan 2020 11:26:20.000,296.779,-80.120,23472.241709
2 Jan 2020 11:26:50.000,293.580,-80.012,23512.001413
2 Jan 2020 11:27:20.000,290.469,-79.885,23559.835473
2 Jan 2020 11:27:50.000,287.457,-79.742,23615.665774
2 Jan 2020 11:28:20.000,284.552,-79.582,23679.398246
2 Jan 2020 11:28:50.000,281.758,-79.410,23750.924038
2 Jan 2020 11:29:20.000,279.078,-79.226,23830.119693
2 Jan 2020 11:29:50.000,276.514,-79.032,23916.848064
2 Jan 2020 11:30:20.000,274.065,-78.830,24010.958414
2 Jan 2020 11:30:50.000,271.730,-78.623,24112.288079
2 Jan 2020 11:31:20.000,269.504,-78.412,24220.662676
2 Jan 2020 11:31:50.000,267.386,-78.198,24335.897072
2 Jan 2020 11:32:20.000,265.369,-77.984,24457.796464
2 Jan 2020 11:32:50.000,263.451,-77.771,24586.156316
2 Jan 2020 11:33:20.000,261.625,-77.560,24720.764583
2 Jan 2020 11:33:50.000,259.887,-77.352,24861.401667
2 Jan 2020 11:34:20.000,258.232,-77.149,25007.841488
2 Jan 2020 11:34:50.000,256.655,-76.952,25159.852312
2 Jan 2020 11:35:20.000,255.151,-76.762,25317.197839
2 Jan 2020 11:35:50.000,253.716,-76.579,25479.636856
2 Jan 2020 11:36:20.000,252.346,-76.404,25646.925665
2 Jan 2020 11:36:50.000,251.036,-76.239,25818.817684
2 Jan 2020 11:37:20.000,249.782,-76.083,25995.064400
2 Jan 2020 11:37:39.365,249.001,-75.987,26111.029644
2 Jan 2020 12:49:21.330,52.699,-75.996,26117.779218
2 Jan 2020 12:49:51.000,52.722,-76.178,25902.043256
2 Jan 2020 12:50:21.000,52.757,-76.380,25686.847526
2 Jan 2020 12:50:51.000,52.803,-76.600,25474.888452
2 Jan 2020 12:51:21.000,52.863,-76.838,25266.454736
2 Jan 2020 12:51:51.000,52.936,-77.095,25061.838079
2 Jan 2020 12:52:21.000,53.023,-77.370,24861.332674
2 Jan 2020 12:52:51.000,53.126,-77.664,24665.234634
2 Jan 2020 12:53:21.000,53.247,-77.976,24473.841058
2 Jan 2020 12:53:51.000,53.386,-78.307,24287.450550
2 Jan 2020 12:54:21.000,53.547,-78.656,24106.360621
2 Jan 2020 12:54:51.000,53.731,-79.023,23930.868092
2 Jan 2020 12:55:21.000,53.941,-79.409,23761.267886
2 Jan 2020 12:55:51.000,54.181,-79.811,23597.851821
2 Jan 2020 12:56:21.000,54.455,-80.232,23440.908608
2 Jan 2020 12:56:51.000,54.769,-80.669,23290.721227
2 Jan 2020 12:57:21.000,55.130,-81.122,23147.566846
2 Jan 2020 12:57:51.000,55.545,-81.591,23011.715377
2 Jan 2020 12:58:21.000,56.027,-82.076,22883.428030
2 Jan 2020 12:58:51.000,56.589,-82.574,22762.957054
2 Jan 2020 12:59:21.000,57.250,-83.086,22650.542997
2 Jan 2020 12:59:51.000,58.037,-83.610,22546.414459
2 Jan 2020 13:00:21.000,58.986,-84.145,22450.786432
2 Jan 2020 13:00:51.000,60.148,-84.690,22363.859740
2 Jan 2020 13:01:21.000,61.599,-85.242,22285.818852
2 Jan 2020 13:01:51.000,63.458,-85.800,22216.831447
2 Jan 2020 13:02:21.000,65.914,-86.361,22157.047086
2 Jan 2020 13:02:51.000,69.292,-86.919,22106.596692
2 Jan 2020 13:03:21.000,74.183,-87.468,22065.590997
2 Jan 2020 13:03:51.000,81.742,-87.993,22034.120280
2 Jan 2020 13:04:21.000,94.301,-88.463,22012.253589
2 Jan 2020 13:04:51.000,115.761,-88.805,22000.038428
2 Jan 2020 13:05:21.000,146.173,-88.889,21997.500150
2 Jan 2020 13:05:51.000,173.100,-88.664,22004.641977
2 Jan 2020 13:06:21.000,189.779,-88.248,22021.444964
2 Jan 2020 13:06:51.000,199.554,-87.746,22047.867989
2 Jan 2020 13:07:21.000,205.655,-87.207,22083.848215
2 Jan 2020 13:07:51.000,209.750,-86.653,22129.301423
2 Jan 2020 13:08:21.000,212.669,-86.093,22184.122718
2 Jan 2020 13:08:51.000,214.851,-85.534,22248.186807
2 Jan 2020 13:09:21.000,216.545,-84.979,22321.349434
2 Jan 2020 13:09:51.000,217.901,-84.431,22403.447928
2 Jan 2020 13:10:21.000,219.015,-83.891,22494.302484
2 Jan 2020 13:10:51.000,219.949,-83.362,22593.716607
2 Jan 2020 13:11:21.000,220.747,-82.845,22701.479243
2 Jan 2020 13:11:51.000,221.440,-82.340,22817.365356
2 Jan 2020 13:12:21.000,222.050,-81.850,22941.137533
2 Jan 2020 13:12:51.000,222.594,-81.373,23072.546424
2 Jan 2020 13:13:21.000,223.084,-80.913,23211.333199
2 Jan 2020 13:13:51.000,223.531,-80.468,23357.230003
2 Jan 2020 13:14:21.000,223.942,-80.039,23509.961380
2 Jan 2020 13:14:51.000,224.323,-79.628,23669.245731
2 Jan 2020 13:15:21.000,224.679,-79.235,23834.795367
2 Jan 2020 13:15:51.000,225.015,-78.859,24006.319237
2 Jan 2020 13:16:21.000,225.334,-78.501,24183.522891
2 Jan 2020 13:16:51.000,225.638,-78.161,24366.109730
2 Jan 2020 13:17:21.000,225.930,-77.839,24553.781925
2 Jan 2020 13:17:51.000,226.212,-77.536,24746.241567
2 Jan 2020 13:18:21.000,226.486,-77.251,24943.190256
2 Jan 2020 13:18:51.000,226.753,-76.985,25144.331613
2 Jan 2020 13:19:21.000,227.014,-76.737,25349.370745
2 Jan 2020 13:19:51.000,227.271,-76.507,25558.015132
2 Jan 2020 13:20:21.000,227.525,-76.296,25769.975156
2 Jan 2020 13:20:51.000,227.777,-76.102,25984.964571
2 Jan 2020 13:21:09.378,227.930,-75.992,26118.043024
2 Jan 2020 14:33:22.197,71.682,-75.998,26122.201391
2 Jan 2020 14:33:52.000,73.109,-76.131,25962.067355
2 Jan 2020 14:34:22.000,74.601,-76.272,25805.408951
2 Jan 2020 14:34:52.000,76.151,-76.419,25653.526519
2 Jan 2020 14:35:22.000,77.762,-76.572,25506.646019
2 Jan 2020 14:35:52.000,79.438,-76.730,25364.989452
2 Jan 2020 14:36:22.000,81.182,-76.891,25228.774171
2 Jan 2020 14:36:52.000,82.996,-77.055,25098.211914
2 Jan 2020 14:37:22.000,84.883,-77.221,24973.509061
2 Jan 2020 14:37:52.000,86.846,-77.388,24854.864390
2 Jan 2020 14:38:22.000,88.887,-77.554,24742.469330
2 Jan 2020 14:38:52.000,91.008,-77.718,24636.506944
2 Jan 2020 14:39:22.000,93.211,-77.879,24537.151005
2 Jan 2020 14:39:52.000,95.496,-78.036,24444.565968
2 Jan 2020 14:40:22.000,97.862,-78.187,24358.905147
2 Jan 2020 14:40:52.000,100.310,-78.330,24280.310758
2 Jan 2020 14:41:22.000,102.838,-78.465,24208.913059
2 Jan 2020 14:41:52.000,105.442,-78.590,24144.829587
2 Jan 2020 14:42:22.000,108.117,-78.703,24088.165121
