STKdata/stk_70fov_6leo/Satellite-MEO_Satellite10003-To-Satellite-LEO_Satellite20000 AER.csv

"Time (UTCG)","Azimuth (deg)","Elevation (deg)","Range (km)"
1 Jan 2020 00:42:44.589,219.336,-75.991,26120.070264
1 Jan 2020 00:43:14.000,219.427,-76.139,25942.505120
1 Jan 2020 00:43:44.000,219.515,-76.302,25763.324789
1 Jan 2020 00:44:14.000,219.600,-76.478,25586.266674
1 Jan 2020 00:44:44.000,219.681,-76.667,25411.494737
1 Jan 2020 00:45:14.000,219.757,-76.868,25239.174561
1 Jan 2020 00:45:44.000,219.830,-77.081,25069.473167
1 Jan 2020 00:46:14.000,219.899,-77.308,24902.558815
1 Jan 2020 00:46:44.000,219.963,-77.547,24738.600776
1 Jan 2020 00:47:14.000,220.024,-77.800,24577.769095
1 Jan 2020 00:47:44.000,220.080,-78.065,24420.234325
1 Jan 2020 00:48:14.000,220.132,-78.343,24266.166939
1 Jan 2020 00:48:44.000,220.180,-78.633,24115.738234
1 Jan 2020 00:49:14.000,220.223,-78.937,23969.118179
1 Jan 2020 00:49:44.000,220.261,-79.253,23826.476283
1 Jan 2020 00:50:14.000,220.295,-79.581,23687.980919
1 Jan 2020 00:50:44.000,220.324,-79.922,23553.798929
1 Jan 2020 00:51:14.000,220.347,-80.275,23424.095215
1 Jan 2020 00:51:44.000,220.365,-80.639,23299.032060
1 Jan 2020 00:52:14.000,220.376,-81.016,23178.769664
1 Jan 2020 00:52:44.000,220.381,-81.403,23063.464198
1 Jan 2020 00:53:14.000,220.379,-81.802,22953.268322
1 Jan 2020 00:53:44.000,220.368,-82.211,22848.330452
1 Jan 2020 00:54:14.000,220.349,-82.631,22748.794264
1 Jan 2020 00:54:44.000,220.319,-83.061,22654.798011
1 Jan 2020 00:55:14.000,220.276,-83.499,22566.474781
1 Jan 2020 00:55:44.000,220.219,-83.947,22483.950849
1 Jan 2020 00:56:14.000,220.145,-84.403,22407.345970
1 Jan 2020 00:56:44.000,220.048,-84.867,22336.772702
1 Jan 2020 00:57:14.000,219.923,-85.338,22272.335825
1 Jan 2020 00:57:44.000,219.761,-85.816,22214.132385
1 Jan 2020 00:58:14.000,219.548,-86.300,22162.250532
1 Jan 2020 00:58:44.000,219.260,-86.789,22116.769637
1 Jan 2020 00:59:14.000,218.859,-87.283,22077.759802
1 Jan 2020 00:59:44.000,218.268,-87.780,22045.281483
1 Jan 2020 01:00:14.000,217.322,-88.281,22019.385456
1 Jan 2020 01:00:44.000,215.584,-88.783,22000.112183
1 Jan 2020 01:01:14.000,211.393,-89.284,21987.491896
1 Jan 2020 01:01:44.000,189.116,-89.765,21981.544378
1 Jan 2020 01:02:14.000,63.716,-89.667,21982.278877
1 Jan 2020 01:02:44.000,50.281,-89.175,21989.694040
1 Jan 2020 01:03:14.000,46.932,-88.674,22003.777929
1 Jan 2020 01:03:44.000,45.418,-88.172,22024.508086
1 Jan 2020 01:04:14.000,44.551,-87.672,22051.851636
1 Jan 2020 01:04:44.000,43.984,-87.176,22085.765519
1 Jan 2020 01:05:14.000,43.581,-86.683,22126.196409
1 Jan 2020 01:05:44.000,43.276,-86.195,22173.081372
1 Jan 2020 01:06:14.000,43.035,-85.713,22226.347903
1 Jan 2020 01:06:44.000,42.835,-85.236,22285.914310
1 Jan 2020 01:07:14.000,42.666,-84.767,22351.690220
1 Jan 2020 01:07:44.000,42.518,-84.304,22423.576459
1 Jan 2020 01:08:14.000,42.385,-83.850,22501.466228
1 Jan 2020 01:08:44.000,42.264,-83.404,22585.245064
1 Jan 2020 01:09:14.000,42.152,-82.968,22674.791426
1 Jan 2020 01:09:44.000,42.047,-82.540,22769.977172
1 Jan 2020 01:10:14.000,41.946,-82.123,22870.668264
1 Jan 2020 01:10:44.000,41.849,-81.716,22976.724426
1 Jan 2020 01:11:14.000,41.754,-81.320,23088.000886
1 Jan 2020 01:11:44.000,41.661,-80.935,23204.348055
1 Jan 2020 01:12:14.000,41.569,-80.561,23325.612217
1 Jan 2020 01:12:44.000,41.478,-80.199,23451.636021
1 Jan 2020 01:13:14.000,41.386,-79.849,23582.258945
1 Jan 2020 01:13:44.000,41.295,-79.511,23717.318035
1 Jan 2020 01:14:14.000,41.202,-79.186,23856.647267
1 Jan 2020 01:14:44.000,41.108,-78.873,24000.079578
1 Jan 2020 01:15:14.000,41.014,-78.572,24147.446215
1 Jan 2020 01:15:44.000,40.917,-78.284,24298.577384
1 Jan 2020 01:16:14.000,40.819,-78.009,24453.302618
1 Jan 2020 01:16:44.000,40.719,-77.747,24611.451124
1 Jan 2020 01:17:14.000,40.618,-77.498,24772.852107
1 Jan 2020 01:17:44.000,40.514,-77.261,24937.335069
1 Jan 2020 01:18:14.000,40.407,-77.038,25104.730094
1 Jan 2020 01:18:44.000,40.299,-76.827,25274.868427
1 Jan 2020 01:19:14.000,40.187,-76.628,25447.581421
1 Jan 2020 01:19:44.000,40.074,-76.443,25622.702687
1 Jan 2020 01:20:14.000,39.957,-76.269,25800.067008
1 Jan 2020 01:20:44.000,39.837,-76.109,25979.510836
1 Jan 2020 01:21:07.228,39.743,-75.993,26119.775761
1 Jan 2020 02:48:43.897,188.496,-75.987,26113.919972
1 Jan 2020 02:49:13.000,187.476,-76.105,25971.690604
1 Jan 2020 02:49:43.000,186.392,-76.233,25827.566015
1 Jan 2020 02:50:13.000,185.275,-76.368,25686.091373
1 Jan 2020 02:50:43.000,184.122,-76.509,25547.390160
1 Jan 2020 02:51:13.000,182.931,-76.656,25411.585205
1 Jan 2020 02:51:43.000,181.700,-76.810,25278.798494
1 Jan 2020 02:52:13.000,180.427,-76.968,25149.150960
1 Jan 2020 02:52:43.000,179.109,-77.132,25022.762276
1 Jan 2020 02:53:13.000,177.744,-77.301,24899.750631
1 Jan 2020 02:53:43.000,176.328,-77.473,24780.232254
1 Jan 2020 02:54:13.000,174.860,-77.650,24664.322174
1 Jan 2020 02:54:43.000,173.337,-77.829,24552.132478
1 Jan 2020 02:55:13.000,171.755,-78.011,24443.773068
1 Jan 2020 02:55:43.000,170.111,-78.195,24339.351157
1 Jan 2020 02:56:13.000,168.403,-78.380,24238.971013
1 Jan 2020 02:56:43.000,166.628,-78.566,24142.733703
1 Jan 2020 02:57:13.000,164.783,-78.751,24050.736832
1 Jan 2020 02:57:43.000,162.864,-78.935,23963.074085
1 Jan 2020 02:58:13.000,160.870,-79.117,23879.835788
1 Jan 2020 02:58:43.000,158.797,-79.296,23801.107415
1 Jan 2020 02:59:13.000,156.645,-79.471,23726.970176
1 Jan 2020 02:59:43.000,154.410,-79.641,23657.500566
1 Jan 2020 03:00:13.000,152.093,-79.804,23592.770134
1 Jan 2020 03:00:43.000,149.693,-79.961,23532.845257
1 Jan 2020 03:01:13.000,147.210,-80.109,23477.786805
1 Jan 2020 03:01:43.000,144.646,-80.248,23427.650471
1 Jan 2020 03:02:13.000,142.004,-80.376,23382.485779
1 Jan 2020 03:02:43.000,139.287,-80.493,23342.336470
1 Jan 2020 03:03:13.000,136.500,-80.597,23307.240215
1 Jan 2020 03:03:43.000,133.650,-80.688,23277.228486
1 Jan 2020 03:04:13.000,130.744,-80.764,23252.326392
1 Jan 2020 03:04:43.000,127.790,-80.826,23232.552833
1 Jan 2020 03:05:13.000,124.800,-80.872,23217.920058
1 Jan 2020 03:05:43.000,121.782,-80.902,23208.433887
1 Jan 2020 03:06:13.000,118.749,-80.916,23204.093626
1 Jan 2020 03:06:43.000,115.712,-80.914,23204.892067
1 Jan 2020 03:07:13.000,112.683,-80.895,23210.815527
1 Jan 2020 03:07:43.000,109.674,-80.861,23221.843892
1 Jan 2020 03:08:13.000,106.694,-80.810,23237.950686
1 Jan 2020 03:08:43.000,103.755,-80.745,23259.103180
1 Jan 2020 03:09:13.000,100.866,-80.665,23285.262508
1 Jan 2020 03:09:43.000,98.034,-80.571,23316.383805
1 Jan 2020 03:10:13.000,95.266,-80.465,23352.416364
1 Jan 2020 03:10:43.000,92.567,-80.347,23393.303897
1 Jan 2020 03:11:13.000,89.942,-80.218,23438.984410
1 Jan 2020 03:11:43.000,87.393,-80.080,23489.390872
1 Jan 2020 03:12:13.000,84.923,-79.933,23544.451137
1 Jan 2020 03:12:43.000,82.532,-79.778,23604.088256
1 Jan 2020 03:13:13.000,80.220,-79.617,23668.220713
1 Jan 2020 03:13:43.000,77.986,-79.451,23736.762685
1 Jan 2020 03:14:13.000,75.829,-79.280,23809.624433
1 Jan 2020 03:14:43.000,73.747,-79.105,23886.712025
1 Jan 2020 03:15:13.000,71.738,-78.929,23967.928406
1 Jan 2020 03:15:43.000,69.799,-78.750,24053.173139
1 Jan 2020 03:16:13.000,67.928,-78.571,24142.342808
1 Jan 2020 03:16:43.000,66.121,-78.391,24235.331279
1 Jan 2020 03:17:13.000,64.375,-78.213,24332.029973
1 Jan 2020 03:17:43.000,62.688,-78.035,24432.328122
1 Jan 2020 03:18:13.000,61.056,-77.860,24536.113029
1 Jan 2020 03:18:43.000,59.477,-77.687,24643.270532
1 Jan 2020 03:19:13.000,57.947,-77.517,24753.684397
1 Jan 2020 03:19:43.000,56.464,-77.351,24867.237819
1 Jan 2020 03:20:13.000,55.025,-77.189,24983.812816
1 Jan 2020 03:20:43.000,53.628,-77.031,25103.290651
1 Jan 2020 03:21:13.000,52.270,-76.879,25225.552046
1 Jan 2020 03:21:43.000,50.949,-76.731,25350.477379
1 Jan 2020 03:22:13.000,49.662,-76.588,25477.946871
1 Jan 2020 03:22:43.000,48.408,-76.451,25607.840774
1 Jan 2020 03:23:13.000,47.184,-76.320,25740.039529
1 Jan 2020 03:23:43.000,45.988,-76.195,25874.423936
1 Jan 2020 03:24:13.000,44.819,-76.077,26010.875294
1 Jan 2020 03:24:35.308,43.966,-75.992,26113.609039
1 Jan 2020 05:01:03.624,142.070,-75.986,26106.469731
1 Jan 2020 05:01:33.000,140.796,-76.086,25985.918652
1 Jan 2020 05:02:03.000,139.469,-76.192,25864.901323
1 Jan 2020 05:02:33.000,138.114,-76.302,25746.100187
1 Jan 2020 05:03:03.000,136.730,-76.417,25629.616164
1 Jan 2020 05:03:33.000,135.315,-76.535,25515.550024
1 Jan 2020 05:04:03.000,133.867,-76.657,25404.002246
1 Jan 2020 05:04:33.000,132.385,-76.782,25295.072880
1 Jan 2020 05:05:03.000,130.868,-76.910,25188.861387
1 Jan 2020 05:05:33.000,129.313,-77.041,25085.466491
1 Jan 2020 05:06:03.000,127.720,-77.174,24984.986010
1 Jan 2020 05:06:33.000,126.086,-77.309,24887.516686
1 Jan 2020 05:07:03.000,124.410,-77.445,24793.153821
1 Jan 2020 05:07:33.000,122.691,-77.582,24701.991875
1 Jan 2020 05:08:03.000,120.926,-77.719,24614.123099
1 Jan 2020 05:08:33.000,119.115,-77.856,24529.638144
1 Jan 2020 05:09:03.000,117.256,-77.993,24448.625664
1 Jan 2020 05:09:33.000,115.348,-78.128,24371.172129
1 Jan 2020 05:10:03.000,113.390,-78.261,24297.361625
1 Jan 2020 05:10:33.000,111.382,-78.392,24227.275655
1 Jan 2020 05:11:03.000,109.322,-78.519,24160.992831
1 Jan 2020 05:11:33.000,107.211,-78.643,24098.589155
1 Jan 2020 05:12:03.000,105.048,-78.762,24040.137091
1 Jan 2020 05:12:33.000,102.835,-78.875,23985.705878
1 Jan 2020 05:13:03.000,100.571,-78.983,23935.361210
1 Jan 2020 05:13:33.000,98.260,-79.084,23889.165063
1 Jan 2020 05:14:03.000,95.902,-79.178,23847.175513
1 Jan 2020 05:14:33.000,93.500,-79.264,23809.446579
1 Jan 2020 05:15:03.000,91.057,-79.342,23776.027995
1 Jan 2020 05:15:33.000,88.576,-79.410,23746.965321
1 Jan 2020 05:16:03.000,86.063,-79.469,23722.299408
1 Jan 2020 05:16:33.000,83.520,-79.518,23702.066545
1 Jan 2020 05:17:03.000,80.954,-79.557,23686.298279
1 Jan 2020 05:17:33.000,78.370,-79.585,23675.021307
1 Jan 2020 05:18:03.000,75.774,-79.601,23668.257397
1 Jan 2020 05:18:33.000,73.171,-79.607,23666.023323
1 Jan 2020 05:19:03.000,70.568,-79.601,23668.330779
1 Jan 2020 05:19:33.000,67.971,-79.584,23675.186371
1 Jan 2020 05:20:03.000,65.386,-79.557,23686.591579
1 Jan 2020 05:20:33.000,62.819,-79.518,23702.542748
1 Jan 2020 05:21:03.000,60.275,-79.468,23723.031098
1 Jan 2020 05:21:33.000,57.760,-79.409,23748.042746
1 Jan 2020 05:22:03.000,55.279,-79.340,23777.558818
1 Jan 2020 05:22:33.000,52.836,-79.261,23811.555215
1 Jan 2020 05:23:03.000,50.435,-79.173,23850.003105
1 Jan 2020 05:23:33.000,48.079,-79.078,23892.868729
1 Jan 2020 05:24:03.000,45.770,-78.975,23940.113574
1 Jan 2020 05:24:33.000,43.512,-78.865,23991.694474
1 Jan 2020 05:25:03.000,41.305,-78.748,24047.563737
1 Jan 2020 05:25:33.000,39.151,-78.627,24107.669278
1 Jan 2020 05:26:03.000,37.050,-78.500,24171.954920
1 Jan 2020 05:26:33.000,35.004,-78.369,24240.359929
1 Jan 2020 05:27:03.000,33.011,-78.235,24312.820089
1 Jan 2020 05:27:33.000,31.072,-78.099,24389.267271
1 Jan 2020 05:28:03.000,29.185,-77.960,24469.629754
1 Jan 2020 05:28:33.000,27.351,-77.819,24553.832409
1 Jan 2020 05:29:03.000,25.567,-77.678,24641.796876
1 Jan 2020 05:29:33.000,23.833,-77.537,24733.441758
1 Jan 2020 05:30:03.000,22.147,-77.396,24828.682803
1 Jan 2020 05:30:33.000,20.508,-77.256,24927.433319
1 Jan 2020 05:31:03.000,18.914,-77.118,25029.603484
1 Jan 2020 05:31:33.000,17.363,-76.981,25135.101841
1 Jan 2020 05:32:03.000,15.855,-76.847,25243.834620
1 Jan 2020 05:32:33.000,14.387,-76.715,25355.706138
1 Jan 2020 05:33:03.000,12.958,-76.587,25470.618981
1 Jan 2020 05:33:33.000,11.566,-76.462,25588.474180
1 Jan 2020 05:34:03.000,10.210,-76.342,25709.171383
1 Jan 2020 05:34:33.000,8.888,-76.225,25832.609029
1 Jan 2020 05:35:03.000,7.598,-76.113,25958.684506
1 Jan 2020 05:35:33.000,6.340,-76.006,26087.294309
1 Jan 2020 05:35:37.396,6.158,-75.990,26106.348428
1 Jan 2020 07:05:55.643,136.162,-75.988,26104.024685
1 Jan 2020 07:06:25.000,135.689,-76.131,25933.329921
1 Jan 2020 07:06:55.000,135.196,-76.288,25760.742760
1 Jan 2020 07:07:25.000,134.692,-76.456,25590.177533
1 Jan 2020 07:07:55.000,134.177,-76.636,25421.791877
1 Jan 2020 07:08:25.000,133.648,-76.828,25255.745078
1 Jan 2020 07:08:55.000,133.104,-77.031,25092.197907
1 Jan 2020 07:09:25.000,132.544,-77.246,24931.312422
1 Jan 2020 07:09:55.000,131.966,-77.472,24773.251765
1 Jan 2020 07:10:25.000,131.366,-77.710,24618.179930
1 Jan 2020 07:10:55.000,130.743,-77.960,24466.261522
1 Jan 2020 07:11:25.000,130.094,-78.221,24317.661206
1 Jan 2020 07:11:55.000,129.416,-78.493,24172.544531
1 Jan 2020 07:12:25.000,128.704,-78.776,24031.075950
1 Jan 2020 07:12:55.000,127.956,-79.070,23893.419610
1 Jan 2020 07:13:25.000,127.166,-79.375,23759.738723
1 Jan 2020 07:13:55.000,126.328,-79.690,23630.195194
1 Jan 2020 07:14:25.000,125.436,-80.015,23504.949237
1 Jan 2020 07:14:55.000,124.484,-80.349,23384.158749
1 Jan 2020 07:15:25.000,123.461,-80.693,23267.979776
1 Jan 2020 07:15:55.000,122.358,-81.045,23156.564733
1 Jan 2020 07:16:25.000,121.163,-81.404,23050.062861
1 Jan 2020 07:16:55.000,119.860,-81.770,22948.619540
1 Jan 2020 07:17:25.000,118.433,-82.143,22852.375821
1 Jan 2020 07:17:55.000,116.861,-82.520,22761.467791
1 Jan 2020 07:18:25.000,115.117,-82.901,22676.026774
1 Jan 2020 07:18:55.000,113.172,-83.284,22596.177828
1 Jan 2020 07:19:25.000,110.987,-83.667,22522.039982
1 Jan 2020 07:19:55.000,108.517,-84.048,22453.725592
1 Jan 2020 07:20:25.000,105.704,-84.425,22391.339904
1 Jan 2020 07:20:55.000,102.483,-84.794,22334.980515
1 Jan 2020 07:21:25.000,98.771,-85.150,22284.737417
1 Jan 2020 07:21:55.000,94.478,-85.490,22240.691914
1 Jan 2020 07:22:25.000,89.503,-85.806,22202.916751
1 Jan 2020 07:22:55.000,83.753,-86.090,22171.475666
1 Jan 2020 07:23:25.000,77.160,-86.335,22146.423070
1 Jan 2020 07:23:55.000,69.723,-86.528,22127.803954
1 Jan 2020 07:24:25.000,61.547,-86.661,22115.653428
1 Jan 2020 07:24:55.000,52.871,-86.725,22109.996743
1 Jan 2020 07:25:25.000,44.051,-86.715,22110.849122
1 Jan 2020 07:25:55.000,35.476,-86.632,22118.215719
1 Jan 2020 07:26:25.000,27.478,-86.482,22132.091493
1 Jan 2020 07:26:55.000,20.261,-86.274,22152.461369
1 Jan 2020 07:27:25.000,13.902,-86.017,22179.300228
1 Jan 2020 07:27:55.000,8.379,-85.722,22212.573046
1 Jan 2020 07:28:25.000,3.614,-85.397,22252.235149
1 Jan 2020 07:28:55.000,359.510,-85.051,22298.232062
1 Jan 2020 07:29:25.000,355.969,-84.688,22350.500271
1 Jan 2020 07:29:55.000,352.903,-84.315,22408.967181
1 Jan 2020 07:30:25.000,350.232,-83.934,22473.551513
1 Jan 2020 07:30:55.000,347.893,-83.549,22544.163800
1 Jan 2020 07:31:25.000,345.833,-83.162,22620.706205
1 Jan 2020 07:31:55.000,344.008,-82.776,22703.073751
1 Jan 2020 07:32:25.000,342.381,-82.393,22791.154208
1 Jan 2020 07:32:55.000,340.923,-82.013,22884.828658
1 Jan 2020 07:33:25.000,339.611,-81.639,22983.971957
1 Jan 2020 07:33:55.000,338.424,-81.271,23088.453407
1 Jan 2020 07:34:25.000,337.345,-80.910,23198.136357
1 Jan 2020 07:34:55.000,336.361,-80.557,23312.879957
1 Jan 2020 07:35:25.000,335.460,-80.212,23432.538775
1 Jan 2020 07:35:55.000,334.631,-79.877,23556.963463
1 Jan 2020 07:36:25.000,333.868,-79.551,23686.001214
1 Jan 2020 07:36:55.000,333.162,-79.236,23819.496195
1 Jan 2020 07:37:25.000,332.508,-78.931,23957.290256
1 Jan 2020 07:37:55.000,331.900,-78.637,24099.222260
1 Jan 2020 07:38:25.000,331.334,-78.354,24245.130086
1 Jan 2020 07:38:55.000,330.806,-78.082,24394.849952
1 Jan 2020 07:39:25.000,330.311,-77.822,24548.217038
1 Jan 2020 07:39:55.000,329.849,-77.574,24705.065827
1 Jan 2020 07:40:25.000,329.414,-77.338,24865.230431
1 Jan 2020 07:40:55.000,329.007,-77.113,25028.544894
1 Jan 2020 07:41:25.000,328.623,-76.901,25194.843473
1 Jan 2020 07:41:55.000,328.262,-76.700,25363.960905
1 Jan 2020 07:42:25.000,327.921,-76.512,25535.732647
1 Jan 2020 07:42:55.000,327.600,-76.335,25709.995446
1 Jan 2020 07:43:25.000,327.297,-76.171,25886.586170
1 Jan 2020 07:43:55.000,327.011,-76.018,26065.344048
1 Jan 2020 07:44:01.455,326.951,-75.987,26104.073675
1 Jan 2020 09:10:03.598,158.579,-75.991,26108.338673
1 Jan 2020 09:10:33.000,159.307,-76.126,25946.442995
1 Jan 2020 09:11:03.000,160.079,-76.273,25783.620466
1 Jan 2020 09:11:33.000,160.880,-76.430,25623.334337
1 Jan 2020 09:12:03.000,161.715,-76.596,25465.730681
1 Jan 2020 09:12:33.000,162.584,-76.770,25310.955734
1 Jan 2020 09:13:03.000,163.491,-76.954,25159.155686
1 Jan 2020 09:13:33.000,164.438,-77.147,25010.476454
1 Jan 2020 09:14:03.000,165.429,-77.348,24865.063435
1 Jan 2020 09:14:33.000,166.466,-77.557,24723.061256
1 Jan 2020 09:15:03.000,167.554,-77.773,24584.613223
1 Jan 2020 09:15:33.000,168.695,-77.998,24449.862152
1 Jan 2020 09:16:03.000,169.895,-78.229,24318.948393
1 Jan 2020 09:16:33.000,171.158,-78.466,24192.010644
1 Jan 2020 09:17:03.000,172.490,-78.709,24069.185352
1 Jan 2020 09:17:33.000,173.895,-78.957,23950.606381
1 Jan 2020 09:18:03.000,175.379,-79.210,23836.404670
1 Jan 2020 09:18:33.000,176.951,-79.466,23726.707667
1 Jan 2020 09:19:03.000,178.615,-79.724,23621.639873
1 Jan 2020 09:19:33.000,180.380,-79.984,23521.321125
1 Jan 2020 09:20:03.000,182.254,-80.245,23425.867154
1 Jan 2020 09:20:33.000,184.245,-80.505,23335.388994
1 Jan 2020 09:21:03.000,186.362,-80.762,23249.992631
1 Jan 2020 09:21:33.000,188.614,-81.017,23169.778483
1 Jan 2020 09:22:03.000,191.009,-81.265,23094.841730
1 Jan 2020 09:22:33.000,193.555,-81.507,23025.270966
1 Jan 2020 09:23:03.000,196.261,-81.740,22961.148563
1 Jan 2020 09:23:33.000,199.133,-81.962,22902.550201
1 Jan 2020 09:24:03.000,202.174,-82.171,22849.544576
1 Jan 2020 09:24:33.000,205.387,-82.365,22802.193038
1 Jan 2020 09:25:03.000,208.770,-82.542,22760.549790
1 Jan 2020 09:25:33.000,212.316,-82.699,22724.660991
1 Jan 2020 09:26:03.000,216.015,-82.835,22694.565038
1 Jan 2020 09:26:33.000,219.849,-82.947,22670.292295
1 Jan 2020 09:27:03.000,223.798,-83.033,22651.864962
1 Jan 2020 09:27:33.000,227.835,-83.093,22639.296954
1 Jan 2020 09:28:03.000,231.927,-83.125,22632.593999
1 Jan 2020 09:28:33.000,236.041,-83.129,22631.753357
1 Jan 2020 09:29:03.000,240.142,-83.105,22636.764019
1 Jan 2020 09:29:33.000,244.196,-83.053,22647.606703
1 Jan 2020 09:30:03.000,248.171,-82.974,22664.253936
1 Jan 2020 09:30:33.000,252.040,-82.870,22686.670208
1 Jan 2020 09:31:03.000,255.780,-82.742,22714.811972
1 Jan 2020 09:31:33.000,259.373,-82.592,22748.628025
1 Jan 2020 09:32:03.000,262.809,-82.423,22788.059592
1 Jan 2020 09:32:33.000,266.080,-82.236,22833.040591
1 Jan 2020 09:33:03.000,269.184,-82.034,22883.497893
1 Jan 2020 09:33:33.000,272.123,-81.820,22939.351708
1 Jan 2020 09:34:03.000,274.900,-81.594,23000.515476
1 Jan 2020 09:34:33.000,277.521,-81.359,23066.896795
1 Jan 2020 09:35:03.000,279.994,-81.117,23138.397362
1 Jan 2020 09:35:33.000,282.328,-80.869,23214.913416
1 Jan 2020 09:36:03.000,284.530,-80.618,23296.336099
1 Jan 2020 09:36:33.000,286.610,-80.365,23382.551814
1 Jan 2020 09:37:03.000,288.577,-80.110,23473.442785
1 Jan 2020 09:37:33.000,290.438,-79.856,23568.886691
1 Jan 2020 09:38:03.000,292.203,-79.603,23668.758119
1 Jan 2020 09:38:33.000,293.878,-79.353,23772.928217
1 Jan 2020 09:39:03.000,295.471,-79.105,23881.265232
1 Jan 2020 09:39:33.000,296.989,-78.862,23993.634867
1 Jan 2020 09:40:03.000,298.436,-78.623,24109.900618
1 Jan 2020 09:40:33.000,299.820,-78.390,24229.924120
1 Jan 2020 09:41:03.000,301.145,-78.162,24353.565695
1 Jan 2020 09:41:33.000,302.416,-77.941,24480.683749
1 Jan 2020 09:42:03.000,303.637,-77.727,24611.136437
1 Jan 2020 09:42:33.000,304.813,-77.520,24744.781043
1 Jan 2020 09:43:03.000,305.947,-77.320,24881.474476
1 Jan 2020 09:43:33.000,307.042,-77.129,25021.073523
1 Jan 2020 09:44:03.000,308.102,-76.945,25163.435093
1 Jan 2020 09:44:33.000,309.130,-76.769,25308.416437
1 Jan 2020 09:45:03.000,310.127,-76.602,25455.875364
1 Jan 2020 09:45:33.000,311.097,-76.443,25605.670429
1 Jan 2020 09:46:03.000,312.042,-76.294,25757.661122
1 Jan 2020 09:46:33.000,312.963,-76.152,25911.708026
1 Jan 2020 09:47:03.000,313.863,-76.020,26067.672974
1 Jan 2020 09:47:10.849,314.095,-75.987,26108.775761
1 Jan 2020 11:21:31.399,205.866,-75.993,26116.238133
1 Jan 2020 11:22:01.000,207.202,-76.088,26000.564449
1 Jan 2020 11:22:31.000,208.585,-76.188,25885.627816
1 Jan 2020 11:23:01.000,209.996,-76.292,25773.095294
1 Jan 2020 11:23:31.000,211.438,-76.399,25663.058109
1 Jan 2020 11:24:01.000,212.910,-76.509,25555.606742
1 Jan 2020 11:24:31.000,214.415,-76.621,25450.830795
1 Jan 2020 11:25:01.000,215.954,-76.736,25348.818857
1 Jan 2020 11:25:31.000,217.528,-76.853,25249.658358
1 Jan 2020 11:26:01.000,219.139,-76.972,25153.435428
1 Jan 2020 11:26:31.000,220.786,-77.091,25060.234748
1 Jan 2020 11:27:01.000,222.472,-77.212,24970.139215
1 Jan 2020 11:27:31.000,224.197,-77.333,24883.230526
1 Jan 2020 11:28:01.000,225.963,-77.453,24799.587904
1 Jan 2020 11:28:31.000,227.770,-77.574,24719.288695
1 Jan 2020 11:29:01.000,229.620,-77.693,24642.408016
1 Jan 2020 11:29:31.000,231.511,-77.810,24569.018597
1 Jan 2020 11:30:01.000,233.446,-77.926,24499.190629
1 Jan 2020 11:30:31.000,235.424,-78.039,24432.991598
1 Jan 2020 11:31:01.000,237.445,-78.148,24370.486138
1 Jan 2020 11:31:31.000,239.509,-78.254,24311.735747
1 Jan 2020 11:32:01.000,241.615,-78.356,24256.799161
1 Jan 2020 11:32:31.000,243.762,-78.452,24205.731417
1 Jan 2020 11:33:01.000,245.950,-78.544,24158.584252
1 Jan 2020 11:33:31.000,248.176,-78.629,24115.405833
1 Jan 2020 11:34:01.000,250.438,-78.708,24076.240634
1 Jan 2020 11:34:31.000,252.735,-78.780,24041.129318
1 Jan 2020 11:35:01.000,255.064,-78.844,24010.108626
1 Jan 2020 11:35:31.000,257.421,-78.901,23983.211226
1 Jan 2020 11:36:01.000,259.803,-78.949,23960.465845
1 Jan 2020 11:36:31.000,262.206,-78.989,23941.896841
1 Jan 2020 11:37:01.000,264.627,-79.020,23927.524376
1 Jan 2020 11:37:31.000,267.060,-79.042,23917.364297
1 Jan 2020 11:38:01.000,269.503,-79.055,23911.428091
1 Jan 2020 11:38:31.000,271.950,-79.059,23909.722848
1 Jan 2020 11:39:01.000,274.396,-79.053,23912.251249
1 Jan 2020 11:39:31.000,276.837,-79.038,23919.011569
1 Jan 2020 11:40:01.000,279.268,-79.014,23929.997614
1 Jan 2020 11:40:31.000,281.686,-78.981,23945.198833
1 Jan 2020 11:41:01.000,284.085,-78.939,23964.600295
1 Jan 2020 11:41:31.000,286.462,-78.889,23988.182738
1 Jan 2020 11:42:01.000,288.813,-78.830,24015.922626
1 Jan 2020 11:42:31.000,291.135,-78.764,24047.792214
1 Jan 2020 11:43:01.000,293.425,-78.690,24083.759626
1 Jan 2020 11:43:31.000,295.679,-78.610,24123.789031
1 Jan 2020 11:44:01.000,297.897,-78.523,24167.840382
1 Jan 2020 11:44:31.000,300.075,-78.430,24215.870049
1 Jan 2020 11:45:01.000,302.213,-78.332,24267.830593
1 Jan 2020 11:45:31.000,304.310,-78.229,24323.670972
1 Jan 2020 11:46:01.000,306.363,-78.122,24383.336668
1 Jan 2020 11:46:31.000,308.374,-78.012,24446.769828
1 Jan 2020 11:47:01.000,310.341,-77.898,24513.909401
1 Jan 2020 11:47:31.000,312.264,-77.781,24584.691291
1 Jan 2020 11:48:01.000,314.145,-77.663,24659.048667
1 Jan 2020 11:48:31.000,315.982,-77.543,24736.911458
1 Jan 2020 11:49:01.000,317.778,-77.422,24818.207493
1 Jan 2020 11:49:31.000,319.532,-77.301,24902.862006
1 Jan 2020 11:50:01.000,321.245,-77.179,24990.797958
1 Jan 2020 11:50:31.000,322.919,-77.059,25081.936192
1 Jan 2020 11:51:01.000,324.555,-76.939,25176.195590
1 Jan 2020 11:51:31.000,326.153,-76.820,25273.493231
1 Jan 2020 11:52:01.000,327.714,-76.703,25373.744543
1 Jan 2020 11:52:31.000,329.241,-76.588,25476.863456
1 Jan 2020 11:53:01.000,330.734,-76.476,25582.762546
1 Jan 2020 11:53:31.000,332.194,-76.366,25691.353419
1 Jan 2020 11:54:01.000,333.623,-76.259,25802.545928
1 Jan 2020 11:54:31.000,335.021,-76.156,25916.249681
1 Jan 2020 11:55:01.000,336.391,-76.056,26032.373267
1 Jan 2020 11:55:22.315,337.347,-75.988,26116.300174
1 Jan 2020 13:29:02.413,225.845,-75.992,26120.640448
1 Jan 2020 13:29:32.000,226.664,-76.123,25962.697472
1 Jan 2020 13:30:02.000,227.513,-76.265,25804.406563
1 Jan 2020 13:30:32.000,228.384,-76.417,25648.125723
1 Jan 2020 13:31:02.000,229.277,-76.578,25493.997712
1 Jan 2020 13:31:32.000,230.196,-76.748,25342.166535
1 Jan 2020 13:32:02.000,231.142,-76.927,25192.777279
1 Jan 2020 13:32:32.000,232.118,-77.114,25045.975934
1 Jan 2020 13:33:02.000,233.127,-77.311,24901.909202
1 Jan 2020 13:33:32.000,234.172,-77.516,24760.724284
1 Jan 2020 13:34:02.000,235.257,-77.730,24622.568657
1 Jan 2020 13:34:32.000,236.384,-77.951,24487.589832
1 Jan 2020 13:35:02.000,237.558,-78.181,24355.934835
1 Jan 2020 13:35:32.000,238.784,-78.417,24227.750990
1 Jan 2020 13:36:02.000,240.066,-78.661,24103.184034
1 Jan 2020 13:36:32.000,241.409,-78.911,23982.378882
1 Jan 2020 13:37:02.000,242.820,-79.167,23865.479043
1 Jan 2020 13:37:32.000,244.306,-79.428,23752.626283
1 Jan 2020 13:38:02.000,245.872,-79.693,23643.960280
1 Jan 2020 13:38:32.000,247.527,-79.962,23539.618272
1 Jan 2020 13:39:02.000,249.280,-80.233,23439.734483
1 Jan 2020 13:39:32.000,251.140,-80.507,23344.440562
1 Jan 2020 13:40:02.000,253.117,-80.780,23253.863973
1 Jan 2020 13:40:32.000,255.221,-81.053,23168.128431
1 Jan 2020 13:41:02.000,257.464,-81.324,23087.353312
1 Jan 2020 13:41:32.000,259.858,-81.590,23011.653259
1 Jan 2020 13:42:02.000,262.415,-81.851,22941.137681
1 Jan 2020 13:42:32.000,265.146,-82.104,22875.910861
1 Jan 2020 13:43:02.000,268.061,-82.347,22816.070835
1 Jan 2020 13:43:32.000,271.172,-82.578,22761.709541
1 Jan 2020 13:44:02.000,274.484,-82.794,22712.912350
1 Jan 2020 13:44:32.000,278.000,-82.993,22669.757731
1 Jan 2020 13:45:02.000,281.718,-83.172,22632.316888
1 Jan 2020 13:45:32.000,285.631,-83.329,22600.653726
1 Jan 2020 13:46:02.000,289.722,-83.460,22574.824196
1 Jan 2020 13:46:32.000,293.969,-83.564,22554.876341
1 Jan 2020 13:47:02.000,298.338,-83.638,22540.850024
1 Jan 2020 13:47:32.000,302.793,-83.681,22532.776761
1 Jan 2020 13:48:02.000,307.287,-83.692,22530.679600
1 Jan 2020 13:48:32.000,311.775,-83.672,22534.572978
1 Jan 2020 13:49:02.000,316.210,-83.619,22544.462708
1 Jan 2020 13:49:32.000,320.548,-83.535,22560.345936
1 Jan 2020 13:50:02.000,324.751,-83.422,22582.211151
1 Jan 2020 13:50:32.000,328.789,-83.282,22610.038238
1 Jan 2020 13:51:02.000,332.641,-83.117,22643.798657
1 Jan 2020 13:51:32.000,336.291,-82.929,22683.455194
1 Jan 2020 13:52:02.000,339.734,-82.722,22728.962649
1 Jan 2020 13:52:32.000,342.968,-82.498,22780.267684
1 Jan 2020 13:53:02.000,345.996,-82.259,22837.309120
1 Jan 2020 13:53:32.000,348.828,-82.009,22900.018183
1 Jan 2020 13:54:02.000,351.471,-81.749,22968.318937
1 Jan 2020 13:54:32.000,353.937,-81.481,23042.127945
1 Jan 2020 13:55:02.000,356.238,-81.208,23121.355519
1 Jan 2020 13:55:32.000,358.386,-80.931,23205.905439
1 Jan 2020 13:56:02.000,0.393,-80.652,23295.675453
1 Jan 2020 13:56:32.000,2.268,-80.373,23390.557633
1 Jan 2020 13:57:02.000,4.024,-80.094,23490.438947
1 Jan 2020 13:57:32.000,5.670,-79.817,23595.200832
1 Jan 2020 13:58:02.000,7.215,-79.543,23704.720758
1 Jan 2020 13:58:32.000,8.668,-79.273,23818.871823
1 Jan 2020 13:59:02.000,10.035,-79.007,23937.523322
1 Jan 2020 13:59:32.000,11.325,-78.747,24060.541122
1 Jan 2020 14:00:02.000,12.544,-78.494,24187.788026
1 Jan 2020 14:00:32.000,13.696,-78.247,24319.124128
1 Jan 2020 14:01:02.000,14.788,-78.008,24454.407460
1 Jan 2020 14:01:32.000,15.825,-77.776,24593.493173
1 Jan 2020 14:02:02.000,16.810,-77.553,24736.235580
1 Jan 2020 14:02:32.000,17.747,-77.338,24882.487332
1 Jan 2020 14:03:02.000,18.641,-77.133,25032.100000
1 Jan 2020 14:03:32.000,19.493,-76.936,25184.924361
1 Jan 2020 14:04:02.000,20.308,-76.749,25340.810668
1 Jan 2020 14:04:32.000,21.088,-76.571,25499.608900
1 Jan 2020 14:05:02.000,21.835,-76.404,25661.169006
1 Jan 2020 14:05:32.000,22.551,-76.246,25825.341128
1 Jan 2020 14:06:02.000,23.239,-76.098,25991.975807
1 Jan 2020 14:06:24.907,23.747,-75.992,26120.779354
1 Jan 2020 15:32:15.369,211.349,-75.989,26118.445199
1 Jan 2020 15:32:45.000,210.989,-76.136,25942.963866
1 Jan 2020 15:33:15.000,210.605,-76.295,25767.459575
1 Jan 2020 15:33:45.000,210.200,-76.467,25594.287113
1 Jan 2020 15:34:15.000,209.774,-76.650,25423.606562
1 Jan 2020 15:34:45.000,209.324,-76.845,25255.579041
1 Jan 2020 15:35:15.000,208.849,-77.051,25090.366505
1 Jan 2020 15:35:45.000,208.346,-77.269,24928.131522
1 Jan 2020 15:36:15.000,207.813,-77.498,24769.037031
1 Jan 2020 15:36:45.000,207.248,-77.739,24613.246089
1 Jan 2020 15:37:15.000,206.647,-77.991,24460.921587
1 Jan 2020 15:37:45.000,206.007,-78.254,24312.225642
1 Jan 2020 15:38:15.000,205.325,-78.527,24167.320547
1 Jan 2020 15:38:45.000,204.596,-78.812,24026.366523
1 Jan 2020 15:39:15.000,203.815,-79.106,23889.522652
1 Jan 2020 15:39:45.000,202.976,-79.410,23756.946177
1 Jan 2020 15:40:15.000,202.073,-79.724,23628.792125
1 Jan 2020 15:40:45.000,201.099,-80.046,23505.212897
1 Jan 2020 15:41:15.000,200.045,-80.377,23386.357614
1 Jan 2020 15:41:45.000,198.900,-80.715,23272.372672
1 Jan 2020 15:42:15.000,197.653,-81.060,23163.399815
1 Jan 2020 15:42:45.000,196.290,-81.411,23059.576698
1 Jan 2020 15:43:15.000,194.794,-81.767,22961.036181
1 Jan 2020 15:43:45.000,193.148,-82.126,22867.905882
1 Jan 2020 15:44:15.000,191.327,-82.488,22780.307548
1 Jan 2020 15:44:45.000,189.307,-82.850,22698.357351
1 Jan 2020 15:45:15.000,187.055,-83.211,22622.164325
1 Jan 2020 15:45:45.000,184.535,-83.568,22551.830709
1 Jan 2020 15:46:15.000,181.705,-83.919,22487.451345
1 Jan 2020 15:46:45.000,178.517,-84.260,22429.113183
1 Jan 2020 15:47:15.000,174.919,-84.588,22376.895372
1 Jan 2020 15:47:45.000,170.854,-84.898,22330.868220
1 Jan 2020 15:48:15.000,166.269,-85.185,22291.093373
1 Jan 2020 15:48:45.000,161.122,-85.442,22257.623411
1 Jan 2020 15:49:15.000,155.392,-85.664,22230.501566
1 Jan 2020 15:49:45.000,149.098,-85.842,22209.761754
1 Jan 2020 15:50:15.000,142.316,-85.970,22195.428051
1 Jan 2020 15:50:45.000,135.183,-86.043,22187.514841
1 Jan 2020 15:51:15.000,127.889,-86.057,22186.026677
1 Jan 2020 15:51:45.000,120.654,-86.012,22190.958272
1 Jan 2020 15:52:15.000,113.687,-85.909,22202.294502
1 Jan 2020 15:52:45.000,107.150,-85.754,22220.010480
1 Jan 2020 15:53:15.000,101.146,-85.553,22244.071681
1 Jan 2020 15:53:45.000,95.718,-85.312,22274.434093
1 Jan 2020 15:54:15.000,90.859,-85.040,22311.044482
1 Jan 2020 15:54:45.000,86.537,-84.742,22353.840373
1 Jan 2020 15:55:15.000,82.700,-84.424,22402.750695
1 Jan 2020 15:55:45.000,79.293,-84.092,22457.695857
1 Jan 2020 15:56:15.000,76.262,-83.748,22518.588143
1 Jan 2020 15:56:45.000,73.557,-83.397,22585.332080
1 Jan 2020 15:57:15.000,71.132,-83.041,22657.824985
1 Jan 2020 15:57:45.000,68.950,-82.683,22735.956768
1 Jan 2020 15:58:15.000,66.975,-82.325,22819.611256
1 Jan 2020 15:58:45.000,65.180,-81.968,22908.666049
1 Jan 2020 15:59:15.000,63.542,-81.615,23002.993113
1 Jan 2020 15:59:45.000,62.038,-81.266,23102.459234
1 Jan 2020 16:00:15.000,60.651,-80.922,23206.926671
1 Jan 2020 16:00:45.000,59.368,-80.585,23316.252844
1 Jan 2020 16:01:15.000,58.175,-80.255,23430.291919
1 Jan 2020 16:01:45.000,57.060,-79.933,23548.894510
1 Jan 2020 16:02:15.000,56.016,-79.619,23671.908295
1 Jan 2020 16:02:45.000,55.034,-79.314,23799.178437
1 Jan 2020 16:03:15.000,54.106,-79.019,23930.547998
1 Jan 2020 16:03:45.000,53.227,-78.733,24065.858328
1 Jan 2020 16:04:15.000,52.391,-78.458,24204.949721
1 Jan 2020 16:04:45.000,51.595,-78.192,24347.660684
1 Jan 2020 16:05:15.000,50.833,-77.938,24493.829899
1 Jan 2020 16:05:45.000,50.102,-77.694,24643.295474
1 Jan 2020 16:06:15.000,49.399,-77.461,24795.895509
1 Jan 2020 16:06:45.000,48.721,-77.240,24951.468381
1 Jan 2020 16:07:15.000,48.066,-77.029,25109.853007
1 Jan 2020 16:07:45.000,47.431,-76.830,25270.889087
1 Jan 2020 16:08:15.000,46.814,-76.641,25434.417329
1 Jan 2020 16:08:45.000,46.213,-76.464,25600.279656
1 Jan 2020 16:09:15.000,45.627,-76.298,25768.319394
1 Jan 2020 16:09:45.000,45.055,-76.143,25938.381440
1 Jan 2020 16:10:15.000,44.494,-75.999,26110.312421
1 Jan 2020 16:10:16.343,44.469,-75.993,26118.052368
1 Jan 2020 17:41:14.596,170.401,-75.986,26110.947864
1 Jan 2020 17:41:44.000,169.144,-76.088,25987.726812
1 Jan 2020 17:42:14.000,167.831,-76.196,25864.474896
1 Jan 2020 17:42:44.000,166.487,-76.308,25743.813002
1 Jan 2020 17:43:14.000,165.109,-76.424,25625.840047
1 Jan 2020 17:43:44.000,163.697,-76.544,25510.653932
1 Jan 2020 17:44:14.000,162.250,-76.668,25398.351384
1 Jan 2020 17:44:44.000,160.764,-76.794,25289.027801
1 Jan 2020 17:45:14.000,159.240,-76.923,25182.777086
1 Jan 2020 17:45:44.000,157.676,-77.053,25079.691481
1 Jan 2020 17:46:14.000,156.070,-77.186,24979.861397
1 Jan 2020 17:46:44.000,154.421,-77.320,24883.375022
1 Jan 2020 17:47:14.000,152.727,-77.454,24790.319021
1 Jan 2020 17:47:44.000,150.987,-77.589,24700.777033
1 Jan 2020 17:48:14.000,149.200,-77.724,24614.830388
1 Jan 2020 17:48:44.000,147.365,-77.857,24532.557699
1 Jan 2020 17:49:14.000,145.481,-77.989,24454.034686
1 Jan 2020 17:49:44.000,143.548,-78.120,24379.334002
1 Jan 2020 17:50:14.000,141.564,-78.247,24308.525058
1 Jan 2020 17:50:44.000,139.531,-78.371,24241.673711
1 Jan 2020 17:51:14.000,137.446,-78.491,24178.842682
1 Jan 2020 17:51:44.000,135.312,-78.606,24120.090511
1 Jan 2020 17:52:14.000,133.129,-78.717,24065.472000
1 Jan 2020 17:52:44.000,130.898,-78.821,24015.037919
1 Jan 2020 17:53:14.000,128.621,-78.918,23968.834870
1 Jan 2020 17:53:44.000,126.300,-79.009,23926.905155
1 Jan 2020 17:54:14.000,123.938,-79.092,23889.286586
1 Jan 2020 17:54:44.000,121.537,-79.166,23856.012699
1 Jan 2020 17:55:14.000,119.101,-79.232,23827.112161
1 Jan 2020 17:55:44.000,116.635,-79.288,23802.609033
1 Jan 2020 17:56:14.000,114.142,-79.335,23782.522610
1 Jan 2020 17:56:44.000,111.627,-79.372,23766.867369
1 Jan 2020 17:57:14.000,109.096,-79.398,23755.652929
1 Jan 2020 17:57:44.000,106.554,-79.414,23748.884007
1 Jan 2020 17:58:14.000,104.006,-79.420,23746.560486
1 Jan 2020 17:58:44.000,101.458,-79.415,23748.677287
1 Jan 2020 17:59:14.000,98.916,-79.400,23755.224483
1 Jan 2020 17:59:44.000,96.385,-79.374,23766.187310
1 Jan 2020 18:00:14.000,93.870,-79.338,23781.546210
1 Jan 2020 18:00:44.000,91.377,-79.293,23801.276897
1 Jan 2020 18:01:14.000,88.909,-79.237,23825.350478
1 Jan 2020 18:01:44.000,86.472,-79.173,23853.733366
1 Jan 2020 18:02:14.000,84.069,-79.100,23886.387632
1 Jan 2020 18:02:44.000,81.703,-79.019,23923.270958
1 Jan 2020 18:03:14.000,79.378,-78.930,23964.336806
1 Jan 2020 18:03:44.000,77.095,-78.835,24009.534545
1 Jan 2020 18:04:14.000,74.858,-78.733,24058.809600
1 Jan 2020 18:04:44.000,72.666,-78.625,24112.103604
1 Jan 2020 18:05:14.000,70.522,-78.513,24169.354675
1 Jan 2020 18:05:44.000,68.426,-78.395,24230.497117
1 Jan 2020 18:06:14.000,66.378,-78.274,24295.462278
1 Jan 2020 18:06:44.000,64.379,-78.150,24364.178280
1 Jan 2020 18:07:14.000,62.427,-78.023,24436.570304
1 Jan 2020 18:07:44.000,60.523,-77.895,24512.560777
1 Jan 2020 18:08:14.000,58.665,-77.764,24592.069550
1 Jan 2020 18:08:44.000,56.853,-77.633,24675.014089
1 Jan 2020 18:09:14.000,55.085,-77.502,24761.309653
1 Jan 2020 18:09:44.000,53.361,-77.371,24850.869657
1 Jan 2020 18:10:14.000,51.679,-77.240,24943.605149
1 Jan 2020 18:10:44.000,50.037,-77.111,25039.426033
1 Jan 2020 18:11:14.000,48.435,-76.983,25138.240557
1 Jan 2020 18:11:44.000,46.871,-76.858,25239.955649
1 Jan 2020 18:12:14.000,45.342,-76.734,25344.477091
1 Jan 2020 18:12:44.000,43.849,-76.614,25451.709677
1 Jan 2020 18:13:14.000,42.389,-76.496,25561.557369
1 Jan 2020 18:13:44.000,40.960,-76.382,25673.923452
1 Jan 2020 18:14:14.000,39.562,-76.271,25788.710678
1 Jan 2020 18:14:44.000,38.194,-76.165,25905.821403
1 Jan 2020 18:15:14.000,36.852,-76.062,26025.157726
1 Jan 2020 18:15:35.216,35.920,-75.992,26110.840713
1 Jan 2020 19:51:47.455,135.295,-75.987,26104.880382
1 Jan 2020 19:52:17.000,134.207,-76.103,25965.316854
1 Jan 2020 19:52:47.000,133.078,-76.227,25825.539111
1 Jan 2020 19:53:17.000,131.922,-76.358,25687.835340
1 Jan 2020 19:53:47.000,130.738,-76.495,25552.328751
1 Jan 2020 19:54:17.000,129.523,-76.639,25419.143181
1 Jan 2020 19:54:47.000,128.275,-76.789,25288.402935
1 Jan 2020 19:55:17.000,126.993,-76.945,25160.232622
1 Jan 2020 19:55:47.000,125.673,-77.106,25034.756980
1 Jan 2020 19:56:17.000,124.314,-77.273,24912.100687
1 Jan 2020 19:56:47.000,122.912,-77.444,24792.388164
1 Jan 2020 19:57:17.000,121.464,-77.620,24675.743362
1 Jan 2020 19:57:47.000,119.968,-77.801,24562.289318
1 Jan 2020 19:58:17.000,118.420,-77.984,24452.148829
1 Jan 2020 19:58:47.000,116.817,-78.171,24345.442844
1 Jan 2020 19:59:17.000,115.156,-78.361,24242.291128
1 Jan 2020 19:59:47.000,113.433,-78.552,24142.811774
1 Jan 2020 20:00:17.000,111.644,-78.744,24047.120935
1 Jan 2020 20:00:47.000,109.786,-78.937,23955.332549
1 Jan 2020 20:01:17.000,107.856,-79.129,23867.558059
1 Jan 2020 20:01:47.000,105.850,-79.320,23783.905973
1 Jan 2020 20:02:17.000,103.764,-79.508,23704.482205
1 Jan 2020 20:02:47.000,101.595,-79.694,23629.388828
1 Jan 2020 20:03:17.000,99.341,-79.875,23558.724430
1 Jan 2020 20:03:47.000,96.999,-80.050,23492.583660
1 Jan 2020 20:04:17.000,94.567,-80.219,23431.056946
1 Jan 2020 20:04:47.000,92.046,-80.380,23374.230212
1 Jan 2020 20:05:17.000,89.434,-80.532,23322.184514
1 Jan 2020 20:05:47.000,86.734,-80.674,23274.996147
1 Jan 2020 20:06:17.000,83.948,-80.804,23232.735819
1 Jan 2020 20:06:47.000,81.080,-80.921,23195.468801
1 Jan 2020 20:07:17.000,78.136,-81.025,23163.254600
1 Jan 2020 20:07:47.000,75.124,-81.114,23136.146747
1 Jan 2020 20:08:17.000,72.052,-81.187,23114.192584
1 Jan 2020 20:08:47.000,68.931,-81.244,23097.433194
1 Jan 2020 20:09:17.000,65.774,-81.283,23085.903077
1 Jan 2020 20:09:47.000,62.592,-81.305,23079.630146
1 Jan 2020 20:10:17.000,59.400,-81.308,23078.635589
1 Jan 2020 20:10:47.000,56.213,-81.293,23082.933784
1 Jan 2020 20:11:17.000,53.043,-81.261,23092.532285
1 Jan 2020 20:11:47.000,49.906,-81.210,23107.431644
1 Jan 2020 20:12:17.000,46.813,-81.143,23127.625609
1 Jan 2020 20:12:47.000,43.776,-81.059,23153.101021
1 Jan 2020 20:13:17.000,40.805,-80.959,23183.837886
1 Jan 2020 20:13:47.000,37.909,-80.845,23219.809447
1 Jan 2020 20:14:17.000,35.095,-80.717,23260.982382
1 Jan 2020 20:14:47.000,32.368,-80.577,23307.316529
1 Jan 2020 20:15:17.000,29.732,-80.425,23358.765599
1 Jan 2020 20:15:47.000,27.189,-80.264,23415.276965
1 Jan 2020 20:16:17.000,24.741,-80.094,23476.791938
1 Jan 2020 20:16:47.000,22.386,-79.916,23543.245962
1 Jan 2020 20:17:17.000,20.124,-79.732,23614.568831
1 Jan 2020 20:17:47.000,17.954,-79.543,23690.685100
1 Jan 2020 20:18:17.000,15.872,-79.350,23771.513610
1 Jan 2020 20:18:47.000,13.877,-79.154,23856.968803
1 Jan 2020 20:19:17.000,11.964,-78.956,23946.960284
1 Jan 2020 20:19:47.000,10.130,-78.757,24041.393264
1 Jan 2020 20:20:17.000,8.372,-78.558,24140.168834
1 Jan 2020 20:20:47.000,6.686,-78.360,24243.184239
1 Jan 2020 20:21:17.000,5.069,-78.164,24350.333161
1 Jan 2020 20:21:47.000,3.517,-77.970,24461.506243
1 Jan 2020 20:22:17.000,2.026,-77.779,24576.590384
1 Jan 2020 20:22:47.000,0.594,-77.591,24695.470474
1 Jan 2020 20:23:17.000,359.216,-77.408,24818.028702
1 Jan 2020 20:23:47.000,357.890,-77.230,24944.145055
1 Jan 2020 20:24:17.000,356.614,-77.056,25073.697582
1 Jan 2020 20:24:47.000,355.383,-76.889,25206.562639
1 Jan 2020 20:25:17.000,354.196,-76.727,25342.615138
1 Jan 2020 20:25:47.000,353.050,-76.572,25481.728776
1 Jan 2020 20:26:17.000,351.942,-76.423,25623.776264
1 Jan 2020 20:26:47.000,350.871,-76.282,25768.629539
1 Jan 2020 20:27:17.000,349.834,-76.147,25916.160282
1 Jan 2020 20:27:47.000,348.830,-76.020,26066.238870
1 Jan 2020 20:27:54.596,348.581,-75.989,26104.629192
1 Jan 2020 21:55:06.513,141.454,-75.989,26104.857240
1 Jan 2020 21:55:36.000,141.417,-76.138,25926.585481
1 Jan 2020 21:56:06.000,141.385,-76.302,25747.178102
1 Jan 2020 21:56:36.000,141.360,-76.479,25569.916469
1 Jan 2020 21:57:06.000,141.340,-76.668,25394.965183
1 Jan 2020 21:57:36.000,141.327,-76.870,25222.490439
1 Jan 2020 21:58:06.000,141.321,-77.084,25052.659837
1 Jan 2020 21:58:36.000,141.321,-77.312,24885.642176
1 Jan 2020 21:59:06.000,141.329,-77.552,24721.607228
1 Jan 2020 21:59:36.000,141.345,-77.805,24560.725492
1 Jan 2020 22:00:06.000,141.370,-78.071,24403.167924
1 Jan 2020 22:00:36.000,141.403,-78.349,24249.105344
1 Jan 2020 22:01:06.000,141.445,-78.641,24098.709347
1 Jan 2020 22:01:36.000,141.498,-78.945,23952.150124
1 Jan 2020 22:02:06.000,141.561,-79.262,23809.597344
1 Jan 2020 22:02:36.000,141.637,-79.591,23671.219466
1 Jan 2020 22:03:06.000,141.727,-79.932,23537.183340
1 Jan 2020 22:03:36.000,141.831,-80.286,23407.653794
1 Jan 2020 22:04:06.000,141.951,-80.651,23282.792953
1 Jan 2020 22:04:36.000,142.090,-81.028,23162.760770
1 Jan 2020 22:05:06.000,142.251,-81.416,23047.713072
1 Jan 2020 22:05:36.000,142.436,-81.815,22937.802082
1 Jan 2020 22:06:06.000,142.649,-82.224,22833.175680
1 Jan 2020 22:06:36.000,142.896,-82.644,22733.976903
1 Jan 2020 22:07:06.000,143.183,-83.073,22640.343261
1 Jan 2020 22:07:36.000,143.517,-83.511,22552.407000
1 Jan 2020 22:08:06.000,143.911,-83.958,22470.293447
1 Jan 2020 22:08:36.000,144.378,-84.413,22394.121301
1 Jan 2020 22:09:06.000,144.940,-84.875,22324.001967
1 Jan 2020 22:09:36.000,145.626,-85.344,22260.038971
1 Jan 2020 22:10:06.000,146.477,-85.818,22202.328005
1 Jan 2020 22:10:36.000,147.559,-86.297,22150.955774
1 Jan 2020 22:11:06.000,148.978,-86.780,22106.000114
1 Jan 2020 22:11:36.000,150.912,-87.265,22067.529508
1 Jan 2020 22:12:06.000,153.694,-87.749,22035.602717
1 Jan 2020 22:12:36.000,158.006,-88.228,22010.268750
1 Jan 2020 22:13:06.000,165.461,-88.692,21991.566240
1 Jan 2020 22:13:36.000,180.499,-89.112,21979.523534
1 Jan 2020 22:14:06.000,214.117,-89.387,21974.158486
1 Jan 2020 22:14:36.000,259.378,-89.308,21975.478378
1 Jan 2020 22:15:06.000,283.983,-88.954,21983.479863
1 Jan 2020 22:15:36.000,295.128,-88.510,21998.148994
1 Jan 2020 22:16:06.000,301.043,-88.038,22019.461294
1 Jan 2020 22:16:36.000,304.646,-87.557,22047.381873
1 Jan 2020 22:17:06.000,307.061,-87.072,22081.865670
1 Jan 2020 22:17:36.000,308.792,-86.589,22122.857377
1 Jan 2020 22:18:06.000,310.097,-86.107,22170.292114
1 Jan 2020 22:18:36.000,311.119,-85.630,22224.095466
1 Jan 2020 22:19:06.000,311.945,-85.159,22284.183884
1 Jan 2020 22:19:36.000,312.629,-84.693,22350.465194
1 Jan 2020 22:20:06.000,313.208,-84.234,22422.838482
1 Jan 2020 22:20:36.000,313.706,-83.783,22501.195286
1 Jan 2020 22:21:06.000,314.142,-83.340,22585.419554
1 Jan 2020 22:21:36.000,314.530,-82.906,22675.388237
1 Jan 2020 22:22:06.000,314.878,-82.481,22770.971773
1 Jan 2020 22:22:36.000,315.194,-82.066,22872.034795
1 Jan 2020 22:23:06.000,315.485,-81.662,22978.435794
1 Jan 2020 22:23:36.000,315.754,-81.268,23090.028854
1 Jan 2020 22:24:06.000,316.006,-80.885,23206.663344
1 Jan 2020 22:24:36.000,316.243,-80.513,23328.184605
1 Jan 2020 22:25:06.000,316.468,-80.153,23454.434439
1 Jan 2020 22:25:36.000,316.682,-79.805,23585.251577
1 Jan 2020 22:26:06.000,316.888,-79.469,23720.472411
1 Jan 2020 22:26:36.000,317.087,-79.145,23859.930370
1 Jan 2020 22:27:06.000,317.280,-78.834,24003.457927
1 Jan 2020 22:27:36.000,317.468,-78.535,24150.885963
1 Jan 2020 22:28:06.000,317.653,-78.249,24302.044407
1 Jan 2020 22:28:36.000,317.834,-77.976,24456.762604
1 Jan 2020 22:29:06.000,318.012,-77.715,24614.869657
1 Jan 2020 22:29:36.000,318.189,-77.468,24776.194745
1 Jan 2020 22:30:06.000,318.364,-77.233,24940.567429
1 Jan 2020 22:30:36.000,318.538,-77.010,25107.817921
1 Jan 2020 22:31:06.000,318.712,-76.801,25277.777667
1 Jan 2020 22:31:36.000,318.886,-76.604,25450.278299
1 Jan 2020 22:32:06.000,319.060,-76.420,25625.153760
1 Jan 2020 22:32:36.000,319.235,-76.248,25802.239232
1 Jan 2020 22:33:06.000,319.410,-76.088,25981.371626
1 Jan 2020 22:33:26.535,319.531,-75.986,26105.082380
2 Jan 2020 00:01:24.599,173.533,-75.993,26111.173021
2 Jan 2020 00:01:54.000,174.600,-76.109,25970.143328
2 Jan 2020 00:02:24.000,175.721,-76.235,25828.753547
2 Jan 2020 00:02:54.000,176.876,-76.367,25690.023192
2 Jan 2020 00:03:24.000,178.066,-76.505,25554.072687
2 Jan 2020 00:03:54.000,179.294,-76.649,25421.021705
2 Jan 2020 00:04:24.000,180.562,-76.798,25290.988978
2 Jan 2020 00:04:54.000,181.873,-76.952,25164.092097
2 Jan 2020 00:05:24.000,183.227,-77.111,25040.447302
2 Jan 2020 00:05:54.000,184.629,-77.274,24920.169269
2 Jan 2020 00:06:24.000,186.080,-77.441,24803.370643
2 Jan 2020 00:06:54.000,187.582,-77.612,24690.162787
2 Jan 2020 00:07:24.000,189.139,-77.785,24580.654072
2 Jan 2020 00:07:54.000,190.753,-77.960,24474.950627
2 Jan 2020 00:08:24.000,192.427,-78.136,24373.155849
2 Jan 2020 00:08:54.000,194.164,-78.314,24275.370156
2 Jan 2020 00:09:24.000,195.965,-78.491,24181.690744
2 Jan 2020 00:09:54.000,197.834,-78.668,24092.211333
2 Jan 2020 00:10:24.000,199.773,-78.843,24007.021732
2 Jan 2020 00:10:54.000,201.784,-79.016,23926.208388
2 Jan 2020 00:11:24.000,203.870,-79.185,23849.852938
2 Jan 2020 00:11:54.000,206.030,-79.350,23778.032794
2 Jan 2020 00:12:24.000,208.267,-79.510,23710.820707
2 Jan 2020 00:12:54.000,210.581,-79.663,23648.284553
2 Jan 2020 00:13:24.000,212.972,-79.810,23590.487121
2 Jan 2020 00:13:54.000,215.438,-79.948,23537.485797
2 Jan 2020 00:14:24.000,217.978,-80.076,23489.332889
2 Jan 2020 00:14:54.000,220.589,-80.195,23446.074681
2 Jan 2020 00:15:24.000,223.267,-80.302,23407.751812
2 Jan 2020 00:15:54.000,226.007,-80.398,23374.399008
2 Jan 2020 00:16:24.000,228.802,-80.480,23346.044966
2 Jan 2020 00:16:54.000,231.646,-80.549,23322.712204
2 Jan 2020 00:17:24.000,234.530,-80.603,23304.417215
2 Jan 2020 00:17:54.000,237.445,-80.643,23291.170056
2 Jan 2020 00:18:24.000,240.382,-80.668,23282.974565
2 Jan 2020 00:18:54.000,243.330,-80.677,23279.828285
2 Jan 2020 00:19:24.000,246.279,-80.671,23281.722479
2 Jan 2020 00:19:54.000,249.219,-80.650,23288.642168
2 Jan 2020 00:20:24.000,252.139,-80.614,23300.566174
2 Jan 2020 00:20:54.000,255.029,-80.563,23317.467207
2 Jan 2020 00:21:24.000,257.882,-80.498,23339.311965
2 Jan 2020 00:21:54.000,260.688,-80.420,23366.061252
2 Jan 2020 00:22:24.000,263.441,-80.329,23397.670116
2 Jan 2020 00:22:54.000,266.135,-80.226,23434.088004
2 Jan 2020 00:23:24.000,268.765,-80.113,23475.259016
2 Jan 2020 00:23:54.000,271.327,-79.989,23521.121780
2 Jan 2020 00:24:24.000,273.819,-79.856,23571.610110
2 Jan 2020 00:24:54.000,276.238,-79.715,23626.652925
2 Jan 2020 00:25:24.000,278.585,-79.567,23686.174547
2 Jan 2020 00:25:54.000,280.858,-79.413,23750.094938
2 Jan 2020 00:26:24.000,283.058,-79.253,23818.329938
2 Jan 2020 00:26:54.000,285.187,-79.090,23890.791650
2 Jan 2020 00:27:24.000,287.245,-78.923,23967.388167
2 Jan 2020 00:27:54.000,289.236,-78.754,24048.024604
2 Jan 2020 00:28:24.000,291.161,-78.583,24132.602846
2 Jan 2020 00:28:54.000,293.022,-78.412,24221.021930
2 Jan 2020 00:29:24.000,294.823,-78.240,24313.178304
2 Jan 2020 00:29:54.000,296.565,-78.069,24408.966076
2 Jan 2020 00:30:24.000,298.251,-77.899,24508.277268
2 Jan 2020 00:30:54.000,299.885,-77.731,24611.002058
2 Jan 2020 00:31:24.000,301.468,-77.566,24717.029230
2 Jan 2020 00:31:54.000,303.004,-77.403,24826.245577
2 Jan 2020 00:32:24.000,304.495,-77.244,24938.537358
2 Jan 2020 00:32:54.000,305.943,-77.089,25053.789704
2 Jan 2020 00:33:24.000,307.351,-76.938,25171.887024
2 Jan 2020 00:33:54.000,308.721,-76.791,25292.713209
2 Jan 2020 00:34:24.000,310.056,-76.649,25416.151821
2 Jan 2020 00:34:54.000,311.357,-76.512,25542.086271
2 Jan 2020 00:35:24.000,312.626,-76.381,25670.399998
2 Jan 2020 00:35:54.000,313.866,-76.255,25800.976622
2 Jan 2020 00:36:24.000,315.077,-76.135,25933.700105
2 Jan 2020 00:36:54.000,316.263,-76.022,26068.454884
2 Jan 2020 00:37:03.475,316.632,-75.987,26111.419887
2 Jan 2020 02:13:38.847,219.116,-75.993,26118.441012
2 Jan 2020 02:14:08.000,220.364,-76.093,25997.052207
2 Jan 2020 02:14:38.000,221.674,-76.200,25874.198704
2 Jan 2020 02:15:08.000,223.013,-76.312,25753.540110
2 Jan 2020 02:15:38.000,224.380,-76.429,25635.179546
2 Jan 2020 02:16:08.000,225.779,-76.549,25519.220062
2 Jan 2020 02:16:38.000,227.210,-76.673,25405.764494
2 Jan 2020 02:17:08.000,228.675,-76.801,25294.915319
2 Jan 2020 02:17:38.000,230.176,-76.932,25186.774504
2 Jan 2020 02:18:08.000,231.714,-77.066,25081.443346
2 Jan 2020 02:18:38.000,233.292,-77.202,24979.022302
2 Jan 2020 02:19:08.000,234.911,-77.340,24879.610819
2 Jan 2020 02:19:38.000,236.572,-77.480,24783.306959
2 Jan 2020 02:20:08.000,238.278,-77.621,24690.208004
2 Jan 2020 02:20:38.000,240.030,-77.762,24600.409068
2 Jan 2020 02:21:08.000,241.829,-77.904,24514.003713
2 Jan 2020 02:21:38.000,243.678,-78.045,24431.083545
2 Jan 2020 02:22:08.000,245.577,-78.185,24351.738011
2 Jan 2020 02:22:38.000,247.528,-78.323,24276.054202
2 Jan 2020 02:23:08.000,249.532,-78.459,24204.116646
2 Jan 2020 02:23:38.000,251.589,-78.591,24136.006981
2 Jan 2020 02:24:08.000,253.699,-78.720,24071.804249
2 Jan 2020 02:24:38.000,255.864,-78.845,24011.583937
2 Jan 2020 02:25:08.000,258.082,-78.964,23955.418291
2 Jan 2020 02:25:38.000,260.353,-79.078,23903.375991
2 Jan 2020 02:26:08.000,262.675,-79.184,23855.521959
2 Jan 2020 02:26:38.000,265.047,-79.284,23811.917179
2 Jan 2020 02:27:08.000,267.466,-79.375,23772.618519
2 Jan 2020 02:27:38.000,269.929,-79.458,23737.678498
2 Jan 2020 02:28:08.000,272.434,-79.532,23707.145395
2 Jan 2020 02:28:38.000,274.974,-79.595,23681.062692
2 Jan 2020 02:29:08.000,277.547,-79.649,23659.469219
2 Jan 2020 02:29:38.000,280.146,-79.691,23642.398960
2 Jan 2020 02:30:08.000,282.765,-79.723,23629.880945
2 Jan 2020 02:30:38.000,285.400,-79.743,23621.939155
2 Jan 2020 02:31:08.000,288.042,-79.751,23618.592451
2 Jan 2020 02:31:38.000,290.687,-79.748,23619.854488
2 Jan 2020 02:32:08.000,293.326,-79.733,23625.733686
2 Jan 2020 02:32:38.000,295.954,-79.706,23636.233199
2 Jan 2020 02:33:08.000,298.564,-79.668,23651.350896
2 Jan 2020 02:33:38.000,301.150,-79.619,23671.079367
2 Jan 2020 02:34:08.000,303.706,-79.559,23695.405938
2 Jan 2020 02:34:38.000,306.228,-79.489,23724.312791
2 Jan 2020 02:35:08.000,308.710,-79.409,23757.776711
2 Jan 2020 02:35:38.000,311.149,-79.320,23795.769590
2 Jan 2020 02:36:08.000,313.540,-79.222,23838.258234
2 Jan 2020 02:36:38.000,315.881,-79.116,23885.204523
2 Jan 2020 02:37:08.000,318.169,-79.003,23936.565525
2 Jan 2020 02:37:38.000,320.403,-78.884,23992.293622
2 Jan 2020 02:38:08.000,322.582,-78.758,24052.336775
2 Jan 2020 02:38:38.000,324.705,-78.628,24116.638155
2 Jan 2020 02:39:08.000,326.770,-78.493,24185.137064
2 Jan 2020 02:39:38.000,328.780,-78.355,24257.768602
2 Jan 2020 02:40:08.000,330.733,-78.214,24334.463961
2 Jan 2020 02:40:38.000,332.631,-78.070,24415.150605
2 Jan 2020 02:41:08.000,334.475,-77.925,24499.752460
2 Jan 2020 02:41:38.000,336.266,-77.780,24588.190100
2 Jan 2020 02:42:08.000,338.005,-77.633,24680.381133
2 Jan 2020 02:42:38.000,339.694,-77.488,24776.239631
2 Jan 2020 02:43:08.000,341.334,-77.343,24875.677467
2 Jan 2020 02:43:38.000,342.927,-77.200,24978.603759
2 Jan 2020 02:44:08.000,344.475,-77.058,25084.925248
2 Jan 2020 02:44:38.000,345.979,-76.919,25194.546495
2 Jan 2020 02:45:08.000,347.442,-76.783,25307.370075
2 Jan 2020 02:45:38.000,348.864,-76.650,25423.296759
2 Jan 2020 02:46:08.000,350.248,-76.521,25542.225702
2 Jan 2020 02:46:38.000,351.595,-76.396,25664.054624
2 Jan 2020 02:47:08.000,352.907,-76.276,25788.679984
2 Jan 2020 02:47:38.000,354.186,-76.159,25915.997418
2 Jan 2020 02:48:08.000,355.432,-76.048,26045.900829
2 Jan 2020 02:48:24.557,356.107,-75.989,26118.663202
2 Jan 2020 04:18:13.919,223.374,-75.991,26120.639142
2 Jan 2020 04:18:43.000,223.794,-76.133,25950.224226
2 Jan 2020 04:19:13.000,224.235,-76.291,25776.265485
2 Jan 2020 04:19:43.000,224.685,-76.461,25604.333635
2 Jan 2020 04:20:13.000,225.145,-76.642,25434.587307
2 Jan 2020 04:20:43.000,225.615,-76.835,25267.186793
2 Jan 2020 04:21:13.000,226.098,-77.040,25102.293881
2 Jan 2020 04:21:43.000,226.596,-77.257,24940.071659
2 Jan 2020 04:22:13.000,227.109,-77.486,24780.684310
2 Jan 2020 04:22:43.000,227.640,-77.726,24624.296886
2 Jan 2020 04:23:13.000,228.191,-77.979,24471.075054
2 Jan 2020 04:23:43.000,228.765,-78.243,24321.184555
2 Jan 2020 04:24:13.000,229.364,-78.519,24174.792029
2 Jan 2020 04:24:43.000,229.992,-78.806,24032.063020
2 Jan 2020 04:25:13.000,230.652,-79.104,23893.162778
2 Jan 2020 04:25:43.000,231.350,-79.414,23758.255620
2 Jan 2020 04:26:13.000,232.088,-79.734,23627.504563
2 Jan 2020 04:26:43.000,232.875,-80.064,23501.070930
2 Jan 2020 04:27:13.000,233.716,-80.405,23379.113723
2 Jan 2020 04:27:43.000,234.619,-80.755,23261.790100
2 Jan 2020 04:28:13.000,235.594,-81.115,23149.253567
2 Jan 2020 04:28:43.000,236.653,-81.482,23041.654449
2 Jan 2020 04:29:13.000,237.809,-81.858,22939.139192
2 Jan 2020 04:29:43.000,239.078,-82.241,22841.849896
2 Jan 2020 04:30:13.000,240.482,-82.629,22749.923665
2 Jan 2020 04:30:43.000,242.045,-83.022,22663.492825
2 Jan 2020 04:31:13.000,243.798,-83.419,22582.683390
2 Jan 2020 04:31:43.000,245.780,-83.818,22507.615308
2 Jan 2020 04:32:13.000,248.038,-84.217,22438.401812
2 Jan 2020 04:32:43.000,250.635,-84.613,22375.148977
2 Jan 2020 04:33:13.000,253.647,-85.004,22317.955167
2 Jan 2020 04:33:43.000,257.169,-85.386,22266.911098
2 Jan 2020 04:34:13.000,261.321,-85.753,22222.098720
2 Jan 2020 04:34:43.000,266.242,-86.099,22183.591361
2 Jan 2020 04:35:13.000,272.086,-86.416,22151.453271
2 Jan 2020 04:35:43.000,278.995,-86.694,22125.739293
2 Jan 2020 04:36:13.000,287.047,-86.919,22106.494778
2 Jan 2020 04:36:43.000,296.176,-87.078,22093.755110
2 Jan 2020 04:37:13.000,306.089,-87.159,22087.545729
2 Jan 2020 04:37:43.000,316.275,-87.155,22087.881961
2 Jan 2020 04:38:13.000,326.131,-87.066,22094.768977
2 Jan 2020 04:38:43.000,335.160,-86.899,22108.201671
2 Jan 2020 04:39:13.000,343.093,-86.667,22128.164806
2 Jan 2020 04:39:43.000,349.881,-86.385,22154.633022
2 Jan 2020 04:40:13.000,355.609,-86.063,22187.570968
2 Jan 2020 04:40:43.000,0.424,-85.713,22226.933556
2 Jan 2020 04:41:13.000,4.477,-85.342,22272.665826
2 Jan 2020 04:41:43.000,7.909,-84.957,22324.703696
2 Jan 2020 04:42:13.000,10.834,-84.564,22382.973932
2 Jan 2020 04:42:43.000,13.346,-84.164,22447.394546
2 Jan 2020 04:43:13.000,15.522,-83.763,22517.875302
2 Jan 2020 04:43:43.000,17.420,-83.362,22594.317531
2 Jan 2020 04:44:13.000,19.089,-82.962,22676.615376
2 Jan 2020 04:44:43.000,20.565,-82.566,22764.655670
2 Jan 2020 04:45:13.000,21.879,-82.175,22858.318524
2 Jan 2020 04:45:43.000,23.056,-81.790,22957.477780
2 Jan 2020 04:46:13.000,24.116,-81.412,23062.001698
2 Jan 2020 04:46:43.000,25.074,-81.042,23171.752557
2 Jan 2020 04:47:13.000,25.945,-80.681,23286.588418
2 Jan 2020 04:47:43.000,26.739,-80.328,23406.362741
2 Jan 2020 04:48:13.000,27.466,-79.986,23530.925064
2 Jan 2020 04:48:43.000,28.134,-79.653,23660.121455
2 Jan 2020 04:49:13.000,28.749,-79.331,23793.794963
2 Jan 2020 04:49:43.000,29.317,-79.021,23931.786316
2 Jan 2020 04:50:13.000,29.844,-78.721,24073.933262
2 Jan 2020 04:50:43.000,30.332,-78.433,24220.072582
2 Jan 2020 04:51:13.000,30.787,-78.156,24370.039403
2 Jan 2020 04:51:43.000,31.210,-77.892,24523.667834
2 Jan 2020 04:52:13.000,31.605,-77.639,24680.791306
2 Jan 2020 04:52:43.000,31.974,-77.398,24841.242902
2 Jan 2020 04:53:13.000,32.320,-77.170,25004.855658
2 Jan 2020 04:53:43.000,32.643,-76.954,25171.462851
2 Jan 2020 04:54:13.000,32.947,-76.750,25340.898262
2 Jan 2020 04:54:43.000,33.231,-76.558,25512.996423
2 Jan 2020 04:55:13.000,33.498,-76.378,25687.593183
2 Jan 2020 04:55:43.000,33.749,-76.211,25864.524539
2 Jan 2020 04:56:13.000,33.984,-76.055,26043.628886
2 Jan 2020 04:56:25.794,34.080,-75.993,26120.632955
2 Jan 2020 06:22:33.471,199.915,-75.988,26116.083327
2 Jan 2020 06:23:03.000,199.141,-76.121,25955.671308
2 Jan 2020 06:23:33.000,198.324,-76.266,25795.093925
2 Jan 2020 06:24:03.000,197.477,-76.420,25637.072206
2 Jan 2020 06:24:33.000,196.596,-76.582,25481.749289
2 Jan 2020 06:25:03.000,195.680,-76.754,25329.268361
2 Jan 2020 06:25:33.000,194.725,-76.933,25179.772449
2 Jan 2020 06:26:03.000,193.729,-77.122,25033.404195
2 Jan 2020 06:26:33.000,192.689,-77.318,24890.305616
2 Jan 2020 06:27:03.000,191.602,-77.521,24750.617855
2 Jan 2020 06:27:33.000,190.464,-77.732,24614.480640
2 Jan 2020 06:28:03.000,189.271,-77.950,24482.033109
2 Jan 2020 06:28:33.000,188.020,-78.174,24353.411859
2 Jan 2020 06:29:03.000,186.705,-78.404,24228.751756
2 Jan 2020 06:29:33.000,185.322,-78.639,24108.185349
2 Jan 2020 06:30:03.000,183.866,-78.879,23991.842546
2 Jan 2020 06:30:33.000,182.331,-79.122,23879.850285
2 Jan 2020 06:31:03.000,180.711,-79.368,23772.331982
2 Jan 2020 06:31:33.000,178.999,-79.616,23669.408073
2 Jan 2020 06:32:03.000,177.189,-79.865,23571.194338
2 Jan 2020 06:32:33.000,175.274,-80.114,23477.802449
2 Jan 2020 06:33:03.000,173.246,-80.362,23389.339410
2 Jan 2020 06:33:33.000,171.098,-80.606,23305.907209
2 Jan 2020 06:34:03.000,168.823,-80.847,23227.602332
2 Jan 2020 06:34:33.000,166.413,-81.082,23154.516081
2 Jan 2020 06:35:03.000,163.863,-81.309,23086.733274
2 Jan 2020 06:35:33.000,161.166,-81.528,23024.332614
2 Jan 2020 06:36:03.000,158.318,-81.735,22967.386229
2 Jan 2020 06:36:33.000,155.318,-81.930,22915.959411
2 Jan 2020 06:37:03.000,152.165,-82.109,22870.110258
2 Jan 2020 06:37:33.000,148.864,-82.272,22829.889891
2 Jan 2020 06:38:03.000,145.421,-82.415,22795.341581
2 Jan 2020 06:38:33.000,141.849,-82.538,22766.501040
2 Jan 2020 06:39:03.000,138.161,-82.639,22743.396157
2 Jan 2020 06:39:33.000,134.380,-82.716,22726.046892
2 Jan 2020 06:40:03.000,130.528,-82.768,22714.465154
2 Jan 2020 06:40:33.000,126.633,-82.794,22708.654910
2 Jan 2020 06:41:03.000,122.722,-82.795,22708.611918
2 Jan 2020 06:41:33.000,118.827,-82.769,22714.323929
2 Jan 2020 06:42:03.000,114.974,-82.718,22725.770682
2 Jan 2020 06:42:33.000,111.192,-82.642,22742.923994
2 Jan 2020 06:43:03.000,107.503,-82.543,22765.747911
2 Jan 2020 06:43:33.000,103.926,-82.422,22794.198708
2 Jan 2020 06:44:03.000,100.477,-82.280,22828.225267
2 Jan 2020 06:44:33.000,97.166,-82.120,22867.769159
2 Jan 2020 06:45:03.000,94.000,-81.944,22912.764896
2 Jan 2020 06:45:33.000,90.982,-81.753,22963.140189
2 Jan 2020 06:46:03.000,88.112,-81.550,23018.816320
2 Jan 2020 06:46:33.000,85.387,-81.336,23079.708031
2 Jan 2020 06:47:03.000,82.804,-81.114,23145.724432
2 Jan 2020 06:47:33.000,80.356,-80.884,23216.768931
2 Jan 2020 06:48:03.000,78.037,-80.649,23292.739668
2 Jan 2020 06:48:33.000,75.839,-80.410,23373.529858
2 Jan 2020 06:49:03.000,73.756,-80.169,23459.028137
2 Jan 2020 06:49:33.000,71.780,-79.926,23549.119103
2 Jan 2020 06:50:03.000,69.903,-79.684,23643.682951
2 Jan 2020 06:50:33.000,68.119,-79.442,23742.596888
2 Jan 2020 06:51:03.000,66.420,-79.202,23845.734787
2 Jan 2020 06:51:33.000,64.800,-78.965,23952.967709
2 Jan 2020 06:52:03.000,63.254,-78.732,24064.164238
2 Jan 2020 06:52:33.000,61.776,-78.503,24179.190817
2 Jan 2020 06:53:03.000,60.360,-78.279,24297.912070
2 Jan 2020 06:53:33.000,59.002,-78.060,24420.191112
2 Jan 2020 06:54:03.000,57.697,-77.848,24545.890107
2 Jan 2020 06:54:33.000,56.441,-77.641,24674.869542
2 Jan 2020 06:55:03.000,55.231,-77.442,24806.990007
2 Jan 2020 06:55:33.000,54.062,-77.250,24942.111463
2 Jan 2020 06:56:03.000,52.931,-77.065,25080.093729
2 Jan 2020 06:56:33.000,51.836,-76.887,25220.796723
2 Jan 2020 06:57:03.000,50.774,-76.718,25364.080672
2 Jan 2020 06:57:33.000,49.742,-76.557,25509.806321
2 Jan 2020 06:58:03.000,48.737,-76.403,25657.835117
2 Jan 2020 06:58:33.000,47.759,-76.258,25808.029391
2 Jan 2020 06:59:03.000,46.803,-76.122,25960.252513
2 Jan 2020 06:59:33.000,45.870,-75.994,26114.369045
2 Jan 2020 06:59:33.263,45.862,-75.993,26115.725710
2 Jan 2020 08:34:16.512,152.246,-75.986,26108.253036
2 Jan 2020 08:34:46.000,150.915,-76.081,25993.093559
2 Jan 2020 08:35:16.000,149.534,-76.181,25878.199807
2 Jan 2020 08:35:46.000,148.124,-76.285,25765.681404
2 Jan 2020 08:36:16.000,146.684,-76.392,25655.629940
2 Jan 2020 08:36:46.000,145.213,-76.502,25548.136338
2 Jan 2020 08:37:16.000,143.710,-76.615,25443.290723
2 Jan 2020 08:37:46.000,142.173,-76.730,25341.182284
2 Jan 2020 08:38:16.000,140.601,-76.848,25241.899133
2 Jan 2020 08:38:46.000,138.993,-76.967,25145.528163
2 Jan 2020 08:39:16.000,137.348,-77.087,25052.154895
2 Jan 2020 08:39:46.000,135.664,-77.208,24961.863148
2 Jan 2020 08:40:16.000,133.941,-77.329,24874.735613
2 Jan 2020 08:40:46.000,132.178,-77.451,24790.852591
2 Jan 2020 08:41:16.000,130.373,-77.572,24710.292576
2 Jan 2020 08:41:46.000,128.527,-77.692,24633.131908
2 Jan 2020 08:42:16.000,126.637,-77.810,24559.444611
2 Jan 2020 08:42:46.000,124.704,-77.926,24489.302236
