STKdata/stk_70fov_6leo/Satellite-MEO_Satellite10205-To-Satellite-LEO_Satellite20000 AER.csv

"Time (UTCG)","Azimuth (deg)","Elevation (deg)","Range (km)"
1 Jan 2020 00:48:54.107,295.587,-75.982,26104.044898
1 Jan 2020 00:49:24.000,294.738,-76.150,25904.837994
1 Jan 2020 00:49:54.000,293.841,-76.332,25708.589541
1 Jan 2020 00:50:24.000,292.895,-76.527,25516.289717
1 Jan 2020 00:50:54.000,291.895,-76.736,25328.209669
1 Jan 2020 00:51:24.000,290.836,-76.957,25144.620774
1 Jan 2020 00:51:54.000,289.713,-77.191,24965.793998
1 Jan 2020 00:52:24.000,288.522,-77.437,24791.998939
1 Jan 2020 00:52:54.000,287.254,-77.694,24623.504194
1 Jan 2020 00:53:24.000,285.903,-77.961,24460.574901
1 Jan 2020 00:53:54.000,284.461,-78.238,24303.473027
1 Jan 2020 00:54:24.000,282.919,-78.523,24152.456213
1 Jan 2020 00:54:54.000,281.269,-78.816,24007.776609
1 Jan 2020 00:55:24.000,279.499,-79.114,23869.680897
1 Jan 2020 00:55:54.000,277.598,-79.416,23738.407834
1 Jan 2020 00:56:24.000,275.555,-79.720,23614.188245
1 Jan 2020 00:56:54.000,273.356,-80.025,23497.243744
1 Jan 2020 00:57:24.000,270.988,-80.328,23387.785500
1 Jan 2020 00:57:54.000,268.436,-80.626,23286.014097
1 Jan 2020 00:58:24.000,265.689,-80.918,23192.117179
1 Jan 2020 00:58:54.000,262.733,-81.199,23106.269389
1 Jan 2020 00:59:24.000,259.558,-81.466,23028.631045
1 Jan 2020 00:59:54.000,256.157,-81.717,22959.347827
1 Jan 2020 01:00:24.000,252.527,-81.947,22898.549058
1 Jan 2020 01:00:54.000,248.672,-82.153,22846.347543
1 Jan 2020 01:01:24.000,244.602,-82.330,22802.838649
1 Jan 2020 01:01:54.000,240.339,-82.476,22768.100081
1 Jan 2020 01:02:24.000,235.914,-82.588,22742.190824
1 Jan 2020 01:02:54.000,231.365,-82.663,22725.151161
1 Jan 2020 01:03:24.000,226.741,-82.699,22717.002277
1 Jan 2020 01:03:54.000,222.093,-82.696,22717.746238
1 Jan 2020 01:04:24.000,217.477,-82.653,22727.365755
1 Jan 2020 01:04:54.000,212.943,-82.573,22745.824439
1 Jan 2020 01:05:24.000,208.537,-82.456,22773.067009
1 Jan 2020 01:05:54.000,204.298,-82.305,22809.019491
1 Jan 2020 01:06:24.000,200.251,-82.124,22853.589844
1 Jan 2020 01:06:54.000,196.417,-81.916,22906.668406
1 Jan 2020 01:07:24.000,192.803,-81.685,22968.128657
1 Jan 2020 01:07:54.000,189.412,-81.435,23037.827595
1 Jan 2020 01:08:24.000,186.239,-81.168,23115.607070
1 Jan 2020 01:08:54.000,183.277,-80.890,23201.294329
1 Jan 2020 01:09:24.000,180.514,-80.601,23294.703171
1 Jan 2020 01:09:54.000,177.938,-80.307,23395.634388
1 Jan 2020 01:10:24.000,175.534,-80.009,23503.877561
1 Jan 2020 01:10:54.000,173.290,-79.709,23619.211582
1 Jan 2020 01:11:24.000,171.191,-79.410,23741.405812
1 Jan 2020 01:11:54.000,169.226,-79.114,23870.221340
1 Jan 2020 01:12:24.000,167.381,-78.822,24005.411172
1 Jan 2020 01:12:54.000,165.646,-78.536,24146.722479
1 Jan 2020 01:13:24.000,164.011,-78.257,24293.896766
1 Jan 2020 01:13:54.000,162.466,-77.987,24446.671024
1 Jan 2020 01:14:24.000,161.003,-77.726,24604.778642
1 Jan 2020 01:14:54.000,159.614,-77.474,24767.950534
1 Jan 2020 01:15:24.000,158.292,-77.234,24935.914941
1 Jan 2020 01:15:54.000,157.031,-77.005,25108.399718
1 Jan 2020 01:16:24.000,155.824,-76.788,25285.132059
1 Jan 2020 01:16:54.000,154.666,-76.583,25465.839413
1 Jan 2020 01:17:24.000,153.554,-76.391,25650.250099
1 Jan 2020 01:17:54.000,152.481,-76.212,25838.093882
1 Jan 2020 01:18:24.000,151.445,-76.046,26029.102481
1 Jan 2020 01:18:35.613,151.053,-75.985,26103.835648
1 Jan 2020 02:33:37.295,282.167,-75.982,26102.248680
1 Jan 2020 02:34:07.000,280.269,-76.058,26009.468255
1 Jan 2020 02:34:37.000,278.312,-76.133,25921.192563
1 Jan 2020 02:35:07.000,276.316,-76.207,25838.505802
1 Jan 2020 02:35:37.000,274.283,-76.279,25761.537506
1 Jan 2020 02:36:07.000,272.213,-76.347,25690.408411
1 Jan 2020 02:36:37.000,270.107,-76.412,25625.229876
1 Jan 2020 02:37:07.000,267.969,-76.472,25566.103901
1 Jan 2020 02:37:37.000,265.799,-76.528,25513.122005
1 Jan 2020 02:38:07.000,263.601,-76.578,25466.365327
1 Jan 2020 02:38:37.000,261.377,-76.622,25425.904160
1 Jan 2020 02:39:07.000,259.130,-76.660,25391.797584
1 Jan 2020 02:39:37.000,256.865,-76.692,25364.093473
1 Jan 2020 02:40:07.000,254.584,-76.716,25342.827873
1 Jan 2020 02:40:37.000,252.292,-76.733,25328.025121
1 Jan 2020 02:41:07.000,249.992,-76.743,25319.697665
1 Jan 2020 02:41:37.000,247.688,-76.745,25317.845985
1 Jan 2020 02:42:07.000,245.385,-76.739,25322.458659
1 Jan 2020 02:42:37.000,243.087,-76.726,25333.512293
1 Jan 2020 02:43:07.000,240.798,-76.706,25350.971706
1 Jan 2020 02:43:37.000,238.521,-76.679,25374.790060
1 Jan 2020 02:44:07.000,236.260,-76.645,25404.909094
1 Jan 2020 02:44:37.000,234.018,-76.605,25441.259250
1 Jan 2020 02:45:07.000,231.800,-76.559,25483.760140
1 Jan 2020 02:45:37.000,229.607,-76.507,25532.320779
1 Jan 2020 02:46:07.000,227.441,-76.450,25586.839982
1 Jan 2020 02:46:37.000,225.306,-76.389,25647.206785
1 Jan 2020 02:47:07.000,223.204,-76.324,25713.300974
1 Jan 2020 02:47:37.000,221.134,-76.256,25784.993185
1 Jan 2020 02:48:07.000,219.100,-76.185,25862.145950
1 Jan 2020 02:48:37.000,217.101,-76.112,25944.613847
1 Jan 2020 02:49:07.000,215.139,-76.038,26032.244119
1 Jan 2020 02:49:29.780,213.673,-75.981,26102.134921
1 Jan 2020 04:06:58.458,323.110,-75.987,26106.056372
1 Jan 2020 04:07:28.000,321.185,-76.057,26020.575642
1 Jan 2020 04:07:58.000,319.195,-76.126,25938.857704
1 Jan 2020 04:08:28.000,317.171,-76.194,25862.415748
1 Jan 2020 04:08:58.000,315.114,-76.259,25791.393015
1 Jan 2020 04:09:28.000,313.024,-76.321,25725.924909
1 Jan 2020 04:09:58.000,310.904,-76.379,25666.138430
1 Jan 2020 04:10:28.000,308.754,-76.433,25612.151974
1 Jan 2020 04:10:58.000,306.578,-76.483,25564.074435
1 Jan 2020 04:11:28.000,304.377,-76.527,25522.005074
1 Jan 2020 04:11:58.000,302.154,-76.565,25486.033043
1 Jan 2020 04:12:28.000,299.913,-76.597,25456.236992
1 Jan 2020 04:12:58.000,297.657,-76.623,25432.684844
1 Jan 2020 04:13:28.000,295.388,-76.642,25415.433348
1 Jan 2020 04:13:58.000,293.112,-76.654,25404.527950
1 Jan 2020 04:14:28.000,290.831,-76.659,25400.002573
1 Jan 2020 04:14:58.000,288.549,-76.657,25401.879495
1 Jan 2020 04:15:28.000,286.271,-76.648,25410.169168
1 Jan 2020 04:15:58.000,284.000,-76.631,25424.870292
1 Jan 2020 04:16:28.000,281.740,-76.608,25445.969754
1 Jan 2020 04:16:58.000,279.495,-76.578,25473.442708
1 Jan 2020 04:17:28.000,277.268,-76.541,25507.252757
1 Jan 2020 04:17:58.000,275.063,-76.499,25547.351839
1 Jan 2020 04:18:28.000,272.883,-76.451,25593.680838
1 Jan 2020 04:18:58.000,270.730,-76.397,25646.169584
1 Jan 2020 04:19:28.000,268.606,-76.339,25704.737208
1 Jan 2020 04:19:58.000,266.515,-76.277,25769.292600
1 Jan 2020 04:20:28.000,264.457,-76.212,25839.734345
1 Jan 2020 04:20:58.000,262.435,-76.143,25915.951771
1 Jan 2020 04:21:28.000,260.449,-76.073,25997.824968
1 Jan 2020 04:21:58.000,258.501,-76.001,26085.225352
1 Jan 2020 04:22:04.800,258.065,-75.984,26105.791630
1 Jan 2020 05:37:23.887,27.275,-75.993,26112.627824
1 Jan 2020 05:37:53.000,26.234,-76.147,25928.793461
1 Jan 2020 05:38:23.000,25.126,-76.318,25742.414893
1 Jan 2020 05:38:53.000,23.978,-76.502,25559.401149
1 Jan 2020 05:39:23.000,22.785,-76.697,25380.019809
1 Jan 2020 05:39:53.000,21.542,-76.904,25204.539893
1 Jan 2020 05:40:23.000,20.246,-77.123,25033.231300
1 Jan 2020 05:40:53.000,18.889,-77.353,24866.364206
1 Jan 2020 05:41:23.000,17.467,-77.593,24704.208172
1 Jan 2020 05:41:53.000,15.972,-77.842,24547.032392
1 Jan 2020 05:42:23.000,14.397,-78.101,24395.103491
1 Jan 2020 05:42:53.000,12.735,-78.367,24248.685693
1 Jan 2020 05:43:23.000,10.976,-78.640,24108.039729
1 Jan 2020 05:43:53.000,9.112,-78.918,23973.421943
1 Jan 2020 05:44:23.000,7.132,-79.200,23845.083155
1 Jan 2020 05:44:53.000,5.025,-79.484,23723.268552
1 Jan 2020 05:45:23.000,2.782,-79.769,23608.215400
1 Jan 2020 05:45:53.000,0.389,-80.052,23500.152921
1 Jan 2020 05:46:23.000,357.836,-80.331,23399.301044
1 Jan 2020 05:46:53.000,355.111,-80.604,23305.869251
1 Jan 2020 05:47:23.000,352.205,-80.868,23220.056152
1 Jan 2020 05:47:53.000,349.108,-81.120,23142.047588
1 Jan 2020 05:48:23.000,345.816,-81.357,23072.016285
1 Jan 2020 05:48:53.000,342.325,-81.575,23010.120702
1 Jan 2020 05:49:23.000,338.640,-81.772,22956.504478
1 Jan 2020 05:49:53.000,334.769,-81.943,22911.295131
1 Jan 2020 05:50:23.000,330.729,-82.086,22874.603671
1 Jan 2020 05:50:53.000,326.544,-82.199,22846.523842
1 Jan 2020 05:51:23.000,322.246,-82.278,22827.131672
1 Jan 2020 05:51:53.000,317.873,-82.321,22816.484844
1 Jan 2020 05:52:23.000,313.468,-82.329,22814.622487
1 Jan 2020 05:52:53.000,309.078,-82.300,22821.564946
1 Jan 2020 05:53:23.000,304.745,-82.235,22837.313526
1 Jan 2020 05:53:53.000,300.512,-82.136,22861.850687
1 Jan 2020 05:54:23.000,296.414,-82.005,22895.140056
1 Jan 2020 05:54:53.000,292.479,-81.843,22937.126787
1 Jan 2020 05:55:23.000,288.728,-81.655,22987.737524
1 Jan 2020 05:55:53.000,285.174,-81.443,23046.881419
1 Jan 2020 05:56:23.000,281.823,-81.210,23114.450328
1 Jan 2020 05:56:53.000,278.676,-80.961,23190.319698
1 Jan 2020 05:57:23.000,275.729,-80.697,23274.348701
1 Jan 2020 05:57:53.000,272.974,-80.423,23366.381909
1 Jan 2020 05:58:23.000,270.403,-80.141,23466.249590
1 Jan 2020 05:58:53.000,268.004,-79.854,23573.768944
1 Jan 2020 05:59:23.000,265.767,-79.565,23688.744317
1 Jan 2020 05:59:53.000,263.679,-79.274,23810.969275
1 Jan 2020 06:00:23.000,261.730,-78.986,23940.226880
1 Jan 2020 06:00:53.000,259.910,-78.700,24076.290869
1 Jan 2020 06:01:23.000,258.206,-78.419,24218.926918
1 Jan 2020 06:01:53.000,256.611,-78.145,24367.892590
1 Jan 2020 06:02:23.000,255.114,-77.878,24522.939845
1 Jan 2020 06:02:53.000,253.708,-77.620,24683.814962
1 Jan 2020 06:03:23.000,252.386,-77.372,24850.259704
1 Jan 2020 06:03:53.000,251.140,-77.134,25022.012183
1 Jan 2020 06:04:23.000,249.965,-76.907,25198.807991
1 Jan 2020 06:04:53.000,248.854,-76.692,25380.379792
1 Jan 2020 06:05:23.000,247.803,-76.490,25566.459837
1 Jan 2020 06:05:53.000,246.806,-76.300,25756.779471
1 Jan 2020 06:06:23.000,245.860,-76.123,25951.070066
1 Jan 2020 06:06:47.547,245.121,-75.988,26112.813554
1 Jan 2020 07:18:06.933,58.085,-75.996,26119.133163
1 Jan 2020 07:18:36.000,58.451,-76.172,25911.156847
1 Jan 2020 07:19:06.000,58.857,-76.369,25699.639488
1 Jan 2020 07:19:36.000,59.292,-76.584,25491.586759
1 Jan 2020 07:20:06.000,59.761,-76.816,25287.284287
1 Jan 2020 07:20:36.000,60.265,-77.064,25087.019937
1 Jan 2020 07:21:06.000,60.808,-77.330,24891.083257
1 Jan 2020 07:21:36.000,61.396,-77.613,24699.764868
1 Jan 2020 07:22:06.000,62.032,-77.912,24513.355476
1 Jan 2020 07:22:36.000,62.721,-78.228,24332.146400
1 Jan 2020 07:23:06.000,63.472,-78.560,24156.426876
1 Jan 2020 07:23:36.000,64.290,-78.907,23986.484468
1 Jan 2020 07:24:06.000,65.185,-79.269,23822.603839
1 Jan 2020 07:24:36.000,66.168,-79.646,23665.065517
1 Jan 2020 07:25:06.000,67.251,-80.036,23514.145898
1 Jan 2020 07:25:36.000,68.450,-80.438,23370.114615
1 Jan 2020 07:26:06.000,69.781,-80.851,23233.234468
1 Jan 2020 07:26:36.000,71.267,-81.274,23103.760012
1 Jan 2020 07:27:06.000,72.935,-81.706,22981.936144
1 Jan 2020 07:27:36.000,74.817,-82.143,22867.997878
1 Jan 2020 07:28:06.000,76.952,-82.584,22762.167684
1 Jan 2020 07:28:36.000,79.390,-83.026,22664.655305
1 Jan 2020 07:29:06.000,82.189,-83.465,22575.656184
1 Jan 2020 07:29:36.000,85.421,-83.897,22495.350992
1 Jan 2020 07:30:06.000,89.172,-84.316,22423.903569
1 Jan 2020 07:30:36.000,93.539,-84.715,22361.460597
1 Jan 2020 07:31:06.000,98.628,-85.087,22308.150405
1 Jan 2020 07:31:36.000,104.536,-85.421,22264.082569
1 Jan 2020 07:32:06.000,111.327,-85.705,22229.346528
1 Jan 2020 07:32:36.000,118.990,-85.926,22204.011449
1 Jan 2020 07:33:06.000,127.392,-86.072,22188.125596
1 Jan 2020 07:33:36.000,136.255,-86.132,22181.716156
1 Jan 2020 07:34:06.000,145.191,-86.103,22184.788784
1 Jan 2020 07:34:36.000,153.793,-85.986,22197.327750
1 Jan 2020 07:35:06.000,161.741,-85.790,22219.296022
1 Jan 2020 07:35:36.000,168.852,-85.528,22250.635375
1 Jan 2020 07:36:06.000,175.079,-85.211,22291.266953
1 Jan 2020 07:36:36.000,180.466,-84.852,22341.091692
1 Jan 2020 07:37:06.000,185.103,-84.463,22399.991088
1 Jan 2020 07:37:36.000,189.095,-84.052,22467.827550
1 Jan 2020 07:38:06.000,192.544,-83.627,22544.445857
1 Jan 2020 07:38:36.000,195.538,-83.192,22629.673734
1 Jan 2020 07:39:06.000,198.155,-82.754,22723.323139
1 Jan 2020 07:39:36.000,200.457,-82.315,22825.190732
1 Jan 2020 07:40:06.000,202.498,-81.879,22935.059934
1 Jan 2020 07:40:36.000,204.319,-81.449,23052.701507
1 Jan 2020 07:41:06.000,205.954,-81.026,23177.875087
1 Jan 2020 07:41:36.000,207.434,-80.612,23310.329632
1 Jan 2020 07:42:06.000,208.780,-80.209,23449.805732
1 Jan 2020 07:42:36.000,210.012,-79.818,23596.036052
1 Jan 2020 07:43:06.000,211.147,-79.440,23748.746666
1 Jan 2020 07:43:36.000,212.197,-79.075,23907.658422
1 Jan 2020 07:44:06.000,213.174,-78.726,24072.487000
1 Jan 2020 07:44:36.000,214.088,-78.391,24242.945430
1 Jan 2020 07:45:06.000,214.946,-78.072,24418.744071
1 Jan 2020 07:45:36.000,215.756,-77.768,24599.591755
1 Jan 2020 07:46:06.000,216.524,-77.481,24785.196632
1 Jan 2020 07:46:36.000,217.254,-77.211,24975.266956
1 Jan 2020 07:47:06.000,217.952,-76.956,25169.512114
1 Jan 2020 07:47:36.000,218.622,-76.719,25367.642032
1 Jan 2020 07:48:06.000,219.266,-76.498,25569.369642
1 Jan 2020 07:48:36.000,219.887,-76.294,25774.410177
1 Jan 2020 07:49:06.000,220.490,-76.106,25982.481961
1 Jan 2020 07:49:25.527,220.873,-75.993,26119.414012
1 Jan 2020 09:02:35.638,74.715,-75.998,26122.525316
1 Jan 2020 09:03:05.000,76.355,-76.106,25990.751556
1 Jan 2020 09:03:35.000,78.081,-76.221,25861.035401
1 Jan 2020 09:04:05.000,79.862,-76.338,25736.489378
1 Jan 2020 09:04:35.000,81.696,-76.456,25617.303430
1 Jan 2020 09:05:05.000,83.587,-76.576,25503.661277
1 Jan 2020 09:05:35.000,85.535,-76.695,25395.739589
1 Jan 2020 09:06:05.000,87.541,-76.813,25293.708060
1 Jan 2020 09:06:35.000,89.604,-76.930,25197.727682
1 Jan 2020 09:07:05.000,91.725,-77.043,25107.950844
1 Jan 2020 09:07:35.000,93.902,-77.153,25024.520529
1 Jan 2020 09:08:05.000,96.135,-77.257,24947.569579
1 Jan 2020 09:08:35.000,98.422,-77.356,24877.220683
1 Jan 2020 09:09:05.000,100.759,-77.448,24813.584984
1 Jan 2020 09:09:35.000,103.146,-77.533,24756.762152
1 Jan 2020 09:10:05.000,105.576,-77.609,24706.839778
1 Jan 2020 09:10:35.000,108.047,-77.676,24663.892870
1 Jan 2020 09:11:05.000,110.554,-77.732,24627.983862
1 Jan 2020 09:11:35.000,113.090,-77.778,24599.161736
1 Jan 2020 09:12:05.000,115.649,-77.814,24577.462173
1 Jan 2020 09:12:35.000,118.227,-77.837,24562.907266
1 Jan 2020 09:13:05.000,120.815,-77.850,24555.505377
1 Jan 2020 09:13:35.000,123.407,-77.850,24555.251225
1 Jan 2020 09:14:05.000,125.996,-77.839,24562.125679
1 Jan 2020 09:14:35.000,128.576,-77.816,24576.096007
1 Jan 2020 09:15:05.000,131.140,-77.782,24597.115984
1 Jan 2020 09:15:35.000,133.681,-77.737,24625.126144
1 Jan 2020 09:16:05.000,136.195,-77.682,24660.053950
1 Jan 2020 09:16:35.000,138.675,-77.617,24701.814277
1 Jan 2020 09:17:05.000,141.117,-77.543,24750.309726
1 Jan 2020 09:17:35.000,143.518,-77.460,24805.431086
1 Jan 2020 09:18:05.000,145.874,-77.371,24867.057909
1 Jan 2020 09:18:35.000,148.181,-77.275,24935.058725
1 Jan 2020 09:19:05.000,150.439,-77.173,25009.292072
1 Jan 2020 09:19:35.000,152.645,-77.067,25089.606799
1 Jan 2020 09:20:05.000,154.799,-76.957,25175.842757
1 Jan 2020 09:20:35.000,156.900,-76.844,25267.831438
1 Jan 2020 09:21:05.000,158.948,-76.730,25365.396779
1 Jan 2020 09:21:35.000,160.943,-76.614,25468.355237
1 Jan 2020 09:22:05.000,162.887,-76.498,25576.517310
1 Jan 2020 09:22:35.000,164.781,-76.383,25689.687635
1 Jan 2020 09:23:05.000,166.625,-76.270,25807.665772
1 Jan 2020 09:23:35.000,168.421,-76.159,25930.246850
1 Jan 2020 09:24:05.000,170.171,-76.050,26057.222188
1 Jan 2020 09:24:20.063,171.034,-75.997,26122.565831
1 Jan 2020 10:42:26.614,62.655,-75.995,26120.487522
1 Jan 2020 10:42:56.000,64.670,-76.037,26068.537137
1 Jan 2020 10:43:26.000,66.750,-76.077,26021.073728
1 Jan 2020 10:43:56.000,68.850,-76.112,25979.329042
1 Jan 2020 10:44:26.000,70.968,-76.143,25943.382161
1 Jan 2020 10:44:56.000,73.102,-76.170,25913.302264
1 Jan 2020 10:45:26.000,75.249,-76.192,25889.148328
1 Jan 2020 10:45:56.000,77.407,-76.208,25870.969003
1 Jan 2020 10:46:26.000,79.572,-76.219,25858.802225
1 Jan 2020 10:46:56.000,81.741,-76.225,25852.675198
1 Jan 2020 10:47:26.000,83.912,-76.225,25852.604243
1 Jan 2020 10:47:56.000,86.082,-76.220,25858.594751
1 Jan 2020 10:48:26.000,88.247,-76.209,25870.641092
1 Jan 2020 10:48:56.000,90.404,-76.193,25888.726731
1 Jan 2020 10:49:26.000,92.551,-76.171,25912.824241
1 Jan 2020 10:49:56.000,94.684,-76.145,25942.895433
1 Jan 2020 10:50:26.000,96.801,-76.114,25978.891512
1 Jan 2020 10:50:56.000,98.900,-76.078,26020.753355
1 Jan 2020 10:51:26.000,100.979,-76.039,26068.411441
1 Jan 2020 10:51:55.400,102.993,-75.997,26120.664073
1 Jan 2020 12:09:28.549,348.613,-75.988,26114.302393
1 Jan 2020 12:09:58.000,350.022,-76.120,25954.820468
1 Jan 2020 12:10:28.000,351.502,-76.263,25795.922800
1 Jan 2020 12:10:58.000,353.030,-76.414,25640.858452
1 Jan 2020 12:11:28.000,354.611,-76.572,25489.871254
1 Jan 2020 12:11:58.000,356.248,-76.736,25343.204112
1 Jan 2020 12:12:28.000,357.944,-76.905,25201.098399
1 Jan 2020 12:12:58.000,359.704,-77.080,25063.793293
1 Jan 2020 12:13:28.000,1.531,-77.258,24931.524896
1 Jan 2020 12:13:58.000,3.429,-77.440,24804.526320
1 Jan 2020 12:14:28.000,5.403,-77.623,24683.025712
1 Jan 2020 12:14:58.000,7.456,-77.807,24567.246307
1 Jan 2020 12:15:28.000,9.591,-77.990,24457.405425
1 Jan 2020 12:15:58.000,11.811,-78.172,24353.713524
1 Jan 2020 12:16:28.000,14.119,-78.350,24256.373916
1 Jan 2020 12:16:58.000,16.517,-78.524,24165.581126
1 Jan 2020 12:17:28.000,19.006,-78.691,24081.520621
1 Jan 2020 12:17:58.000,21.586,-78.851,24004.367853
1 Jan 2020 12:18:28.000,24.255,-79.001,23934.287381
1 Jan 2020 12:18:58.000,27.012,-79.139,23871.432471
1 Jan 2020 12:19:28.000,29.852,-79.265,23815.943782
1 Jan 2020 12:19:58.000,32.768,-79.377,23767.949073
1 Jan 2020 12:20:28.000,35.755,-79.473,23727.562423
1 Jan 2020 12:20:58.000,38.802,-79.552,23694.883796
1 Jan 2020 12:21:28.000,41.898,-79.614,23669.998280
1 Jan 2020 12:21:58.000,45.031,-79.656,23652.975811
1 Jan 2020 12:22:28.000,48.188,-79.679,23643.870771
1 Jan 2020 12:22:58.000,51.353,-79.682,23642.721656
1 Jan 2020 12:23:28.000,54.513,-79.665,23649.550919
1 Jan 2020 12:23:58.000,57.653,-79.628,23664.364837
1 Jan 2020 12:24:28.000,60.759,-79.572,23687.153555
1 Jan 2020 12:24:58.000,63.818,-79.498,23717.890902
1 Jan 2020 12:25:28.000,66.817,-79.405,23756.534898
1 Jan 2020 12:25:58.000,69.746,-79.297,23803.027776
1 Jan 2020 12:26:28.000,72.598,-79.173,23857.296467
1 Jan 2020 12:26:58.000,75.364,-79.035,23919.252572
1 Jan 2020 12:27:28.000,78.040,-78.886,23988.793470
1 Jan 2020 12:27:58.000,80.622,-78.726,24065.802453
1 Jan 2020 12:28:28.000,83.108,-78.557,24150.149431
1 Jan 2020 12:28:58.000,85.498,-78.381,24241.691781
1 Jan 2020 12:29:28.000,87.791,-78.199,24340.274281
1 Jan 2020 12:29:58.000,89.989,-78.014,24445.730985
1 Jan 2020 12:30:28.000,92.094,-77.826,24557.885244
1 Jan 2020 12:30:58.000,94.109,-77.636,24676.550676
1 Jan 2020 12:31:28.000,96.037,-77.448,24801.532193
1 Jan 2020 12:31:58.000,97.882,-77.261,24932.625925
1 Jan 2020 12:32:28.000,99.647,-77.076,25069.621331
1 Jan 2020 12:32:58.000,101.336,-76.896,25212.301137
1 Jan 2020 12:33:28.000,102.953,-76.720,25360.442334
1 Jan 2020 12:33:58.000,104.502,-76.550,25513.816942
1 Jan 2020 12:34:28.000,105.986,-76.387,25672.193018
1 Jan 2020 12:34:58.000,107.409,-76.232,25835.334320
1 Jan 2020 12:35:28.000,108.775,-76.084,26003.002559
1 Jan 2020 12:35:47.505,109.634,-75.993,26114.329623
1 Jan 2020 13:47:42.138,309.596,-75.984,26107.524788
1 Jan 2020 13:48:12.000,309.709,-76.167,25890.687844
1 Jan 2020 13:48:42.000,309.817,-76.369,25675.736060
1 Jan 2020 13:49:12.000,309.920,-76.588,25463.960491
1 Jan 2020 13:49:42.000,310.019,-76.827,25255.649217
1 Jan 2020 13:50:12.000,310.113,-77.083,25051.093463
1 Jan 2020 13:50:42.000,310.203,-77.358,24850.587098
1 Jan 2020 13:51:12.000,310.288,-77.652,24654.426083
1 Jan 2020 13:51:42.000,310.370,-77.965,24462.907554
1 Jan 2020 13:52:12.000,310.447,-78.296,24276.330329
1 Jan 2020 13:52:42.000,310.520,-78.645,24094.992359
1 Jan 2020 13:53:12.000,310.589,-79.013,23919.191119
1 Jan 2020 13:53:42.000,310.654,-79.400,23749.222419
1 Jan 2020 13:54:12.000,310.715,-79.804,23585.379213
1 Jan 2020 13:54:42.000,310.772,-80.226,23427.951584
1 Jan 2020 13:55:12.000,310.825,-80.665,23277.224166
1 Jan 2020 13:55:42.000,310.874,-81.121,23133.476037
1 Jan 2020 13:56:12.000,310.919,-81.593,22996.979298
1 Jan 2020 13:56:42.000,310.960,-82.081,22867.997625
1 Jan 2020 13:57:12.000,310.997,-82.584,22746.785996
1 Jan 2020 13:57:42.000,311.029,-83.102,22633.587977
1 Jan 2020 13:58:12.000,311.057,-83.633,22528.635446
1 Jan 2020 13:58:42.000,311.079,-84.177,22432.146935
1 Jan 2020 13:59:12.000,311.096,-84.732,22344.327050
1 Jan 2020 13:59:42.000,311.107,-85.299,22265.364280
1 Jan 2020 14:00:12.000,311.110,-85.875,22195.430535
1 Jan 2020 14:00:42.000,311.102,-86.460,22134.679804
1 Jan 2020 14:01:12.000,311.080,-87.052,22083.247600
1 Jan 2020 14:01:42.000,311.035,-87.651,22041.249393
1 Jan 2020 14:02:12.000,310.947,-88.254,22008.780313
1 Jan 2020 14:02:42.000,310.749,-88.861,21985.914339
1 Jan 2020 14:03:12.000,310.074,-89.471,21972.703956
1 Jan 2020 14:03:42.000,139.446,-89.917,21969.179516
1 Jan 2020 14:04:12.000,132.306,-89.307,21975.349226
1 Jan 2020 14:04:42.000,131.848,-88.698,21991.199075
1 Jan 2020 14:05:12.000,131.675,-88.091,22016.692787
1 Jan 2020 14:05:42.000,131.579,-87.489,22051.772262
1 Jan 2020 14:06:12.000,131.512,-86.892,22096.357874
1 Jan 2020 14:06:42.000,131.459,-86.302,22150.349151
1 Jan 2020 14:07:12.000,131.413,-85.719,22213.625020
1 Jan 2020 14:07:42.000,131.370,-85.146,22286.045235
1 Jan 2020 14:08:12.000,131.327,-84.582,22367.450890
1 Jan 2020 14:08:42.000,131.284,-84.030,22457.665699
1 Jan 2020 14:09:12.000,131.240,-83.489,22556.496410
1 Jan 2020 14:09:42.000,131.194,-82.962,22663.734944
1 Jan 2020 14:10:12.000,131.147,-82.448,22779.158958
1 Jan 2020 14:10:42.000,131.096,-81.949,22902.533448
1 Jan 2020 14:11:12.000,131.043,-81.465,23033.611181
1 Jan 2020 14:11:42.000,130.988,-80.997,23172.135168
1 Jan 2020 14:12:12.000,130.929,-80.546,23317.839120
1 Jan 2020 14:12:42.000,130.867,-80.111,23470.448871
1 Jan 2020 14:13:12.000,130.802,-79.694,23629.683859
1 Jan 2020 14:13:42.000,130.733,-79.295,23795.257164
1 Jan 2020 14:14:12.000,130.662,-78.914,23966.878278
1 Jan 2020 14:14:42.000,130.586,-78.551,24144.253065
1 Jan 2020 14:15:12.000,130.507,-78.206,24327.085021
1 Jan 2020 14:15:42.000,130.424,-77.880,24515.076211
1 Jan 2020 14:16:12.000,130.337,-77.573,24707.928440
1 Jan 2020 14:16:42.000,130.246,-77.284,24905.342827
1 Jan 2020 14:17:12.000,130.151,-77.014,25107.022370
1 Jan 2020 14:17:42.000,130.052,-76.763,25312.671397
1 Jan 2020 14:18:12.000,129.949,-76.530,25521.996473
1 Jan 2020 14:18:42.000,129.841,-76.315,25734.706943
1 Jan 2020 14:19:12.000,129.729,-76.118,25950.515410
1 Jan 2020 14:19:33.532,129.645,-75.988,26107.159450
1 Jan 2020 15:31:28.255,289.593,-75.982,26102.769255
1 Jan 2020 15:31:58.000,288.272,-76.123,25933.969065
1 Jan 2020 15:32:28.000,286.885,-76.273,25768.075439
1 Jan 2020 15:32:58.000,285.440,-76.431,25606.792326
1 Jan 2020 15:33:28.000,283.932,-76.596,25450.356896
1 Jan 2020 15:33:58.000,282.359,-76.768,25299.003257
1 Jan 2020 15:34:28.000,280.716,-76.945,25152.961762
1 Jan 2020 15:34:58.000,279.000,-77.126,25012.458028
1 Jan 2020 15:35:28.000,277.207,-77.311,24877.713210
1 Jan 2020 15:35:58.000,275.333,-77.499,24748.941686
1 Jan 2020 15:36:28.000,273.374,-77.687,24626.351306
1 Jan 2020 15:36:58.000,271.328,-77.875,24510.142330
1 Jan 2020 15:37:28.000,269.191,-78.062,24400.506432
1 Jan 2020 15:37:58.000,266.961,-78.246,24297.626681
1 Jan 2020 15:38:28.000,264.635,-78.425,24201.675551
1 Jan 2020 15:38:58.000,262.214,-78.598,24112.814946
1 Jan 2020 15:39:28.000,259.696,-78.764,24031.195244
1 Jan 2020 15:39:58.000,257.083,-78.920,23956.954413
1 Jan 2020 15:40:28.000,254.378,-79.065,23890.217958
1 Jan 2020 15:40:58.000,251.585,-79.197,23831.097319
1 Jan 2020 15:41:28.000,248.710,-79.315,23779.689944
1 Jan 2020 15:41:58.000,245.760,-79.418,23736.078516
1 Jan 2020 15:42:28.000,242.744,-79.504,23700.330853
1 Jan 2020 15:42:58.000,239.673,-79.571,23672.498988
1 Jan 2020 15:43:28.000,236.560,-79.620,23652.619249
1 Jan 2020 15:43:58.000,233.418,-79.650,23640.711917
1 Jan 2020 15:44:28.000,230.261,-79.660,23636.781250
1 Jan 2020 15:44:58.000,227.104,-79.650,23640.815206
1 Jan 2020 15:45:28.000,223.960,-79.620,23652.785674
1 Jan 2020 15:45:58.000,220.845,-79.571,23672.648586
1 Jan 2020 15:46:28.000,217.771,-79.504,23700.344099
1 Jan 2020 15:46:58.000,214.751,-79.419,23735.796971
1 Jan 2020 15:47:28.000,211.793,-79.317,23778.916928
1 Jan 2020 15:47:58.000,208.908,-79.201,23829.599204
1 Jan 2020 15:48:28.000,206.101,-79.071,23887.724847
1 Jan 2020 15:48:58.000,203.379,-78.928,23953.161657
1 Jan 2020 15:49:28.000,200.744,-78.776,24025.764632
1 Jan 2020 15:49:58.000,198.199,-78.614,24105.376729
1 Jan 2020 15:50:28.000,195.745,-78.445,24191.829737
1 Jan 2020 15:50:58.000,193.381,-78.270,24284.944536
1 Jan 2020 15:51:28.000,191.106,-78.091,24384.532661
1 Jan 2020 15:51:58.000,188.917,-77.909,24490.396618
1 Jan 2020 15:52:28.000,186.812,-77.726,24602.330831
1 Jan 2020 15:52:58.000,184.789,-77.543,24720.122624
1 Jan 2020 15:53:28.000,182.842,-77.361,24843.552399
1 Jan 2020 15:53:58.000,180.969,-77.181,24972.395391
1 Jan 2020 15:54:28.000,179.166,-77.005,25106.421828
1 Jan 2020 15:54:58.000,177.428,-76.832,25245.397851
1 Jan 2020 15:55:28.000,175.753,-76.665,25389.086253
1 Jan 2020 15:55:58.000,174.136,-76.504,25537.247181
1 Jan 2020 15:56:28.000,172.573,-76.350,25689.639050
1 Jan 2020 15:56:58.000,171.061,-76.202,25846.018258
1 Jan 2020 15:57:28.000,169.596,-76.062,26006.141158
1 Jan 2020 15:57:45.787,168.748,-75.983,26102.747769
1 Jan 2020 17:15:19.393,282.980,-75.983,26102.958822
1 Jan 2020 17:15:49.000,280.951,-76.025,26050.737101
1 Jan 2020 17:16:19.000,278.873,-76.064,26003.504177
1 Jan 2020 17:16:49.000,276.775,-76.099,25962.068228
1 Jan 2020 17:17:19.000,274.658,-76.130,25926.497940
1 Jan 2020 17:17:49.000,272.526,-76.156,25896.851835
1 Jan 2020 17:18:19.000,270.381,-76.177,25873.177993
1 Jan 2020 17:18:49.000,268.225,-76.193,25855.514019
1 Jan 2020 17:19:19.000,266.062,-76.203,25843.886634
1 Jan 2020 17:19:49.000,263.894,-76.208,25838.311736
1 Jan 2020 17:20:19.000,261.725,-76.208,25838.794297
1 Jan 2020 17:20:49.000,259.558,-76.202,25845.328340
1 Jan 2020 17:21:19.000,257.395,-76.190,25857.896942
1 Jan 2020 17:21:49.000,255.240,-76.174,25876.472332
1 Jan 2020 17:22:19.000,253.096,-76.152,25901.015990
1 Jan 2020 17:22:49.000,250.965,-76.125,25931.478809
1 Jan 2020 17:23:19.000,248.850,-76.093,25967.801296
1 Jan 2020 17:23:49.000,246.753,-76.058,26009.913875
1 Jan 2020 17:24:19.000,244.676,-76.018,26057.736908
1 Jan 2020 17:24:44.514,242.928,-75.982,26102.836395
1 Jan 2020 18:42:50.545,351.269,-75.990,26108.311591
1 Jan 2020 18:43:20.000,349.575,-76.095,25981.134375
1 Jan 2020 18:43:50.000,347.806,-76.205,25855.842532
1 Jan 2020 18:44:20.000,345.989,-76.317,25735.037761
1 Jan 2020 18:44:50.000,344.125,-76.432,25618.927411
1 Jan 2020 18:45:20.000,342.210,-76.548,25507.714758
1 Jan 2020 18:45:50.000,340.243,-76.664,25401.598368
1 Jan 2020 18:46:20.000,338.225,-76.780,25300.771323
1 Jan 2020 18:46:50.000,336.154,-76.894,25205.421107
1 Jan 2020 18:47:20.000,334.030,-77.006,25115.728115
1 Jan 2020 18:47:50.000,331.852,-77.115,25031.865553
1 Jan 2020 18:48:20.000,329.623,-77.220,24953.998638
1 Jan 2020 18:48:50.000,327.342,-77.320,24882.283866
1 Jan 2020 18:49:20.000,325.012,-77.413,24816.868716
1 Jan 2020 18:49:50.000,322.635,-77.500,24757.890519
1 Jan 2020 18:50:20.000,320.214,-77.579,24705.476223
1 Jan 2020 18:50:50.000,317.752,-77.650,24659.741751
1 Jan 2020 18:51:20.000,315.254,-77.711,24620.791444
1 Jan 2020 18:51:50.000,312.725,-77.762,24588.717744
1 Jan 2020 18:52:20.000,310.171,-77.803,24563.600519
1 Jan 2020 18:52:50.000,307.596,-77.832,24545.506869
1 Jan 2020 18:53:20.000,305.008,-77.850,24534.490761
1 Jan 2020 18:53:50.000,302.414,-77.857,24530.592799
1 Jan 2020 18:54:20.000,299.820,-77.851,24533.839952
1 Jan 2020 18:54:50.000,297.232,-77.834,24544.245531
1 Jan 2020 18:55:20.000,294.658,-77.805,24561.809077
1 Jan 2020 18:55:50.000,292.105,-77.765,24586.516381
1 Jan 2020 18:56:20.000,289.578,-77.714,24618.339646
1 Jan 2020 18:56:50.000,287.084,-77.652,24657.237306
1 Jan 2020 18:57:20.000,284.627,-77.581,24703.154707
1 Jan 2020 18:57:50.000,282.212,-77.501,24756.024073
1 Jan 2020 18:58:20.000,279.844,-77.413,24815.764913
1 Jan 2020 18:58:50.000,277.526,-77.317,24882.284543
1 Jan 2020 18:59:20.000,275.260,-77.215,24955.477976
1 Jan 2020 18:59:50.000,273.050,-77.108,25035.229203
1 Jan 2020 19:00:20.000,270.895,-76.996,25121.411191
1 Jan 2020 19:00:50.000,268.798,-76.880,25213.886570
1 Jan 2020 19:01:20.000,266.759,-76.763,25312.508383
1 Jan 2020 19:01:50.000,264.778,-76.643,25417.120021
1 Jan 2020 19:02:20.000,262.855,-76.523,25527.556849
1 Jan 2020 19:02:50.000,260.988,-76.403,25643.646185
1 Jan 2020 19:03:20.000,259.177,-76.285,25765.208106
1 Jan 2020 19:03:50.000,257.420,-76.168,25892.056095
1 Jan 2020 19:04:20.000,255.716,-76.054,26023.997905
1 Jan 2020 19:04:38.562,254.688,-75.985,26108.100109
1 Jan 2020 20:17:47.118,41.010,-75.995,26115.116639
1 Jan 2020 20:18:17.000,40.426,-76.171,25905.855704
1 Jan 2020 20:18:47.000,39.823,-76.364,25698.609272
1 Jan 2020 20:19:17.000,39.200,-76.575,25494.490934
1 Jan 2020 20:19:47.000,38.554,-76.801,25293.783747
1 Jan 2020 20:20:17.000,37.882,-77.045,25096.773697
1 Jan 2020 20:20:47.000,37.181,-77.305,24903.749201
1 Jan 2020 20:21:17.000,36.445,-77.582,24715.000549
1 Jan 2020 20:21:47.000,35.672,-77.875,24530.819286
1 Jan 2020 20:22:17.000,34.854,-78.184,24351.497223
1 Jan 2020 20:22:47.000,33.986,-78.509,24177.326949
1 Jan 2020 20:23:17.000,33.061,-78.850,24008.599132
1 Jan 2020 20:23:47.000,32.070,-79.206,23845.602925
1 Jan 2020 20:24:17.000,31.003,-79.576,23688.624722
1 Jan 2020 20:24:47.000,29.848,-79.959,23537.946946
1 Jan 2020 20:25:17.000,28.591,-80.356,23393.847922
1 Jan 2020 20:25:47.000,27.214,-80.764,23256.599414
1 Jan 2020 20:26:17.000,25.698,-81.182,23126.466424
1 Jan 2020 20:26:47.000,24.017,-81.609,23003.705801
1 Jan 2020 20:27:17.000,22.140,-82.044,22888.564847
1 Jan 2020 20:27:47.000,20.031,-82.483,22781.280945
1 Jan 2020 20:28:17.000,17.644,-82.923,22682.079097
1 Jan 2020 20:28:47.000,14.921,-83.363,22591.171587
1 Jan 2020 20:29:17.000,11.796,-83.798,22508.756469
1 Jan 2020 20:29:47.000,8.184,-84.222,22435.016955
1 Jan 2020 20:30:17.000,3.990,-84.629,22370.119541
1 Jan 2020 20:30:47.000,359.107,-85.012,22314.213545
1 Jan 2020 20:31:17.000,353.426,-85.361,22267.429970
1 Jan 2020 20:31:47.000,346.865,-85.664,22229.880963
1 Jan 2020 20:32:17.000,339.399,-85.908,22201.658632
1 Jan 2020 20:32:47.000,331.117,-86.080,22182.834767
1 Jan 2020 20:33:17.000,322.255,-86.169,22173.460281
1 Jan 2020 20:33:47.000,313.184,-86.168,22173.564886
1 Jan 2020 20:34:17.000,304.334,-86.077,22183.156854
1 Jan 2020 20:34:47.000,296.075,-85.902,22202.223016
1 Jan 2020 20:35:17.000,288.641,-85.655,22230.728919
1 Jan 2020 20:35:47.000,282.118,-85.350,22268.618788
1 Jan 2020 20:36:17.000,276.481,-84.999,22315.816304
1 Jan 2020 20:36:47.000,271.646,-84.613,22372.224878
1 Jan 2020 20:37:17.000,267.506,-84.203,22437.728489
1 Jan 2020 20:37:47.000,263.952,-83.776,22512.191899
1 Jan 2020 20:38:17.000,260.890,-83.339,22595.462311
1 Jan 2020 20:38:47.000,258.236,-82.896,22687.369803
1 Jan 2020 20:39:17.000,255.923,-82.452,22787.728675
1 Jan 2020 20:39:47.000,253.894,-82.010,22896.337789
1 Jan 2020 20:40:17.000,252.103,-81.573,23012.982808
1 Jan 2020 20:40:47.000,250.515,-81.143,23137.436645
1 Jan 2020 20:41:17.000,249.097,-80.721,23269.461046
1 Jan 2020 20:41:47.000,247.826,-80.310,23408.806922
1 Jan 2020 20:42:17.000,246.680,-79.911,23555.216812
1 Jan 2020 20:42:47.000,245.644,-79.524,23708.425209
1 Jan 2020 20:43:17.000,244.703,-79.151,23868.159912
1 Jan 2020 20:43:47.000,243.844,-78.793,24034.143410
1 Jan 2020 20:44:17.000,243.059,-78.450,24206.092821
1 Jan 2020 20:44:47.000,242.339,-78.123,24383.722567
1 Jan 2020 20:45:17.000,241.677,-77.812,24566.744231
1 Jan 2020 20:45:47.000,241.066,-77.517,24754.867725
1 Jan 2020 20:46:17.000,240.502,-77.240,24947.802126
1 Jan 2020 20:46:47.000,239.979,-76.979,25145.256452
1 Jan 2020 20:47:17.000,239.494,-76.735,25346.940716
1 Jan 2020 20:47:47.000,239.044,-76.509,25552.565215
1 Jan 2020 20:48:17.000,238.625,-76.299,25761.843155
1 Jan 2020 20:48:47.000,238.235,-76.107,25974.489835
1 Jan 2020 20:49:06.646,237.994,-75.990,26115.431614
1 Jan 2020 22:00:26.349,65.190,-75.997,26120.904351
1 Jan 2020 22:00:56.000,66.092,-76.161,25926.087621
1 Jan 2020 22:01:26.000,67.053,-76.339,25732.715868
1 Jan 2020 22:01:56.000,68.065,-76.531,25543.369378
1 Jan 2020 22:02:26.000,69.133,-76.735,25358.316731
1 Jan 2020 22:02:56.000,70.262,-76.952,25177.826383
1 Jan 2020 22:03:26.000,71.456,-77.180,25002.166017
1 Jan 2020 22:03:56.000,72.721,-77.419,24831.601574
1 Jan 2020 22:04:26.000,74.065,-77.668,24666.397609
1 Jan 2020 22:04:56.000,75.493,-77.927,24506.814826
1 Jan 2020 22:05:26.000,77.014,-78.194,24353.110369
1 Jan 2020 22:05:56.000,78.635,-78.469,24205.536653
1 Jan 2020 22:06:26.000,80.366,-78.749,24064.340221
1 Jan 2020 22:06:56.000,82.217,-79.034,23929.761746
1 Jan 2020 22:07:26.000,84.196,-79.322,23802.033620
1 Jan 2020 22:07:56.000,86.317,-79.610,23681.379935
1 Jan 2020 22:08:26.000,88.588,-79.898,23568.015239
1 Jan 2020 22:08:56.000,91.023,-80.183,23462.143325
1 Jan 2020 22:09:26.000,93.631,-80.461,23363.957100
1 Jan 2020 22:09:56.000,96.423,-80.732,23273.636304
1 Jan 2020 22:10:26.000,99.408,-80.991,23191.347454
1 Jan 2020 22:10:56.000,102.593,-81.235,23117.242584
1 Jan 2020 22:11:26.000,105.978,-81.462,23051.458949
1 Jan 2020 22:11:56.000,109.564,-81.668,22994.117393
1 Jan 2020 22:12:26.000,113.342,-81.849,22945.322218
1 Jan 2020 22:12:56.000,117.298,-82.004,22905.160323
1 Jan 2020 22:13:26.000,121.409,-82.127,22873.701022
1 Jan 2020 22:13:56.000,125.646,-82.219,22850.995064
1 Jan 2020 22:14:26.000,129.973,-82.275,22837.074690
1 Jan 2020 22:14:56.000,134.349,-82.296,22831.953300
1 Jan 2020 22:15:26.000,138.728,-82.281,22835.625456
1 Jan 2020 22:15:56.000,143.067,-82.230,22848.066732
1 Jan 2020 22:16:26.000,147.324,-82.145,22869.233987
1 Jan 2020 22:16:56.000,151.462,-82.027,22899.065619
1 Jan 2020 22:17:26.000,155.452,-81.878,22937.481790
1 Jan 2020 22:17:56.000,159.272,-81.703,22984.385094
1 Jan 2020 22:18:26.000,162.905,-81.503,23039.661018
1 Jan 2020 22:18:56.000,166.345,-81.282,23103.178719
1 Jan 2020 22:19:26.000,169.589,-81.043,23174.791414
1 Jan 2020 22:19:56.000,172.641,-80.790,23254.337720
1 Jan 2020 22:20:26.000,175.505,-80.526,23341.642196
1 Jan 2020 22:20:56.000,178.191,-80.252,23436.516490
1 Jan 2020 22:21:26.000,180.709,-79.974,23538.759778
1 Jan 2020 22:21:56.000,183.070,-79.691,23648.160531
1 Jan 2020 22:22:26.000,185.285,-79.408,23764.497026
1 Jan 2020 22:22:56.000,187.366,-79.125,23887.538484
1 Jan 2020 22:23:26.000,189.323,-78.845,24017.046291
1 Jan 2020 22:23:56.000,191.168,-78.569,24152.774184
1 Jan 2020 22:24:26.000,192.909,-78.299,24294.470439
1 Jan 2020 22:24:56.000,194.555,-78.036,24441.878029
1 Jan 2020 22:25:26.000,196.116,-77.780,24594.735744
1 Jan 2020 22:25:56.000,197.599,-77.534,24752.779066
1 Jan 2020 22:26:26.000,199.011,-77.297,24915.741262
1 Jan 2020 22:26:56.000,200.358,-77.070,25083.353188
1 Jan 2020 22:27:26.000,201.646,-76.854,25255.345497
1 Jan 2020 22:27:56.000,202.882,-76.650,25431.448369
1 Jan 2020 22:28:26.000,204.069,-76.458,25611.392393
1 Jan 2020 22:28:56.000,205.212,-76.278,25794.909161
1 Jan 2020 22:29:26.000,206.316,-76.110,25981.731814
1 Jan 2020 22:29:48.049,207.104,-75.995,26120.996964
1 Jan 2020 23:45:09.162,78.049,-75.997,26122.489591
1 Jan 2020 23:45:39.000,79.981,-76.069,26034.666751
1 Jan 2020 23:46:09.000,81.960,-76.140,25951.853693
1 Jan 2020 23:46:39.000,83.976,-76.208,25874.670587
1 Jan 2020 23:47:09.000,86.028,-76.274,25803.238955
1 Jan 2020 23:47:39.000,88.114,-76.337,25737.671262
1 Jan 2020 23:48:09.000,90.232,-76.395,25678.070372
1 Jan 2020 23:48:39.000,92.380,-76.449,25624.529559
1 Jan 2020 23:49:09.000,94.556,-76.498,25577.131473
1 Jan 2020 23:49:39.000,96.757,-76.541,25535.948240
1 Jan 2020 23:50:09.000,98.980,-76.579,25501.041044
1 Jan 2020 23:50:39.000,101.222,-76.610,25472.459804
1 Jan 2020 23:51:09.000,103.479,-76.634,25450.243184
1 Jan 2020 23:51:39.000,105.748,-76.652,25434.418074
1 Jan 2020 23:52:09.000,108.025,-76.662,25424.999704
1 Jan 2020 23:52:39.000,110.305,-76.666,25421.991519
1 Jan 2020 23:53:09.000,112.587,-76.662,25425.385148
1 Jan 2020 23:53:39.000,114.864,-76.651,25435.160474
1 Jan 2020 23:54:09.000,117.134,-76.633,25451.285653
1 Jan 2020 23:54:39.000,119.392,-76.609,25473.717302
1 Jan 2020 23:55:09.000,121.636,-76.577,25502.400673
1 Jan 2020 23:55:39.000,123.861,-76.540,25537.269919
1 Jan 2020 23:56:09.000,126.066,-76.497,25578.248223
1 Jan 2020 23:56:39.000,128.246,-76.449,25625.248337
1 Jan 2020 23:57:09.000,130.401,-76.395,25678.172801
1 Jan 2020 23:57:39.000,132.526,-76.338,25736.914373
1 Jan 2020 23:58:09.000,134.621,-76.276,25801.356455
1 Jan 2020 23:58:39.000,136.684,-76.212,25871.373650
1 Jan 2020 23:59:09.000,138.714,-76.145,25946.831840
1 Jan 2020 23:59:39.000,140.709,-76.076,26027.589271
2 Jan 2020 00:00:09.000,142.670,-76.005,26113.496686
2 Jan 2020 00:00:12.066,142.868,-75.998,26122.560741
2 Jan 2020 01:17:42.193,33.417,-75.992,26118.488407
2 Jan 2020 01:18:12.000,35.338,-76.067,26027.242056
2 Jan 2020 01:18:42.000,37.308,-76.141,25940.423051
2 Jan 2020 01:19:12.000,39.315,-76.214,25858.796646
2 Jan 2020 01:19:42.000,41.357,-76.285,25782.514675
2 Jan 2020 01:20:12.000,43.434,-76.353,25711.721540
2 Jan 2020 01:20:42.000,45.544,-76.418,25646.553612
2 Jan 2020 01:21:12.000,47.687,-76.478,25587.139024
2 Jan 2020 01:21:42.000,49.859,-76.535,25533.596709
2 Jan 2020 01:22:12.000,52.059,-76.586,25486.036252
2 Jan 2020 01:22:42.000,54.285,-76.631,25444.557370
2 Jan 2020 01:23:12.000,56.532,-76.671,25409.249471
2 Jan 2020 01:23:42.000,58.799,-76.704,25380.191413
2 Jan 2020 01:24:12.000,61.081,-76.730,25357.450965
2 Jan 2020 01:24:42.000,63.376,-76.749,25341.084661
2 Jan 2020 01:25:12.000,65.678,-76.761,25331.137522
2 Jan 2020 01:25:42.000,67.984,-76.765,25327.642875
2 Jan 2020 01:26:12.000,70.291,-76.761,25330.622156
2 Jan 2020 01:26:42.000,72.593,-76.750,25340.084883
2 Jan 2020 01:27:12.000,74.886,-76.732,25356.028585
2 Jan 2020 01:27:42.000,77.168,-76.707,25378.438818
2 Jan 2020 01:28:12.000,79.433,-76.674,25407.289304
2 Jan 2020 01:28:42.000,81.679,-76.635,25442.541794
2 Jan 2020 01:29:12.000,83.902,-76.589,25484.146602
2 Jan 2020 01:29:42.000,86.098,-76.538,25532.042596
2 Jan 2020 01:30:12.000,88.265,-76.481,25586.157517
2 Jan 2020 01:30:42.000,90.401,-76.420,25646.408399
2 Jan 2020 01:31:12.000,92.503,-76.354,25712.701492
2 Jan 2020 01:31:42.000,94.569,-76.285,25784.933276
2 Jan 2020 01:32:12.000,96.598,-76.213,25862.990476
2 Jan 2020 01:32:42.000,98.589,-76.139,25946.750606
2 Jan 2020 01:33:12.000,100.540,-76.063,26036.082448
2 Jan 2020 01:33:38.261,102.216,-75.995,26118.744582
2 Jan 2020 02:48:39.485,330.964,-75.986,26111.842752
2 Jan 2020 02:49:09.000,331.967,-76.145,25922.655143
2 Jan 2020 02:49:39.000,333.021,-76.319,25733.387019
2 Jan 2020 02:50:09.000,334.113,-76.506,25547.439988
2 Jan 2020 02:50:39.000,335.249,-76.706,25365.083527
2 Jan 2020 02:51:09.000,336.431,-76.918,25186.588794
2 Jan 2020 02:51:39.000,337.667,-77.143,25012.228083
2 Jan 2020 02:52:09.000,338.960,-77.379,24842.274227
2 Jan 2020 02:52:39.000,340.317,-77.626,24676.999706
2 Jan 2020 02:53:09.000,341.745,-77.884,24516.676926
2 Jan 2020 02:53:39.000,343.252,-78.151,24361.575987
2 Jan 2020 02:54:09.000,344.845,-78.427,24211.964876
2 Jan 2020 02:54:39.000,346.534,-78.711,24068.108366
2 Jan 2020 02:55:09.000,348.329,-79.001,23930.267122
2 Jan 2020 02:55:39.000,350.239,-79.297,23798.696544
2 Jan 2020 02:56:09.000,352.279,-79.595,23673.646682
2 Jan 2020 02:56:39.000,354.458,-79.896,23555.359892
2 Jan 2020 02:57:09.000,356.792,-80.196,23444.070719
2 Jan 2020 02:57:39.000,359.293,-80.493,23340.004629
2 Jan 2020 02:58:09.000,1.976,-80.785,23243.376817
2 Jan 2020 02:58:39.000,4.853,-81.069,23154.391787
2 Jan 2020 02:59:09.000,7.938,-81.342,23073.241380
2 Jan 2020 02:59:39.000,11.239,-81.601,23000.104423
2 Jan 2020 03:00:09.000,14.764,-81.841,22935.145530
2 Jan 2020 03:00:39.000,18.512,-82.060,22878.514531
2 Jan 2020 03:01:09.000,22.479,-82.254,22830.345098
2 Jan 2020 03:01:39.000,26.650,-82.418,22790.754337
2 Jan 2020 03:02:09.000,31.001,-82.550,22759.841981
2 Jan 2020 03:02:39.000,35.499,-82.647,22737.689915
2 Jan 2020 03:03:09.000,40.100,-82.706,22724.361477
2 Jan 2020 03:03:39.000,44.756,-82.726,22719.901227
2 Jan 2020 03:04:09.000,49.411,-82.707,22724.334672
2 Jan 2020 03:04:39.000,54.012,-82.648,22737.667993
2 Jan 2020 03:05:09.000,58.509,-82.551,22759.888177
2 Jan 2020 03:05:39.000,62.856,-82.419,22790.963023
2 Jan 2020 03:06:09.000,67.021,-82.253,22830.841468
2 Jan 2020 03:06:39.000,70.977,-82.058,22879.453546
2 Jan 2020 03:07:09.000,74.710,-81.837,22936.711364
2 Jan 2020 03:07:39.000,78.213,-81.594,23002.509311
2 Jan 2020 03:08:09.000,81.486,-81.332,23076.724928
2 Jan 2020 03:08:39.000,84.536,-81.056,23159.219047
2 Jan 2020 03:09:09.000,87.371,-80.768,23249.837466
2 Jan 2020 03:09:39.000,90.004,-80.471,23348.411252
2 Jan 2020 03:10:09.000,92.448,-80.169,23454.757996
2 Jan 2020 03:10:39.000,94.716,-79.864,23568.682032
2 Jan 2020 03:11:09.000,96.822,-79.558,23689.976536
2 Jan 2020 03:11:39.000,98.780,-79.254,23818.423822
2 Jan 2020 03:12:09.000,100.602,-78.954,23953.796546
2 Jan 2020 03:12:39.000,102.299,-78.659,24095.858992
2 Jan 2020 03:13:09.000,103.883,-78.370,24244.367036
2 Jan 2020 03:13:39.000,105.364,-78.089,24399.070703
2 Jan 2020 03:14:09.000,106.750,-77.817,24559.714102
2 Jan 2020 03:14:39.000,108.049,-77.555,24726.036618
2 Jan 2020 03:15:09.000,109.270,-77.304,24897.773808
2 Jan 2020 03:15:39.000,110.419,-77.065,25074.658558
2 Jan 2020 03:16:09.000,111.501,-76.838,25256.420681
2 Jan 2020 03:16:39.000,112.523,-76.623,25442.789483
2 Jan 2020 03:17:09.000,113.490,-76.422,25633.493278
2 Jan 2020 03:17:39.000,114.405,-76.234,25828.260339
2 Jan 2020 03:18:09.000,115.273,-76.060,26026.819514
2 Jan 2020 03:18:21.656,115.626,-75.991,26111.654357
2 Jan 2020 04:29:37.628,301.023,-75.983,26105.345843
2 Jan 2020 04:30:07.000,300.591,-76.159,25896.480568
2 Jan 2020 04:30:37.000,300.119,-76.355,25686.356027
2 Jan 2020 04:31:07.000,299.615,-76.568,25479.748885
2 Jan 2020 04:31:37.000,299.074,-76.798,25276.943191
2 Jan 2020 04:32:07.000,298.494,-77.044,25078.225027
2 Jan 2020 04:32:37.000,297.870,-77.307,24883.881954
2 Jan 2020 04:33:07.000,297.199,-77.586,24694.202387
2 Jan 2020 04:33:37.000,296.474,-77.882,24509.474606
2 Jan 2020 04:34:07.000,295.690,-78.193,24329.987277
2 Jan 2020 04:34:37.000,294.839,-78.519,24156.026748
2 Jan 2020 04:35:07.000,293.915,-78.861,23987.877465
2 Jan 2020 04:35:37.000,292.906,-79.216,23825.820734
2 Jan 2020 04:36:07.000,291.802,-79.585,23670.133497
2 Jan 2020 04:36:37.000,290.589,-79.965,23521.088331
2 Jan 2020 04:37:07.000,289.253,-80.358,23378.950829
2 Jan 2020 04:37:37.000,287.774,-80.759,23243.979536
2 Jan 2020 04:38:07.000,286.130,-81.170,23116.424550
2 Jan 2020 04:38:37.000,284.295,-81.586,22996.526123
2 Jan 2020 04:39:07.000,282.237,-82.007,22884.514449
2 Jan 2020 04:39:37.000,279.918,-82.429,22780.607036
2 Jan 2020 04:40:07.000,277.293,-82.850,22685.008532
2 Jan 2020 04:40:37.000,274.310,-83.265,22597.909193
2 Jan 2020 04:41:07.000,270.905,-83.670,22519.484417
2 Jan 2020 04:41:37.000,267.011,-84.059,22449.892745
2 Jan 2020 04:42:07.000,262.555,-84.426,22389.275544
2 Jan 2020 04:42:37.000,257.466,-84.762,22337.755861
2 Jan 2020 04:43:07.000,251.694,-85.059,22295.438041
2 Jan 2020 04:43:37.000,245.225,-85.305,22262.406399
2 Jan 2020 04:44:07.000,238.111,-85.491,22238.725105
2 Jan 2020 04:44:37.000,230.486,-85.608,22224.437599
2 Jan 2020 04:45:07.000,222.577,-85.649,22219.566432
2 Jan 2020 04:45:37.000,214.661,-85.611,22224.112864
2 Jan 2020 04:46:07.000,207.020,-85.497,22238.057026
2 Jan 2020 04:46:37.000,199.878,-85.314,22261.358035
2 Jan 2020 04:47:07.000,193.373,-85.070,22293.954114
2 Jan 2020 04:47:37.000,187.560,-84.777,22335.763192
2 Jan 2020 04:48:07.000,182.424,-84.444,22386.683322
2 Jan 2020 04:48:37.000,177.915,-84.080,22446.593471
2 Jan 2020 04:49:07.000,173.964,-83.694,22515.353878
2 Jan 2020 04:49:37.000,170.497,-83.292,22592.807507
2 Jan 2020 04:50:07.000,167.446,-82.881,22678.780631
2 Jan 2020 04:50:37.000,164.749,-82.463,22773.084103
2 Jan 2020 04:51:07.000,162.352,-82.045,22875.513827
2 Jan 2020 04:51:37.000,160.210,-81.627,22985.852794
2 Jan 2020 04:52:07.000,158.285,-81.214,23103.871657
2 Jan 2020 04:52:37.000,156.545,-80.807,23229.330237
2 Jan 2020 04:53:07.000,154.963,-80.409,23361.977970
2 Jan 2020 04:53:37.000,153.518,-80.020,23501.556173
2 Jan 2020 04:54:07.000,152.190,-79.642,23647.798482
2 Jan 2020 04:54:37.000,150.964,-79.277,23800.432159
2 Jan 2020 04:55:07.000,149.825,-78.924,23959.179431
2 Jan 2020 04:55:37.000,148.764,-78.586,24123.757543
2 Jan 2020 04:56:07.000,147.770,-78.261,24293.881232
2 Jan 2020 04:56:37.000,146.835,-77.952,24469.262693
2 Jan 2020 04:57:07.000,145.951,-77.658,24649.612709
2 Jan 2020 04:57:37.000,145.113,-77.380,24834.641472
2 Jan 2020 04:58:07.000,144.315,-77.118,25024.059348
2 Jan 2020 04:58:37.000,143.553,-76.872,25217.577888
2 Jan 2020 04:59:07.000,142.822,-76.642,25414.909243
2 Jan 2020 04:59:37.000,142.118,-76.429,25615.768577
2 Jan 2020 05:00:07.000,141.438,-76.231,25819.873375
2 Jan 2020 05:00:37.000,140.780,-76.050,26026.944216
2 Jan 2020 05:00:48.230,140.538,-75.986,26105.163554
2 Jan 2020 06:14:09.444,284.764,-75.982,26102.153472
2 Jan 2020 06:14:39.000,283.076,-76.087,25974.747308
2 Jan 2020 06:15:09.000,281.313,-76.196,25850.438788
2 Jan 2020 06:15:39.000,279.498,-76.307,25731.366410
2 Jan 2020 06:16:09.000,277.629,-76.419,25617.712314
2 Jan 2020 06:16:39.000,275.707,-76.531,25509.652019
2 Jan 2020 06:17:09.000,273.731,-76.643,25407.353633
2 Jan 2020 06:17:39.000,271.701,-76.753,25310.977909
2 Jan 2020 06:18:09.000,269.616,-76.860,25220.676596
2 Jan 2020 06:18:39.000,267.478,-76.964,25136.592535
2 Jan 2020 06:19:09.000,265.287,-77.064,25058.858900
2 Jan 2020 06:19:39.000,263.045,-77.158,24987.598510
2 Jan 2020 06:20:09.000,260.755,-77.247,24922.923816
2 Jan 2020 06:20:39.000,258.420,-77.328,24864.935615
2 Jan 2020 06:21:09.000,256.042,-77.402,24813.723126
2 Jan 2020 06:21:39.000,253.625,-77.467,24769.363447
2 Jan 2020 06:22:09.000,251.174,-77.523,24731.921107
2 Jan 2020 06:22:39.000,248.695,-77.569,24701.448091
2 Jan 2020 06:23:09.000,246.191,-77.605,24677.983072
2 Jan 2020 06:23:39.000,243.670,-77.631,24661.551572
2 Jan 2020 06:24:09.000,241.137,-77.645,24652.165742
2 Jan 2020 06:24:39.000,238.599,-77.649,24649.824274
2 Jan 2020 06:25:09.000,236.061,-77.642,24654.512501
2 Jan 2020 06:25:39.000,233.530,-77.623,24666.202290
2 Jan 2020 06:26:09.000,231.012,-77.595,24684.852299
2 Jan 2020 06:26:39.000,228.513,-77.555,24710.408131
2 Jan 2020 06:27:09.000,226.038,-77.507,24742.802630
2 Jan 2020 06:27:39.000,223.592,-77.448,24781.956047
2 Jan 2020 06:28:09.000,221.180,-77.381,24827.776601
2 Jan 2020 06:28:39.000,218.806,-77.307,24880.160776
2 Jan 2020 06:29:09.000,216.472,-77.225,24938.993812
2 Jan 2020 06:29:39.000,214.183,-77.136,25004.150293
2 Jan 2020 06:30:09.000,211.939,-77.042,25075.494352
2 Jan 2020 06:30:39.000,209.744,-76.944,25152.880726
2 Jan 2020 06:31:09.000,207.597,-76.842,25236.155040
2 Jan 2020 06:31:39.000,205.500,-76.736,25325.154492
2 Jan 2020 06:32:09.000,203.452,-76.629,25419.708487
2 Jan 2020 06:32:39.000,201.454,-76.521,25519.639420
2 Jan 2020 06:33:09.000,199.506,-76.412,25624.762733
2 Jan 2020 06:33:39.000,197.605,-76.304,25734.888420
2 Jan 2020 06:34:09.000,195.752,-76.197,25849.821093
2 Jan 2020 06:34:39.000,193.945,-76.092,25969.360748
2 Jan 2020 06:35:09.000,192.182,-75.989,26093.303382
2 Jan 2020 06:35:11.110,192.060,-75.982,26102.179064
2 Jan 2020 07:53:10.180,300.478,-75.985,26104.428778
2 Jan 2020 07:53:40.000,298.441,-76.030,26048.379182
2 Jan 2020 07:54:10.000,296.368,-76.072,25997.563454
2 Jan 2020 07:54:40.000,294.273,-76.111,25952.431965
2 Jan 2020 07:55:10.000,292.158,-76.145,25913.070712
2 Jan 2020 07:55:40.000,290.026,-76.174,25879.555945
2 Jan 2020 07:56:10.000,287.879,-76.199,25851.953842
2 Jan 2020 07:56:40.000,285.721,-76.219,25830.320364
2 Jan 2020 07:57:10.000,283.553,-76.233,25814.700825
2 Jan 2020 07:57:40.000,281.378,-76.242,25805.129856
2 Jan 2020 07:58:10.000,279.201,-76.245,25801.631219
2 Jan 2020 07:58:40.000,277.023,-76.242,25804.217730
2 Jan 2020 07:59:10.000,274.849,-76.234,25812.891150
2 Jan 2020 07:59:40.000,272.680,-76.221,25827.642249
2 Jan 2020 08:00:10.000,270.521,-76.202,25848.450807
2 Jan 2020 08:00:40.000,268.374,-76.177,25875.285710
2 Jan 2020 08:01:10.000,266.241,-76.148,25908.105076
2 Jan 2020 08:01:40.000,264.127,-76.114,25946.856513
2 Jan 2020 08:02:10.000,262.032,-76.076,25991.477027
2 Jan 2020 08:02:40.000,259.959,-76.034,26041.893719
2 Jan 2020 08:03:10.000,257.910,-75.988,26098.023792
2 Jan 2020 08:03:13.156,257.696,-75.983,26104.257013
2 Jan 2020 09:20:30.598,13.812,-75.992,26110.702261
2 Jan 2020 09:21:00.000,12.449,-76.128,25947.434389
2 Jan 2020 09:21:30.000,11.014,-76.275,25784.323268
2 Jan 2020 09:22:00.000,9.531,-76.431,25624.971259
2 Jan 2020 09:22:30.000,7.996,-76.594,25469.626358
2 Jan 2020 09:23:00.000,6.406,-76.764,25318.536002
2 Jan 2020 09:23:30.000,4.755,-76.941,25171.946453
2 Jan 2020 09:24:00.000,3.040,-77.123,25030.102152
2 Jan 2020 09:24:30.000,1.257,-77.310,24893.244826
2 Jan 2020 09:25:00.000,359.402,-77.501,24761.613594
2 Jan 2020 09:25:30.000,357.469,-77.695,24635.442957
2 Jan 2020 09:26:00.000,355.454,-77.890,24514.962860
2 Jan 2020 09:26:30.000,353.354,-78.086,24400.397672
2 Jan 2020 09:27:00.000,351.164,-78.281,24291.965354
2 Jan 2020 09:27:30.000,348.880,-78.473,24189.876465
2 Jan 2020 09:28:00.000,346.501,-78.661,24094.333948
2 Jan 2020 09:28:30.000,344.023,-78.843,24005.531300
2 Jan 2020 09:29:00.000,341.446,-79.018,23923.652393
2 Jan 2020 09:29:30.000,338.769,-79.184,23848.870470
2 Jan 2020 09:30:00.000,335.995,-79.339,23781.347252
2 Jan 2020 09:30:30.000,333.125,-79.482,23721.232525
2 Jan 2020 09:31:00.000,330.166,-79.610,23668.662831
2 Jan 2020 09:31:30.000,327.125,-79.722,23623.761172
2 Jan 2020 09:32:00.000,324.010,-79.816,23586.636242
2 Jan 2020 09:32:30.000,320.833,-79.892,23557.381994
2 Jan 2020 09:33:00.000,317.607,-79.948,23536.076919
2 Jan 2020 09:33:30.000,314.347,-79.983,23522.783783
2 Jan 2020 09:34:00.000,311.068,-79.997,23517.549272
2 Jan 2020 09:34:30.000,307.787,-79.989,23520.403666
2 Jan 2020 09:35:00.000,304.521,-79.960,23531.360767
2 Jan 2020 09:35:30.000,301.285,-79.910,23550.417792
2 Jan 2020 09:36:00.000,298.097,-79.839,23577.555474
2 Jan 2020 09:36:30.000,294.968,-79.748,23612.737916
2 Jan 2020 09:37:00.000,291.913,-79.640,23655.913190
2 Jan 2020 09:37:30.000,288.941,-79.514,23707.013393
2 Jan 2020 09:38:00.000,286.060,-79.373,23765.955205
2 Jan 2020 09:38:30.000,283.277,-79.219,23832.639896
2 Jan 2020 09:39:00.000,280.596,-79.053,23906.954534
2 Jan 2020 09:39:30.000,278.019,-78.876,23988.772148
2 Jan 2020 09:40:00.000,275.548,-78.691,24077.952497
2 Jan 2020 09:40:30.000,273.181,-78.500,24174.342981
2 Jan 2020 09:41:00.000,270.918,-78.304,24277.778588
2 Jan 2020 09:41:30.000,268.756,-78.104,24388.083863
2 Jan 2020 09:42:00.000,266.692,-77.903,24505.072940
2 Jan 2020 09:42:30.000,264.722,-77.702,24628.550556
2 Jan 2020 09:43:00.000,262.841,-77.502,24758.313111
2 Jan 2020 09:43:30.000,261.047,-77.305,24894.148595
2 Jan 2020 09:44:00.000,259.334,-77.112,25035.838761
2 Jan 2020 09:44:30.000,257.699,-76.923,25183.159053
2 Jan 2020 09:45:00.000,256.136,-76.740,25335.879622
2 Jan 2020 09:45:30.000,254.642,-76.563,25493.766097
2 Jan 2020 09:46:00.000,253.213,-76.394,25656.580603
2 Jan 2020 09:46:30.000,251.844,-76.233,25824.081410
2 Jan 2020 09:47:00.000,250.533,-76.081,25996.025202
2 Jan 2020 09:47:19.609,249.705,-75.987,26110.696242
2 Jan 2020 10:59:08.164,51.552,-75.996,26117.494991
2 Jan 2020 10:59:38.000,51.506,-76.179,25900.577527
2 Jan 2020 11:00:08.000,51.469,-76.381,25685.381911
2 Jan 2020 11:00:38.000,51.439,-76.601,25473.392558
2 Jan 2020 11:01:08.000,51.418,-76.840,25264.898200
2 Jan 2020 11:01:38.000,51.406,-77.097,25060.190648
2 Jan 2020 11:02:08.000,51.403,-77.372,24859.564288
2 Jan 2020 11:02:38.000,51.410,-77.666,24663.315518
2 Jan 2020 11:03:08.000,51.428,-77.979,24471.741818
2 Jan 2020 11:03:38.000,51.458,-78.311,24285.142266
2 Jan 2020 11:04:08.000,51.499,-78.660,24103.814962
2 Jan 2020 11:04:38.000,51.555,-79.029,23928.057421
2 Jan 2020 11:05:08.000,51.625,-79.415,23758.165377
2 Jan 2020 11:05:38.000,51.712,-79.819,23594.431578
2 Jan 2020 11:06:08.000,51.819,-80.241,23437.145776
2 Jan 2020 11:06:38.000,51.947,-80.680,23286.592128
2 Jan 2020 11:07:08.000,52.099,-81.136,23143.049096
2 Jan 2020 11:07:38.000,52.282,-81.608,23006.788012
2 Jan 2020 11:08:08.000,52.499,-82.096,22878.071633
2 Jan 2020 11:08:38.000,52.758,-82.598,22757.153867
2 Jan 2020 11:09:08.000,53.070,-83.114,22644.277047
2 Jan 2020 11:09:38.000,53.447,-83.644,22539.671669
2 Jan 2020 11:10:08.000,53.908,-84.186,22443.554726
2 Jan 2020 11:10:38.000,54.481,-84.739,22356.129139
2 Jan 2020 11:11:08.000,55.207,-85.302,22277.581565
2 Jan 2020 11:11:38.000,56.149,-85.874,22208.081951
2 Jan 2020 11:12:08.000,57.416,-86.453,22147.782187
2 Jan 2020 11:12:38.000,59.201,-87.037,22096.815581
2 Jan 2020 11:13:08.000,61.887,-87.622,22055.295286
2 Jan 2020 11:13:38.000,66.350,-88.204,22023.314028
2 Jan 2020 11:14:08.000,75.024,-88.768,22000.943308
2 Jan 2020 11:14:38.000,96.604,-89.262,21988.233072
2 Jan 2020 11:15:08.000,150.626,-89.439,21985.211092
2 Jan 2020 11:15:38.000,191.638,-89.090,21991.882972
2 Jan 2020 11:16:08.000,206.392,-88.557,22008.232090
2 Jan 2020 11:16:38.000,212.984,-87.984,22034.219572
2 Jan 2020 11:17:08.000,216.633,-87.400,22069.784751
2 Jan 2020 11:17:38.000,218.940,-86.815,22114.845476
2 Jan 2020 11:18:08.000,220.532,-86.233,22169.298815
2 Jan 2020 11:18:38.000,221.701,-85.657,22233.021314
2 Jan 2020 11:19:08.000,222.599,-85.088,22305.870433
2 Jan 2020 11:19:38.000,223.316,-84.529,22387.685082
2 Jan 2020 11:20:08.000,223.904,-83.981,22478.286899
2 Jan 2020 11:20:38.000,224.399,-83.443,22577.480687
2 Jan 2020 11:21:08.000,224.824,-82.919,22685.056546
2 Jan 2020 11:21:38.000,225.196,-82.408,22800.790456
2 Jan 2020 11:22:08.000,225.527,-81.912,22924.445872
2 Jan 2020 11:22:38.000,225.825,-81.431,23055.774169
2 Jan 2020 11:23:08.000,226.098,-80.965,23194.517110
2 Jan 2020 11:23:38.000,226.350,-80.516,23340.407301
2 Jan 2020 11:24:08.000,226.586,-80.084,23493.169616
2 Jan 2020 11:24:38.000,226.808,-79.669,23652.522673
2 Jan 2020 11:25:08.000,227.020,-79.272,23818.178876
2 Jan 2020 11:25:38.000,227.222,-78.893,23989.847169
2 Jan 2020 11:26:08.000,227.419,-78.532,24167.232994
2 Jan 2020 11:26:38.000,227.609,-78.189,24350.039554
2 Jan 2020 11:27:08.000,227.796,-77.865,24537.968735
2 Jan 2020 11:27:38.000,227.979,-77.559,24730.722269
2 Jan 2020 11:28:08.000,228.161,-77.272,24928.001322
2 Jan 2020 11:28:38.000,228.340,-77.003,25129.509021
2 Jan 2020 11:29:08.000,228.520,-76.753,25334.949923
2 Jan 2020 11:29:38.000,228.699,-76.522,25544.030905
2 Jan 2020 11:30:08.000,228.879,-76.308,25756.461705
2 Jan 2020 11:30:38.000,229.060,-76.112,25971.955390
2 Jan 2020 11:30:58.082,229.182,-75.992,26117.778976
2 Jan 2020 12:43:02.086,71.031,-75.998,26122.107867
2 Jan 2020 12:43:32.000,72.412,-76.135,25956.666548
2 Jan 2020 12:44:02.000,73.851,-76.281,25795.199866
2 Jan 2020 12:44:32.000,75.350,-76.434,25638.427136
2 Jan 2020 12:45:02.000,76.910,-76.594,25486.580387
2 Jan 2020 12:45:32.000,78.535,-76.759,25339.888141
2 Jan 2020 12:46:02.000,80.230,-76.928,25198.574722
2 Jan 2020 12:46:32.000,81.996,-77.101,25062.859278
2 Jan 2020 12:47:02.000,83.838,-77.277,24932.956047
2 Jan 2020 12:47:32.000,85.759,-77.454,24809.072070
2 Jan 2020 12:48:02.000,87.761,-77.632,24691.407442
2 Jan 2020 12:48:32.000,89.847,-77.808,24580.154272
2 Jan 2020 12:49:02.000,92.020,-77.983,24475.495712
2 Jan 2020 12:49:32.000,94.281,-78.153,24377.605941
2 Jan 2020 12:50:02.000,96.631,-78.318,24286.648248
2 Jan 2020 12:50:32.000,99.070,-78.477,24202.775067
2 Jan 2020 12:51:02.000,101.597,-78.627,24126.127064
2 Jan 2020 12:51:32.000,104.209,-78.767,24056.832314
2 Jan 2020 12:52:02.000,106.904,-78.896,23995.006252
2 Jan 2020 12:52:32.000,109.676,-79.013,23940.750182
2 Jan 2020 12:53:02.000,112.519,-79.115,23894.151368
2 Jan 2020 12:53:32.000,115.425,-79.202,23855.282332
2 Jan 2020 12:54:02.000,118.385,-79.273,23824.200778
2 Jan 2020 12:54:32.000,121.388,-79.327,23800.948784
2 Jan 2020 12:55:02.000,124.423,-79.363,23785.552899
2 Jan 2020 12:55:32.000,127.476,-79.381,23778.023876
2 Jan 2020 12:56:02.000,130.537,-79.380,23778.356726
2 Jan 2020 12:56:32.000,133.590,-79.361,23786.530527
2 Jan 2020 12:57:02.000,136.624,-79.323,23802.508682
2 Jan 2020 12:57:32.000,139.627,-79.268,23826.239083
2 Jan 2020 12:58:02.000,142.587,-79.197,23857.654314
2 Jan 2020 12:58:32.000,145.494,-79.109,23896.672090
2 Jan 2020 12:59:02.000,148.340,-79.007,23943.195638
2 Jan 2020 12:59:32.000,151.118,-78.891,23997.114198
2 Jan 2020 13:00:02.000,153.821,-78.764,24058.303678
2 Jan 2020 13:00:32.000,156.446,-78.625,24126.626907
2 Jan 2020 13:01:02.000,158.990,-78.477,24201.934822
2 Jan 2020 13:01:32.000,161.451,-78.322,24284.066844
2 Jan 2020 13:02:02.000,163.828,-78.161,24372.851692
2 Jan 2020 13:02:32.000,166.122,-77.994,24468.108298
2 Jan 2020 13:03:02.000,168.334,-77.824,24569.646038
2 Jan 2020 13:03:32.000,170.467,-77.653,24677.266341
2 Jan 2020 13:04:02.000,172.522,-77.480,24790.762961
2 Jan 2020 13:04:32.000,174.502,-77.308,24909.922904
2 Jan 2020 13:05:02.000,176.412,-77.137,25034.527221
2 Jan 2020 13:05:32.000,178.253,-76.969,25164.351977
2 Jan 2020 13:06:02.000,180.029,-76.805,25299.168233
2 Jan 2020 13:06:32.000,181.745,-76.645,25438.743932
2 Jan 2020 13:07:02.000,183.403,-76.490,25582.843845
2 Jan 2020 13:07:32.000,185.006,-76.341,25731.230433
2 Jan 2020 13:08:02.000,186.559,-76.199,25883.664493
2 Jan 2020 13:08:32.000,188.064,-76.063,26039.905765
2 Jan 2020 13:08:47.503,188.825,-75.996,26122.057313
2 Jan 2020 14:26:35.928,76.082,-75.997,26121.696627
2 Jan 2020 14:27:05.000,78.081,-76.036,26072.943467
2 Jan 2020 14:27:35.000,80.164,-76.073,26028.272072
2 Jan 2020 14:28:05.000,82.267,-76.106,25989.401395
2 Jan 2020 14:28:35.000,84.387,-76.135,25956.397050
2 Jan 2020 14:29:05.000,86.522,-76.158,25929.314441
2 Jan 2020 14:29:35.000,88.668,-76.177,25908.198509
2 Jan 2020 14:30:05.000,90.823,-76.191,25893.083682
2 Jan 2020 14:30:35.000,92.984,-76.199,25883.993513
2 Jan 2020 14:31:05.000,95.149,-76.202,25880.940739
2 Jan 2020 14:31:35.000,97.313,-76.199,25883.927184
2 Jan 2020 14:32:05.000,99.475,-76.191,25892.943765
2 Jan 2020 14:32:35.000,101.631,-76.178,25907.970485
2 Jan 2020 14:33:05.000,103.778,-76.159,25928.976566
2 Jan 2020 14:33:35.000,105.913,-76.136,25955.920550
2 Jan 2020 14:34:05.000,108.035,-76.107,25988.750471
2 Jan 2020 14:34:35.000,110.139,-76.075,26027.404068
2 Jan 2020 14:35:05.000,112.225,-76.038,26071.809103
2 Jan 2020 14:35:34.952,114.286,-75.998,26121.798818
2 Jan 2020 15:53:45.656,5.839,-75.989,26116.209848
2 Jan 2020 15:54:15.000,7.493,-76.098,25985.022538
2 Jan 2020 15:54:45.000,9.228,-76.213,25855.036023
2 Jan 2020 15:55:15.000,11.011,-76.331,25729.441137
2 Jan 2020 15:55:45.000,12.844,-76.451,25608.450886
2 Jan 2020 15:56:15.000,14.728,-76.573,25492.274665
2 Jan 2020 15:56:45.000,16.665,-76.697,25381.117622
2 Jan 2020 15:57:15.000,18.656,-76.820,25275.179865
2 Jan 2020 15:57:45.000,20.703,-76.943,25174.656368
2 Jan 2020 15:58:15.000,22.806,-77.064,25079.735427
2 Jan 2020 15:58:45.000,24.965,-77.182,24990.598566
2 Jan 2020 15:59:15.000,27.181,-77.297,24907.419710
