STKdata/stk_70fov_6leo/Satellite-MEO_Satellite10107-To-Satellite-LEO_Satellite20000 AER.csv

"Time (UTCG)","Azimuth (deg)","Elevation (deg)","Range (km)"
1 Jan 2020 00:34:00.592,343.152,-75.984,26103.941274
1 Jan 2020 00:34:30.000,344.908,-76.065,26005.136374
1 Jan 2020 00:35:00.000,346.733,-76.149,25907.917077
1 Jan 2020 00:35:30.000,348.593,-76.233,25814.471208
1 Jan 2020 00:36:00.000,350.487,-76.317,25724.960408
1 Jan 2020 00:36:30.000,352.417,-76.401,25639.543052
1 Jan 2020 00:37:00.000,354.382,-76.484,25558.373808
1 Jan 2020 00:37:30.000,356.382,-76.566,25481.603187
1 Jan 2020 00:38:00.000,358.418,-76.645,25409.377016
1 Jan 2020 00:38:30.000,0.489,-76.721,25341.836306
1 Jan 2020 00:39:00.000,2.593,-76.794,25279.116306
1 Jan 2020 00:39:30.000,4.730,-76.863,25221.346393
1 Jan 2020 00:40:00.000,6.899,-76.928,25168.649552
1 Jan 2020 00:40:30.000,9.097,-76.988,25121.141940
1 Jan 2020 00:41:00.000,11.322,-77.042,25078.932454
1 Jan 2020 00:41:30.000,13.571,-77.090,25042.122441
1 Jan 2020 00:42:00.000,15.843,-77.131,25010.805142
1 Jan 2020 00:42:30.000,18.133,-77.166,24985.065470
1 Jan 2020 00:43:00.000,20.439,-77.193,24964.979649
1 Jan 2020 00:43:30.000,22.756,-77.212,24950.614915
1 Jan 2020 00:44:00.000,25.081,-77.224,24942.029286
1 Jan 2020 00:44:30.000,27.410,-77.228,24939.271217
1 Jan 2020 00:45:00.000,29.738,-77.224,24942.379561
1 Jan 2020 00:45:30.000,32.061,-77.211,24951.383322
1 Jan 2020 00:46:00.000,34.376,-77.191,24966.301562
1 Jan 2020 00:46:30.000,36.678,-77.162,24987.143323
1 Jan 2020 00:47:00.000,38.962,-77.126,25013.907694
1 Jan 2020 00:47:30.000,41.226,-77.083,25046.583446
1 Jan 2020 00:48:00.000,43.466,-77.033,25085.149624
1 Jan 2020 00:48:30.000,45.678,-76.976,25129.575284
1 Jan 2020 00:49:00.000,47.859,-76.913,25179.819715
1 Jan 2020 00:49:30.000,50.007,-76.845,25235.832601
1 Jan 2020 00:50:00.000,52.119,-76.771,25297.554380
1 Jan 2020 00:50:30.000,54.193,-76.693,25364.915886
1 Jan 2020 00:51:00.000,56.228,-76.612,25437.839499
1 Jan 2020 00:51:30.000,58.222,-76.527,25516.238871
1 Jan 2020 00:52:00.000,60.174,-76.439,25600.019389
1 Jan 2020 00:52:30.000,62.083,-76.350,25689.078526
1 Jan 2020 00:53:00.000,63.950,-76.260,25783.306401
1 Jan 2020 00:53:30.000,65.773,-76.169,25882.585421
1 Jan 2020 00:54:00.000,67.552,-76.078,25986.791784
1 Jan 2020 00:54:30.000,69.289,-75.988,26095.795161
1 Jan 2020 00:54:32.172,69.413,-75.982,26103.869958
1 Jan 2020 02:12:34.589,288.880,-75.990,26109.884074
1 Jan 2020 02:13:04.000,289.129,-76.160,25906.970959
1 Jan 2020 02:13:34.000,289.382,-76.350,25702.504070
1 Jan 2020 02:14:04.000,289.634,-76.557,25500.820020
1 Jan 2020 02:14:34.000,289.888,-76.780,25302.172273
1 Jan 2020 02:15:04.000,290.142,-77.020,25106.817135
1 Jan 2020 02:15:34.000,290.399,-77.276,24915.013373
1 Jan 2020 02:16:04.000,290.658,-77.550,24727.021769
1 Jan 2020 02:16:34.000,290.922,-77.840,24543.104645
1 Jan 2020 02:17:04.000,291.192,-78.147,24363.525026
1 Jan 2020 02:17:34.000,291.468,-78.471,24188.547258
1 Jan 2020 02:18:04.000,291.754,-78.812,24018.434560
1 Jan 2020 02:18:34.000,292.050,-79.170,23853.449552
1 Jan 2020 02:19:04.000,292.358,-79.544,23693.853207
1 Jan 2020 02:19:34.000,292.683,-79.934,23539.904068
1 Jan 2020 02:20:04.000,293.027,-80.340,23391.857147
1 Jan 2020 02:20:34.000,293.395,-80.761,23249.964101
1 Jan 2020 02:21:04.000,293.791,-81.197,23114.470709
1 Jan 2020 02:21:34.000,294.222,-81.648,22985.616998
1 Jan 2020 02:22:04.000,294.696,-82.113,22863.635980
1 Jan 2020 02:22:34.000,295.224,-82.592,22748.752444
1 Jan 2020 02:23:04.000,295.820,-83.082,22641.182771
1 Jan 2020 02:23:34.000,296.502,-83.585,22541.132632
1 Jan 2020 02:24:04.000,297.296,-84.098,22448.796837
1 Jan 2020 02:24:34.000,298.238,-84.621,22364.357979
1 Jan 2020 02:25:04.000,299.381,-85.153,22287.986003
1 Jan 2020 02:25:34.000,300.805,-85.691,22219.836436
1 Jan 2020 02:26:04.000,302.635,-86.234,22160.050075
1 Jan 2020 02:26:34.000,305.084,-86.779,22108.751938
1 Jan 2020 02:27:04.000,308.532,-87.323,22066.050862
1 Jan 2020 02:27:34.000,313.722,-87.856,22032.038306
1 Jan 2020 02:28:04.000,322.251,-88.365,22006.788156
1 Jan 2020 02:28:34.000,337.766,-88.810,21990.356145
1 Jan 2020 02:29:04.000,6.358,-89.086,21982.779602
1 Jan 2020 02:29:34.000,42.399,-89.032,21984.077037
1 Jan 2020 02:30:04.000,66.611,-88.689,21994.248164
1 Jan 2020 02:30:34.000,79.464,-88.218,22013.273905
1 Jan 2020 02:31:04.000,86.724,-87.699,22041.116351
1 Jan 2020 02:31:34.000,91.251,-87.161,22077.719239
1 Jan 2020 02:32:04.000,94.307,-86.616,22123.008168
1 Jan 2020 02:32:34.000,96.495,-86.070,22176.891216
1 Jan 2020 02:33:04.000,98.133,-85.527,22239.259084
1 Jan 2020 02:33:34.000,99.399,-84.990,22309.986375
1 Jan 2020 02:34:04.000,100.404,-84.460,22388.931954
1 Jan 2020 02:34:34.000,101.218,-83.939,22475.940021
1 Jan 2020 02:35:04.000,101.889,-83.428,22570.840377
1 Jan 2020 02:35:34.000,102.447,-82.928,22673.450272
1 Jan 2020 02:36:04.000,102.917,-82.439,22783.574784
1 Jan 2020 02:36:34.000,103.316,-81.964,22901.007969
1 Jan 2020 02:37:04.000,103.656,-81.502,23025.534121
1 Jan 2020 02:37:34.000,103.947,-81.054,23156.927817
1 Jan 2020 02:38:04.000,104.197,-80.621,23294.956382
1 Jan 2020 02:38:34.000,104.411,-80.203,23439.379944
1 Jan 2020 02:39:04.000,104.594,-79.800,23589.952642
1 Jan 2020 02:39:34.000,104.750,-79.414,23746.423840
1 Jan 2020 02:40:04.000,104.882,-79.044,23908.538018
1 Jan 2020 02:40:34.000,104.993,-78.691,24076.037167
1 Jan 2020 02:41:04.000,105.084,-78.354,24248.660616
1 Jan 2020 02:41:34.000,105.158,-78.034,24426.146065
1 Jan 2020 02:42:04.000,105.215,-77.731,24608.230311
1 Jan 2020 02:42:34.000,105.258,-77.445,24794.649941
1 Jan 2020 02:43:04.000,105.286,-77.176,24985.142270
1 Jan 2020 02:43:34.000,105.302,-76.924,25179.444660
1 Jan 2020 02:44:04.000,105.305,-76.689,25377.296935
1 Jan 2020 02:44:34.000,105.296,-76.471,25578.440607
1 Jan 2020 02:45:04.000,105.277,-76.270,25782.619620
1 Jan 2020 02:45:34.000,105.246,-76.085,25989.580732
1 Jan 2020 02:45:51.338,105.224,-75.985,26110.363166
1 Jan 2020 04:02:35.416,255.640,-75.993,26117.161871
1 Jan 2020 04:03:05.000,254.100,-76.102,25984.908616
1 Jan 2020 04:03:35.000,252.489,-76.217,25855.271713
1 Jan 2020 04:04:05.000,250.828,-76.334,25730.310321
1 Jan 2020 04:04:35.000,249.115,-76.453,25610.186485
1 Jan 2020 04:05:05.000,247.349,-76.574,25495.056985
1 Jan 2020 04:05:35.000,245.528,-76.696,25385.072843
1 Jan 2020 04:06:05.000,243.652,-76.817,25280.378612
1 Jan 2020 04:06:35.000,241.720,-76.938,25181.112736
1 Jan 2020 04:07:05.000,239.732,-77.057,25087.405771
1 Jan 2020 04:07:35.000,237.688,-77.173,24999.380774
1 Jan 2020 04:08:05.000,235.588,-77.286,24917.152628
1 Jan 2020 04:08:35.000,233.434,-77.394,24840.827592
1 Jan 2020 04:09:05.000,231.227,-77.498,24770.502719
1 Jan 2020 04:09:35.000,228.969,-77.595,24706.266127
1 Jan 2020 04:10:05.000,226.661,-77.685,24648.195617
1 Jan 2020 04:10:35.000,224.308,-77.767,24596.359030
1 Jan 2020 04:11:05.000,221.914,-77.841,24550.813780
1 Jan 2020 04:11:35.000,219.481,-77.906,24511.606504
1 Jan 2020 04:12:05.000,217.015,-77.961,24478.773245
1 Jan 2020 04:12:35.000,214.521,-78.006,24452.338687
1 Jan 2020 04:13:05.000,212.005,-78.041,24432.316443
1 Jan 2020 04:13:35.000,209.473,-78.064,24418.708893
1 Jan 2020 04:14:05.000,206.930,-78.077,24411.507114
1 Jan 2020 04:14:35.000,204.382,-78.078,24410.691102
1 Jan 2020 04:15:05.000,201.837,-78.068,24416.229563
1 Jan 2020 04:15:35.000,199.300,-78.047,24428.080248
1 Jan 2020 04:16:05.000,196.777,-78.016,24446.190084
1 Jan 2020 04:16:35.000,194.274,-77.974,24470.495407
1 Jan 2020 04:17:05.000,191.796,-77.923,24500.922208
1 Jan 2020 04:17:35.000,189.347,-77.862,24537.386473
1 Jan 2020 04:18:05.000,186.932,-77.792,24579.794523
1 Jan 2020 04:18:35.000,184.555,-77.715,24628.043403
1 Jan 2020 04:19:05.000,182.218,-77.630,24682.021299
1 Jan 2020 04:19:35.000,179.925,-77.539,24741.608055
1 Jan 2020 04:20:05.000,177.676,-77.442,24806.675355
1 Jan 2020 04:20:35.000,175.475,-77.340,24877.087625
1 Jan 2020 04:21:05.000,173.321,-77.234,24952.702272
1 Jan 2020 04:21:35.000,171.215,-77.125,25033.370256
1 Jan 2020 04:22:05.000,169.158,-77.013,25118.936616
1 Jan 2020 04:22:35.000,167.148,-76.900,25209.240990
1 Jan 2020 04:23:05.000,165.186,-76.786,25304.118281
1 Jan 2020 04:23:35.000,163.270,-76.671,25403.398629
1 Jan 2020 04:24:05.000,161.400,-76.557,25506.908732
1 Jan 2020 04:24:35.000,159.574,-76.445,25614.471819
1 Jan 2020 04:25:05.000,157.790,-76.334,25725.908276
1 Jan 2020 04:25:35.000,156.047,-76.225,25841.036123
1 Jan 2020 04:26:05.000,154.344,-76.120,25959.671474
1 Jan 2020 04:26:35.000,152.678,-76.017,26081.628983
1 Jan 2020 04:26:43.550,152.210,-75.989,26116.968452
1 Jan 2020 08:41:36.413,59.674,-75.991,26117.041048
1 Jan 2020 08:42:06.000,58.859,-76.149,25928.691130
1 Jan 2020 08:42:36.000,58.009,-76.323,25740.179932
1 Jan 2020 08:43:06.000,57.134,-76.510,25554.392745
1 Jan 2020 08:43:36.000,56.231,-76.710,25371.571017
1 Jan 2020 08:44:06.000,55.295,-76.924,25191.958581
1 Jan 2020 08:44:36.000,54.323,-77.151,25015.801272
1 Jan 2020 08:45:06.000,53.310,-77.391,24843.346485
1 Jan 2020 08:45:36.000,52.252,-77.644,24674.842699
1 Jan 2020 08:46:06.000,51.143,-77.909,24510.538701
1 Jan 2020 08:46:36.000,49.978,-78.186,24350.684041
1 Jan 2020 08:47:06.000,48.748,-78.475,24195.526877
1 Jan 2020 08:47:36.000,47.446,-78.775,24045.314357
1 Jan 2020 08:48:06.000,46.063,-79.085,23900.291655
1 Jan 2020 08:48:36.000,44.589,-79.404,23760.701235
1 Jan 2020 08:49:06.000,43.013,-79.732,23626.781857
1 Jan 2020 08:49:36.000,41.321,-80.067,23498.768622
1 Jan 2020 08:50:06.000,39.499,-80.408,23376.890821
1 Jan 2020 08:50:36.000,37.529,-80.753,23261.371940
1 Jan 2020 08:51:06.000,35.393,-81.100,23152.428547
1 Jan 2020 08:51:36.000,33.068,-81.448,23050.269224
1 Jan 2020 08:52:06.000,30.532,-81.793,22955.094297
1 Jan 2020 08:52:36.000,27.759,-82.134,22867.093938
1 Jan 2020 08:53:06.000,24.721,-82.466,22786.447931
1 Jan 2020 08:53:36.000,21.391,-82.787,22713.324621
1 Jan 2020 08:54:06.000,17.740,-83.091,22647.879955
1 Jan 2020 08:54:36.000,13.747,-83.375,22590.257094
1 Jan 2020 08:55:06.000,9.396,-83.633,22540.584984
1 Jan 2020 08:55:36.000,4.684,-83.860,22498.978107
1 Jan 2020 08:56:06.000,359.625,-84.051,22465.535689
1 Jan 2020 08:56:36.000,354.256,-84.199,22440.341282
1 Jan 2020 08:57:06.000,348.641,-84.302,22423.462047
1 Jan 2020 08:57:36.000,342.865,-84.354,22414.948536
1 Jan 2020 08:58:06.000,337.032,-84.355,22414.834380
1 Jan 2020 08:58:36.000,331.253,-84.304,22423.136006
1 Jan 2020 08:59:06.000,325.633,-84.203,22439.852662
1 Jan 2020 08:59:36.000,320.260,-84.055,22464.966367
1 Jan 2020 09:00:06.000,315.200,-83.865,22498.442135
1 Jan 2020 09:00:36.000,310.491,-83.637,22540.227858
1 Jan 2020 09:01:06.000,306.151,-83.377,22590.255103
1 Jan 2020 09:01:36.000,302.178,-83.090,22648.439220
1 Jan 2020 09:02:06.000,298.558,-82.783,22714.680058
1 Jan 2020 09:02:36.000,295.267,-82.458,22788.862002
1 Jan 2020 09:03:06.000,292.280,-82.121,22870.855416
1 Jan 2020 09:03:36.000,289.568,-81.775,22960.516848
1 Jan 2020 09:04:06.000,287.104,-81.424,23057.689926
1 Jan 2020 09:04:36.000,284.863,-81.070,23162.206403
1 Jan 2020 09:05:06.000,282.819,-80.717,23273.886098
1 Jan 2020 09:05:36.000,280.953,-80.365,23392.539115
1 Jan 2020 09:06:06.000,279.244,-80.018,23517.965852
1 Jan 2020 09:06:36.000,277.675,-79.676,23649.958117
1 Jan 2020 09:07:06.000,276.233,-79.342,23788.300277
1 Jan 2020 09:07:36.000,274.902,-79.016,23932.769131
1 Jan 2020 09:08:06.000,273.673,-78.700,24083.136288
1 Jan 2020 09:08:36.000,272.534,-78.395,24239.168021
1 Jan 2020 09:09:06.000,271.477,-78.101,24400.626328
1 Jan 2020 09:09:36.000,270.493,-77.818,24567.269725
1 Jan 2020 09:10:06.000,269.577,-77.549,24738.854289
1 Jan 2020 09:10:36.000,268.722,-77.292,24915.133196
1 Jan 2020 09:11:06.000,267.922,-77.049,25095.859143
1 Jan 2020 09:11:36.000,267.173,-76.819,25280.783818
1 Jan 2020 09:12:06.000,266.471,-76.604,25469.658769
1 Jan 2020 09:12:36.000,265.811,-76.403,25662.235950
1 Jan 2020 09:13:06.000,265.191,-76.216,25858.268217
1 Jan 2020 09:13:36.000,264.607,-76.043,26057.509782
1 Jan 2020 09:13:44.820,264.442,-75.995,26116.658608
1 Jan 2020 10:28:51.211,92.043,-75.987,26109.815295
1 Jan 2020 10:29:21.000,93.059,-76.137,25930.630607
1 Jan 2020 10:29:51.000,94.130,-76.299,25753.848644
1 Jan 2020 10:30:21.000,95.253,-76.470,25580.976791
1 Jan 2020 10:30:51.000,96.432,-76.652,25412.239615
1 Jan 2020 10:31:21.000,97.670,-76.843,25247.860451
1 Jan 2020 10:31:51.000,98.971,-77.042,25088.060854
1 Jan 2020 10:32:21.000,100.341,-77.250,24933.060026
1 Jan 2020 10:32:51.000,101.784,-77.465,24783.073913
1 Jan 2020 10:33:21.000,103.305,-77.686,24638.315766
1 Jan 2020 10:33:51.000,104.909,-77.913,24498.993677
1 Jan 2020 10:34:21.000,106.602,-78.144,24365.311111
1 Jan 2020 10:34:51.000,108.391,-78.378,24237.465900
1 Jan 2020 10:35:21.000,110.280,-78.614,24115.649319
1 Jan 2020 10:35:51.000,112.277,-78.851,24000.046213
1 Jan 2020 10:36:21.000,114.387,-79.087,23890.832976
1 Jan 2020 10:36:51.000,116.616,-79.320,23788.177698
1 Jan 2020 10:37:21.000,118.969,-79.548,23692.239223
1 Jan 2020 10:37:51.000,121.452,-79.771,23603.166264
1 Jan 2020 10:38:21.000,124.066,-79.985,23521.097465
1 Jan 2020 10:38:51.000,126.815,-80.188,23446.159612
1 Jan 2020 10:39:21.000,129.698,-80.380,23378.467782
1 Jan 2020 10:39:51.000,132.714,-80.556,23318.124574
1 Jan 2020 10:40:21.000,135.858,-80.716,23265.219455
1 Jan 2020 10:40:51.000,139.122,-80.857,23219.828818
1 Jan 2020 10:41:21.000,142.494,-80.978,23182.014759
1 Jan 2020 10:41:51.000,145.962,-81.076,23151.825296
1 Jan 2020 10:42:21.000,149.506,-81.151,23129.293898
1 Jan 2020 10:42:51.000,153.107,-81.201,23114.439536
1 Jan 2020 10:43:21.000,156.743,-81.225,23107.266185
1 Jan 2020 10:43:51.000,160.390,-81.223,23107.763056
1 Jan 2020 10:44:21.000,164.023,-81.196,23115.904569
1 Jan 2020 10:44:51.000,167.620,-81.144,23131.650515
1 Jan 2020 10:45:21.000,171.159,-81.067,23154.946185
1 Jan 2020 10:45:51.000,174.622,-80.967,23185.722716
1 Jan 2020 10:46:21.000,177.990,-80.846,23223.897425
1 Jan 2020 10:46:51.000,181.253,-80.705,23269.374299
1 Jan 2020 10:47:21.000,184.400,-80.546,23322.044232
1 Jan 2020 10:47:51.000,187.425,-80.372,23381.785914
1 Jan 2020 10:48:21.000,190.324,-80.184,23448.466214
1 Jan 2020 10:48:51.000,193.096,-79.985,23521.940859
1 Jan 2020 10:49:21.000,195.742,-79.776,23602.055237
1 Jan 2020 10:49:51.000,198.265,-79.560,23688.644623
1 Jan 2020 10:50:21.000,200.670,-79.338,23781.535601
1 Jan 2020 10:50:51.000,202.960,-79.113,23880.546351
1 Jan 2020 10:51:21.000,205.142,-78.885,23985.487516
1 Jan 2020 10:51:51.000,207.222,-78.656,24096.162946
1 Jan 2020 10:52:21.000,209.205,-78.429,24212.370644
1 Jan 2020 10:52:51.000,211.098,-78.203,24333.902740
1 Jan 2020 10:53:21.000,212.908,-77.981,24460.547345
1 Jan 2020 10:53:51.000,214.639,-77.763,24592.088507
1 Jan 2020 10:54:21.000,216.298,-77.551,24728.307084
1 Jan 2020 10:54:51.000,217.890,-77.344,24868.981392
1 Jan 2020 10:55:21.000,219.420,-77.144,25013.887833
1 Jan 2020 10:55:51.000,220.892,-76.951,25162.801714
1 Jan 2020 10:56:21.000,222.313,-76.767,25315.496919
1 Jan 2020 10:56:51.000,223.685,-76.591,25471.747761
1 Jan 2020 10:57:21.000,225.012,-76.423,25631.328598
1 Jan 2020 10:57:51.000,226.300,-76.265,25794.014513
1 Jan 2020 10:58:21.000,227.550,-76.117,25959.581732
1 Jan 2020 10:58:47.789,228.637,-75.992,26109.679366
1 Jan 2020 15:11:53.134,315.389,-75.987,26105.747999
1 Jan 2020 15:12:23.000,316.711,-76.118,25947.387764
1 Jan 2020 15:12:53.000,318.076,-76.259,25791.091529
1 Jan 2020 15:13:23.000,319.480,-76.407,25637.789965
1 Jan 2020 15:13:53.000,320.927,-76.563,25487.699547
1 Jan 2020 15:14:23.000,322.419,-76.727,25341.037312
1 Jan 2020 15:14:53.000,323.961,-76.897,25198.020430
1 Jan 2020 15:15:23.000,325.557,-77.073,25058.865727
1 Jan 2020 15:15:53.000,327.210,-77.255,24923.789191
1 Jan 2020 15:16:23.000,328.925,-77.442,24793.005247
1 Jan 2020 15:16:53.000,330.705,-77.633,24666.726977
1 Jan 2020 15:17:23.000,332.556,-77.827,24545.164353
1 Jan 2020 15:17:53.000,334.481,-78.023,24428.524417
1 Jan 2020 15:18:23.000,336.485,-78.220,24317.010450
1 Jan 2020 15:18:53.000,338.572,-78.417,24210.821310
1 Jan 2020 15:19:23.000,340.746,-78.613,24110.150624
1 Jan 2020 15:19:53.000,343.011,-78.807,24015.186662
1 Jan 2020 15:20:23.000,345.370,-78.996,23926.110792
1 Jan 2020 15:20:53.000,347.826,-79.180,23843.097359
1 Jan 2020 15:21:23.000,350.379,-79.357,23766.312847
1 Jan 2020 15:21:53.000,353.032,-79.525,23695.915109
1 Jan 2020 15:22:23.000,355.782,-79.682,23632.053038
1 Jan 2020 15:22:53.000,358.628,-79.828,23574.865387
1 Jan 2020 15:23:23.000,1.564,-79.960,23524.480510
1 Jan 2020 15:23:53.000,4.586,-80.076,23481.015676
1 Jan 2020 15:24:23.000,7.684,-80.176,23444.576493
1 Jan 2020 15:24:53.000,10.848,-80.257,23415.256526
1 Jan 2020 15:25:23.000,14.067,-80.320,23393.136636
1 Jan 2020 15:25:53.000,17.326,-80.362,23378.284740
1 Jan 2020 15:26:23.000,20.609,-80.384,23370.755426
1 Jan 2020 15:26:53.000,23.900,-80.384,23370.589734
1 Jan 2020 15:27:23.000,27.184,-80.363,23377.814796
1 Jan 2020 15:27:53.000,30.442,-80.321,23392.443917
1 Jan 2020 15:28:23.000,33.660,-80.259,23414.476388
1 Jan 2020 15:28:53.000,36.822,-80.177,23443.897537
1 Jan 2020 15:29:23.000,39.915,-80.076,23480.678921
1 Jan 2020 15:29:53.000,42.929,-79.958,23524.778057
1 Jan 2020 15:30:23.000,45.854,-79.823,23576.139278
1 Jan 2020 15:30:53.000,48.682,-79.674,23634.693621
1 Jan 2020 15:31:23.000,51.409,-79.513,23700.359281
1 Jan 2020 15:31:53.000,54.031,-79.339,23773.042200
1 Jan 2020 15:32:23.000,56.547,-79.157,23852.635857
1 Jan 2020 15:32:53.000,58.956,-78.966,23939.022774
1 Jan 2020 15:33:23.000,61.260,-78.770,24032.074423
1 Jan 2020 15:33:53.000,63.460,-78.569,24131.651975
1 Jan 2020 15:34:23.000,65.560,-78.365,24237.607126
1 Jan 2020 15:34:53.000,67.563,-78.159,24349.781910
1 Jan 2020 15:35:23.000,69.472,-77.953,24468.010584
1 Jan 2020 15:35:53.000,71.292,-77.748,24592.119487
1 Jan 2020 15:36:23.000,73.028,-77.545,24721.927906
1 Jan 2020 15:36:53.000,74.682,-77.346,24857.248751
1 Jan 2020 15:37:23.000,76.260,-77.151,24997.889488
1 Jan 2020 15:37:53.000,77.766,-76.962,25143.651718
1 Jan 2020 15:38:23.000,79.203,-76.778,25294.333414
1 Jan 2020 15:38:53.000,80.577,-76.602,25449.728483
1 Jan 2020 15:39:23.000,81.890,-76.433,25609.627632
1 Jan 2020 15:39:53.000,83.146,-76.272,25773.818940
1 Jan 2020 15:40:23.000,84.348,-76.119,25942.088407
1 Jan 2020 15:40:51.571,85.447,-75.983,26105.939018
1 Jan 2020 16:56:08.582,277.780,-75.991,26112.516614
1 Jan 2020 16:56:38.000,277.356,-76.159,25912.686895
1 Jan 2020 16:57:08.000,276.894,-76.345,25711.864376
1 Jan 2020 16:57:38.000,276.399,-76.547,25514.279467
1 Jan 2020 16:58:08.000,275.868,-76.763,25320.182296
1 Jan 2020 16:58:38.000,275.299,-76.995,25129.824549
1 Jan 2020 16:59:08.000,274.688,-77.242,24943.459015
1 Jan 2020 16:59:38.000,274.030,-77.503,24761.339079
1 Jan 2020 17:00:08.000,273.322,-77.779,24583.717871
1 Jan 2020 17:00:38.000,272.558,-78.070,24410.848856
1 Jan 2020 17:01:08.000,271.732,-78.374,24242.983402
1 Jan 2020 17:01:38.000,270.836,-78.692,24080.371287
1 Jan 2020 17:02:08.000,269.864,-79.022,23923.259667
1 Jan 2020 17:02:38.000,268.806,-79.364,23771.892298
1 Jan 2020 17:03:08.000,267.650,-79.718,23626.508443
1 Jan 2020 17:03:38.000,266.385,-80.082,23487.343149
1 Jan 2020 17:04:08.000,264.996,-80.455,23354.624661
1 Jan 2020 17:04:38.000,263.464,-80.837,23228.574665
1 Jan 2020 17:05:08.000,261.770,-81.224,23109.407075
1 Jan 2020 17:05:38.000,259.890,-81.616,22997.326879
1 Jan 2020 17:06:08.000,257.795,-82.010,22892.530086
1 Jan 2020 17:06:38.000,255.453,-82.405,22795.201448
1 Jan 2020 17:07:08.000,252.825,-82.796,22705.514453
1 Jan 2020 17:07:38.000,249.866,-83.180,22623.630061
1 Jan 2020 17:08:08.000,246.529,-83.554,22549.696433
1 Jan 2020 17:08:38.000,242.759,-83.912,22483.847224
1 Jan 2020 17:09:08.000,238.503,-84.249,22426.201440
1 Jan 2020 17:09:38.000,233.714,-84.557,22376.862498
1 Jan 2020 17:10:08.000,228.359,-84.830,22335.918017
1 Jan 2020 17:10:38.000,222.436,-85.059,22303.438668
1 Jan 2020 17:11:08.000,215.987,-85.235,22279.478170
1 Jan 2020 17:11:38.000,209.114,-85.353,22264.072806
1 Jan 2020 17:12:08.000,201.975,-85.407,22257.241352
1 Jan 2020 17:12:38.000,194.774,-85.393,22258.984691
1 Jan 2020 17:13:08.000,187.721,-85.312,22269.285983
1 Jan 2020 17:13:38.000,181.003,-85.170,22288.110743
1 Jan 2020 17:14:08.000,174.755,-84.971,22315.406951
1 Jan 2020 17:14:38.000,169.050,-84.725,22351.105473
1 Jan 2020 17:15:08.000,163.909,-84.439,22395.120412
1 Jan 2020 17:15:38.000,159.314,-84.120,22447.349710
1 Jan 2020 17:16:08.000,155.225,-83.777,22507.675419
1 Jan 2020 17:16:38.000,151.591,-83.416,22575.964835
1 Jan 2020 17:17:08.000,148.356,-83.041,22652.070949
1 Jan 2020 17:17:38.000,145.471,-82.658,22735.833449
1 Jan 2020 17:18:08.000,142.887,-82.270,22827.079066
1 Jan 2020 17:18:38.000,140.563,-81.880,22925.623214
1 Jan 2020 17:19:08.000,138.464,-81.491,23031.270426
1 Jan 2020 17:19:38.000,136.557,-81.106,23143.815416
1 Jan 2020 17:20:08.000,134.818,-80.727,23263.044238
1 Jan 2020 17:20:38.000,133.223,-80.354,23388.734414
1 Jan 2020 17:21:08.000,131.753,-79.989,23520.657092
1 Jan 2020 17:21:38.000,130.392,-79.635,23658.577178
1 Jan 2020 17:22:08.000,129.126,-79.290,23802.254429
1 Jan 2020 17:22:38.000,127.943,-78.957,23951.444330
1 Jan 2020 17:23:08.000,126.833,-78.637,24105.899202
1 Jan 2020 17:23:38.000,125.788,-78.328,24265.367945
1 Jan 2020 17:24:08.000,124.799,-78.034,24429.598365
1 Jan 2020 17:24:38.000,123.859,-77.752,24598.336854
1 Jan 2020 17:25:08.000,122.964,-77.485,24771.329317
1 Jan 2020 17:25:38.000,122.107,-77.231,24948.321792
1 Jan 2020 17:26:08.000,121.285,-76.992,25129.061026
1 Jan 2020 17:26:38.000,120.494,-76.767,25313.295005
1 Jan 2020 17:27:08.000,119.729,-76.557,25500.773431
1 Jan 2020 17:27:38.000,118.988,-76.361,25691.248485
1 Jan 2020 17:28:08.000,118.267,-76.180,25884.473942
1 Jan 2020 17:28:38.000,117.565,-76.013,26080.207431
1 Jan 2020 17:28:42.984,117.450,-75.986,26112.948327
1 Jan 2020 21:44:44.019,21.153,-75.995,26120.661349
1 Jan 2020 21:45:14.000,19.409,-76.085,26011.409070
1 Jan 2020 21:45:44.000,17.629,-76.176,25905.565512
1 Jan 2020 21:46:14.000,15.813,-76.270,25803.373766
1 Jan 2020 21:46:44.000,13.959,-76.364,25705.004747
1 Jan 2020 21:47:14.000,12.068,-76.459,25610.626679
1 Jan 2020 21:47:44.000,10.137,-76.553,25520.404635
1 Jan 2020 21:48:14.000,8.166,-76.647,25434.500081
1 Jan 2020 21:48:44.000,6.156,-76.739,25353.070309
1 Jan 2020 21:49:14.000,4.106,-76.830,25276.268345
1 Jan 2020 21:49:44.000,2.017,-76.917,25204.241885
1 Jan 2020 21:50:14.000,359.890,-77.001,25137.133213
1 Jan 2020 21:50:44.000,357.724,-77.081,25075.078626
1 Jan 2020 21:51:14.000,355.522,-77.157,25018.207965
1 Jan 2020 21:51:44.000,353.286,-77.227,24966.644111
1 Jan 2020 21:52:14.000,351.017,-77.291,24920.502721
1 Jan 2020 21:52:44.000,348.719,-77.348,24879.891514
1 Jan 2020 21:53:14.000,346.394,-77.398,24844.910062
1 Jan 2020 21:53:44.000,344.045,-77.441,24815.649356
1 Jan 2020 21:54:14.000,341.677,-77.476,24792.191440
1 Jan 2020 21:54:44.000,339.294,-77.502,24774.609107
1 Jan 2020 21:55:14.000,336.899,-77.519,24762.965557
1 Jan 2020 21:55:44.000,334.498,-77.528,24757.314190
1 Jan 2020 21:56:14.000,332.095,-77.527,24757.698365
1 Jan 2020 21:56:44.000,329.695,-77.518,24764.151228
1 Jan 2020 21:57:14.000,327.303,-77.499,24776.695571
1 Jan 2020 21:57:44.000,324.924,-77.471,24795.343826
1 Jan 2020 21:58:14.000,322.561,-77.435,24820.097700
1 Jan 2020 21:58:44.000,320.221,-77.390,24850.948629
1 Jan 2020 21:59:14.000,317.906,-77.337,24887.877527
1 Jan 2020 21:59:44.000,315.622,-77.277,24930.854945
1 Jan 2020 22:00:14.000,313.370,-77.210,24979.841192
1 Jan 2020 22:00:44.000,311.155,-77.136,25034.786660
1 Jan 2020 22:01:14.000,308.979,-77.056,25095.631454
1 Jan 2020 22:01:44.000,306.845,-76.971,25162.306486
1 Jan 2020 22:02:14.000,304.754,-76.881,25234.733205
1 Jan 2020 22:02:44.000,302.708,-76.788,25312.824043
1 Jan 2020 22:03:14.000,300.708,-76.691,25396.482761
1 Jan 2020 22:03:44.000,298.755,-76.593,25485.605005
1 Jan 2020 22:04:14.000,296.849,-76.492,25580.077946
1 Jan 2020 22:04:44.000,294.991,-76.391,25679.781799
1 Jan 2020 22:05:14.000,293.180,-76.290,25784.589521
1 Jan 2020 22:05:44.000,291.417,-76.189,25894.367420
1 Jan 2020 22:06:14.000,289.699,-76.089,26008.975606
1 Jan 2020 22:06:42.122,288.131,-75.997,26120.666103
1 Jan 2020 23:24:13.294,72.451,-75.990,26114.616618
1 Jan 2020 23:24:43.000,72.276,-76.163,25908.891961
1 Jan 2020 23:25:13.000,72.104,-76.354,25703.685306
1 Jan 2020 23:25:43.000,71.936,-76.562,25501.295735
1 Jan 2020 23:26:13.000,71.772,-76.786,25301.977391
1 Jan 2020 23:26:43.000,71.611,-77.028,25105.987232
1 Jan 2020 23:27:13.000,71.453,-77.286,24913.584636
1 Jan 2020 23:27:43.000,71.298,-77.561,24725.030963
1 Jan 2020 23:28:13.000,71.145,-77.853,24540.589062
1 Jan 2020 23:28:43.000,70.994,-78.163,24360.522433
1 Jan 2020 23:29:13.000,70.845,-78.489,24185.095855
1 Jan 2020 23:29:43.000,70.696,-78.832,24014.572900
1 Jan 2020 23:30:13.000,70.548,-79.192,23849.216476
1 Jan 2020 23:30:43.000,70.399,-79.569,23689.287768
1 Jan 2020 23:31:13.000,70.249,-79.962,23535.045446
1 Jan 2020 23:31:43.000,70.096,-80.371,23386.744553
1 Jan 2020 23:32:13.000,69.940,-80.795,23244.636694
1 Jan 2020 23:32:43.000,69.778,-81.235,23108.967477
1 Jan 2020 23:33:13.000,69.610,-81.690,22979.976650
1 Jan 2020 23:33:43.000,69.431,-82.159,22857.896829
1 Jan 2020 23:34:13.000,69.240,-82.642,22742.952284
1 Jan 2020 23:34:43.000,69.032,-83.138,22635.358751
1 Jan 2020 23:35:13.000,68.801,-83.646,22535.321122
1 Jan 2020 23:35:43.000,68.541,-84.166,22443.033291
1 Jan 2020 23:36:13.000,68.238,-84.697,22358.676798
1 Jan 2020 23:36:43.000,67.878,-85.238,22282.420402
1 Jan 2020 23:37:13.000,67.435,-85.787,22214.418299
1 Jan 2020 23:37:43.000,66.868,-86.344,22154.809822
1 Jan 2020 23:38:13.000,66.104,-86.908,22103.718389
1 Jan 2020 23:38:43.000,65.007,-87.477,22061.251116
1 Jan 2020 23:39:13.000,63.277,-88.050,22027.497609
1 Jan 2020 23:39:43.000,60.112,-88.623,22002.529791
1 Jan 2020 23:40:13.000,52.490,-89.189,21986.401324
1 Jan 2020 23:40:43.000,16.961,-89.686,21979.147370
1 Jan 2020 23:41:13.000,283.097,-89.527,21980.784188
1 Jan 2020 23:41:43.000,265.112,-88.985,21991.309162
1 Jan 2020 23:42:13.000,259.847,-88.415,22010.700828
1 Jan 2020 23:42:43.000,257.388,-87.841,22038.918845
1 Jan 2020 23:43:13.000,255.973,-87.269,22075.904480
1 Jan 2020 23:43:43.000,255.061,-86.702,22121.580846
1 Jan 2020 23:44:13.000,254.428,-86.140,22175.853525
1 Jan 2020 23:44:43.000,253.968,-85.585,22238.610736
1 Jan 2020 23:45:13.000,253.622,-85.039,22309.724617
1 Jan 2020 23:45:43.000,253.357,-84.501,22389.051605
1 Jan 2020 23:46:13.000,253.151,-83.974,22476.433514
1 Jan 2020 23:46:43.000,252.990,-83.458,22571.697823
1 Jan 2020 23:47:13.000,252.864,-82.954,22674.659523
1 Jan 2020 23:47:43.000,252.767,-82.463,22785.121510
1 Jan 2020 23:48:13.000,252.693,-81.984,22902.875741
1 Jan 2020 23:48:43.000,252.639,-81.520,23027.704504
1 Jan 2020 23:49:13.000,252.603,-81.070,23159.380470
1 Jan 2020 23:49:43.000,252.581,-80.636,23297.669157
1 Jan 2020 23:50:13.000,252.572,-80.216,23442.328990
1 Jan 2020 23:50:43.000,252.576,-79.813,23593.112514
1 Jan 2020 23:51:13.000,252.590,-79.426,23749.767350
1 Jan 2020 23:51:43.000,252.614,-79.055,23912.037419
1 Jan 2020 23:52:13.000,252.648,-78.701,24079.662589
1 Jan 2020 23:52:43.000,252.691,-78.364,24252.381333
1 Jan 2020 23:53:13.000,252.742,-78.044,24429.930298
1 Jan 2020 23:53:43.000,252.801,-77.741,24612.045341
1 Jan 2020 23:54:13.000,252.868,-77.455,24798.462205
1 Jan 2020 23:54:43.000,252.943,-77.186,24988.917147
1 Jan 2020 23:55:13.000,253.025,-76.934,25183.147514
1 Jan 2020 23:55:43.000,253.114,-76.699,25380.892606
1 Jan 2020 23:56:13.000,253.210,-76.481,25581.892804
1 Jan 2020 23:56:43.000,253.314,-76.279,25785.892011
1 Jan 2020 23:57:13.000,253.424,-76.094,25992.636695
1 Jan 2020 23:57:30.452,253.492,-75.994,26114.069945
2 Jan 2020 01:14:40.023,106.416,-75.986,26107.347934
2 Jan 2020 01:15:10.000,108.040,-76.090,25981.603792
2 Jan 2020 01:15:40.000,109.713,-76.197,25860.377251
2 Jan 2020 01:16:10.000,111.434,-76.305,25743.920337
2 Jan 2020 01:16:40.000,113.204,-76.415,25632.382900
2 Jan 2020 01:17:10.000,115.025,-76.525,25525.908990
2 Jan 2020 01:17:40.000,116.897,-76.635,25424.636386
2 Jan 2020 01:18:10.000,118.820,-76.744,25328.695933
2 Jan 2020 01:18:40.000,120.794,-76.851,25238.211891
2 Jan 2020 01:19:10.000,122.818,-76.956,25153.300264
2 Jan 2020 01:19:40.000,124.892,-77.057,25074.069195
2 Jan 2020 01:20:10.000,127.016,-77.154,25000.618344
2 Jan 2020 01:20:40.000,129.186,-77.246,24933.038501
2 Jan 2020 01:21:10.000,131.402,-77.333,24871.411075
2 Jan 2020 01:21:40.000,133.660,-77.413,24815.808364
2 Jan 2020 01:22:10.000,135.959,-77.486,24766.292333
2 Jan 2020 01:22:40.000,138.293,-77.552,24722.914976
2 Jan 2020 01:23:10.000,140.661,-77.609,24685.717931
2 Jan 2020 01:23:40.000,143.057,-77.657,24654.732218
2 Jan 2020 01:24:10.000,145.476,-77.696,24629.978432
2 Jan 2020 01:24:40.000,147.914,-77.725,24611.466130
2 Jan 2020 01:25:10.000,150.366,-77.745,24599.194139
2 Jan 2020 01:25:40.000,152.827,-77.755,24593.150465
2 Jan 2020 01:26:10.000,155.290,-77.755,24593.312301
2 Jan 2020 01:26:40.000,157.751,-77.745,24599.646263
2 Jan 2020 01:27:10.000,160.203,-77.725,24612.108305
2 Jan 2020 01:27:40.000,162.644,-77.696,24630.644059
2 Jan 2020 01:28:10.000,165.066,-77.657,24655.189019
2 Jan 2020 01:28:40.000,167.466,-77.610,24685.668830
2 Jan 2020 01:29:10.000,169.841,-77.554,24721.999527
2 Jan 2020 01:29:40.000,172.185,-77.491,24764.087955
2 Jan 2020 01:30:10.000,174.496,-77.421,24811.832099
2 Jan 2020 01:30:40.000,176.770,-77.344,24865.121496
2 Jan 2020 01:31:10.000,179.007,-77.262,24923.837658
2 Jan 2020 01:31:40.000,181.204,-77.174,24987.854599
2 Jan 2020 01:32:10.000,183.359,-77.082,25057.039000
2 Jan 2020 01:32:40.000,185.471,-76.987,25131.251122
2 Jan 2020 01:33:10.000,187.541,-76.888,25210.345017
2 Jan 2020 01:33:40.000,189.567,-76.788,25294.169091
2 Jan 2020 01:34:10.000,191.551,-76.686,25382.566599
2 Jan 2020 01:34:40.000,193.491,-76.583,25475.376147
2 Jan 2020 01:35:10.000,195.390,-76.480,25572.432317
2 Jan 2020 01:35:40.000,197.248,-76.377,25673.565636
2 Jan 2020 01:36:10.000,199.065,-76.276,25778.603824
2 Jan 2020 01:36:40.000,200.844,-76.177,25887.371755
2 Jan 2020 01:37:10.000,202.585,-76.079,25999.692042
2 Jan 2020 01:37:38.002,204.177,-75.991,26107.580095
2 Jan 2020 05:53:04.084,298.608,-75.988,26107.897567
2 Jan 2020 05:53:34.000,299.358,-76.151,25914.301449
2 Jan 2020 05:54:04.000,300.130,-76.327,25722.633796
2 Jan 2020 05:54:34.000,300.925,-76.518,25533.681155
2 Jan 2020 05:55:04.000,301.746,-76.723,25347.687312
2 Jan 2020 05:55:34.000,302.595,-76.942,25164.898570
2 Jan 2020 05:56:04.000,303.477,-77.175,24985.563358
2 Jan 2020 05:56:34.000,304.395,-77.422,24809.931801
2 Jan 2020 05:57:04.000,305.355,-77.682,24638.255239
2 Jan 2020 05:57:34.000,306.361,-77.956,24470.785452
2 Jan 2020 05:58:04.000,307.420,-78.243,24307.775136
2 Jan 2020 05:58:34.000,308.538,-78.542,24149.475708
2 Jan 2020 05:59:04.000,309.723,-78.853,23996.137709
2 Jan 2020 05:59:34.000,310.983,-79.176,23848.009835
2 Jan 2020 06:00:04.000,312.330,-79.509,23705.338185
2 Jan 2020 06:00:34.000,313.775,-79.853,23568.365255
2 Jan 2020 06:01:04.000,315.330,-80.204,23437.330005
2 Jan 2020 06:01:34.000,317.013,-80.564,23312.465645
2 Jan 2020 06:02:04.000,318.841,-80.929,23193.999657
2 Jan 2020 06:02:34.000,320.834,-81.299,23082.152656
2 Jan 2020 06:03:04.000,323.018,-81.671,22977.137300
2 Jan 2020 06:03:34.000,325.420,-82.043,22879.158022
2 Jan 2020 06:04:04.000,328.072,-82.412,22788.409071
2 Jan 2020 06:04:34.000,331.008,-82.775,22705.074278
2 Jan 2020 06:05:04.000,334.267,-83.128,22629.325875
2 Jan 2020 06:05:34.000,337.890,-83.467,22561.324024
2 Jan 2020 06:06:04.000,341.916,-83.788,22501.215339
2 Jan 2020 06:06:34.000,346.381,-84.083,22449.132526
2 Jan 2020 06:07:04.000,351.305,-84.347,22405.193491
2 Jan 2020 06:07:34.000,356.693,-84.573,22369.500892
2 Jan 2020 06:08:04.000,2.514,-84.754,22342.141195
2 Jan 2020 06:08:34.000,8.702,-84.884,22323.184423
2 Jan 2020 06:09:04.000,15.149,-84.957,22312.683683
2 Jan 2020 06:09:34.000,21.713,-84.971,22310.674848
2 Jan 2020 06:10:04.000,28.233,-84.925,22317.176338
2 Jan 2020 06:10:34.000,34.557,-84.821,22332.189037
2 Jan 2020 06:11:04.000,40.556,-84.662,22355.696356
2 Jan 2020 06:11:34.000,46.143,-84.455,22387.664095
2 Jan 2020 06:12:04.000,51.269,-84.206,22428.041011
2 Jan 2020 06:12:34.000,55.923,-83.923,22476.758925
2 Jan 2020 06:13:04.000,60.117,-83.610,22533.733301
2 Jan 2020 06:13:34.000,63.882,-83.276,22598.863289
2 Jan 2020 06:14:04.000,67.254,-82.924,22672.033003
2 Jan 2020 06:14:34.000,70.275,-82.561,22753.111740
2 Jan 2020 06:15:04.000,72.984,-82.189,22841.954993
2 Jan 2020 06:15:34.000,75.417,-81.812,22938.404578
2 Jan 2020 06:16:04.000,77.608,-81.435,23042.290441
2 Jan 2020 06:16:34.000,79.588,-81.058,23153.430894
2 Jan 2020 06:17:04.000,81.381,-80.685,23271.633671
2 Jan 2020 06:17:34.000,83.010,-80.316,23396.697091
2 Jan 2020 06:18:04.000,84.495,-79.955,23528.409987
2 Jan 2020 06:18:34.000,85.852,-79.602,23666.554097
2 Jan 2020 06:19:04.000,87.096,-79.258,23810.904007
2 Jan 2020 06:19:34.000,88.240,-78.925,23961.228281
2 Jan 2020 06:20:04.000,89.294,-78.603,24117.290332
2 Jan 2020 06:20:34.000,90.267,-78.293,24278.849571
2 Jan 2020 06:21:04.000,91.169,-77.996,24445.660979
2 Jan 2020 06:21:34.000,92.005,-77.712,24617.477718
2 Jan 2020 06:22:04.000,92.782,-77.442,24794.050641
2 Jan 2020 06:22:34.000,93.505,-77.186,24975.129277
2 Jan 2020 06:23:04.000,94.180,-76.945,25160.462479
2 Jan 2020 06:23:34.000,94.810,-76.718,25349.799014
2 Jan 2020 06:24:04.000,95.399,-76.505,25542.888120
2 Jan 2020 06:24:34.000,95.951,-76.308,25739.480350
2 Jan 2020 06:25:04.000,96.468,-76.125,25939.326683
2 Jan 2020 06:25:29.031,96.875,-75.984,26108.381417
2 Jan 2020 07:40:40.476,266.495,-75.992,26115.164408
2 Jan 2020 07:41:10.000,265.412,-76.136,25942.317397
2 Jan 2020 07:41:40.000,264.261,-76.293,25770.445794
2 Jan 2020 07:42:10.000,263.058,-76.458,25602.587116
2 Jan 2020 07:42:40.000,261.798,-76.632,25438.959974
2 Jan 2020 07:43:10.000,260.477,-76.815,25279.781234
2 Jan 2020 07:43:40.000,259.093,-77.005,25125.265462
2 Jan 2020 07:44:10.000,257.640,-77.202,24975.624100
2 Jan 2020 07:44:40.000,256.114,-77.405,24831.065878
2 Jan 2020 07:45:10.000,254.511,-77.614,24691.794648
2 Jan 2020 07:45:40.000,252.825,-77.826,24558.009767
2 Jan 2020 07:46:10.000,251.052,-78.042,24429.905174
2 Jan 2020 07:46:40.000,249.187,-78.259,24307.668708
2 Jan 2020 07:47:10.000,247.226,-78.478,24191.481177
2 Jan 2020 07:47:40.000,245.162,-78.695,24081.516644
2 Jan 2020 07:48:10.000,242.992,-78.910,23977.940250
2 Jan 2020 07:48:40.000,240.713,-79.121,23880.908526
2 Jan 2020 07:49:10.000,238.320,-79.327,23790.568472
2 Jan 2020 07:49:40.000,235.811,-79.526,23707.056726
2 Jan 2020 07:50:10.000,233.185,-79.715,23630.499645
2 Jan 2020 07:50:40.000,230.442,-79.893,23561.011633
2 Jan 2020 07:51:10.000,227.585,-80.058,23498.695315
2 Jan 2020 07:51:40.000,224.618,-80.209,23443.640840
2 Jan 2020 07:52:10.000,221.547,-80.344,23395.925309
2 Jan 2020 07:52:40.000,218.382,-80.460,23355.612857
2 Jan 2020 07:53:10.000,215.133,-80.557,23322.753563
2 Jan 2020 07:53:40.000,211.814,-80.632,23297.383696
2 Jan 2020 07:54:10.000,208.442,-80.686,23279.525328
2 Jan 2020 07:54:40.000,205.034,-80.718,23269.186420
2 Jan 2020 07:55:10.000,201.609,-80.726,23266.360434
2 Jan 2020 07:55:40.000,198.186,-80.712,23271.026589
2 Jan 2020 07:56:10.000,194.784,-80.675,23283.149898
2 Jan 2020 07:56:40.000,191.422,-80.616,23302.681362
2 Jan 2020 07:57:10.000,188.115,-80.535,23329.558167
2 Jan 2020 07:57:40.000,184.880,-80.435,23363.704046
2 Jan 2020 07:58:10.000,181.727,-80.316,23405.029646
2 Jan 2020 07:58:40.000,178.667,-80.180,23453.433037
2 Jan 2020 07:59:10.000,175.708,-80.029,23508.799960
2 Jan 2020 07:59:40.000,172.854,-79.865,23571.004737
2 Jan 2020 08:00:10.000,170.108,-79.689,23639.910635
2 Jan 2020 08:00:40.000,167.471,-79.503,23715.370554
2 Jan 2020 08:01:10.000,164.942,-79.309,23797.227803
2 Jan 2020 08:01:40.000,162.520,-79.109,23885.316328
2 Jan 2020 08:02:10.000,160.201,-78.904,23979.462087
2 Jan 2020 08:02:40.000,157.982,-78.696,24079.483328
2 Jan 2020 08:03:10.000,155.858,-78.487,24185.191414
2 Jan 2020 08:03:40.000,153.824,-78.277,24296.391536
2 Jan 2020 08:04:10.000,151.876,-78.068,24412.883614
2 Jan 2020 08:04:40.000,150.009,-77.861,24534.462267
2 Jan 2020 08:05:10.000,148.217,-77.658,24660.918568
2 Jan 2020 08:05:40.000,146.495,-77.459,24792.040003
2 Jan 2020 08:06:10.000,144.839,-77.264,24927.611288
2 Jan 2020 08:06:40.000,143.245,-77.076,25067.414975
2 Jan 2020 08:07:10.000,141.707,-76.894,25211.232045
2 Jan 2020 08:07:40.000,140.222,-76.718,25358.842459
2 Jan 2020 08:08:10.000,138.786,-76.551,25510.025918
2 Jan 2020 08:08:40.000,137.395,-76.391,25664.561416
2 Jan 2020 08:09:10.000,136.045,-76.240,25822.229098
2 Jan 2020 08:09:40.000,134.732,-76.097,25982.809762
2 Jan 2020 08:10:04.380,133.692,-75.988,26115.300770
2 Jan 2020 12:23:11.093,46.921,-75.993,26118.798222
2 Jan 2020 12:23:41.000,45.658,-76.129,25955.165037
2 Jan 2020 12:24:11.000,44.355,-76.275,25793.738114
2 Jan 2020 12:24:41.000,43.014,-76.430,25635.252467
2 Jan 2020 12:25:11.000,41.631,-76.593,25479.928822
2 Jan 2020 12:25:41.000,40.203,-76.764,25327.988788
2 Jan 2020 12:26:11.000,38.725,-76.943,25179.654435
2 Jan 2020 12:26:41.000,37.195,-77.129,25035.147823
2 Jan 2020 12:27:11.000,35.606,-77.322,24894.690507
2 Jan 2020 12:27:41.000,33.955,-77.520,24758.502804
2 Jan 2020 12:28:11.000,32.237,-77.724,24626.804042
2 Jan 2020 12:28:41.000,30.447,-77.932,24499.810735
2 Jan 2020 12:29:11.000,28.580,-78.143,24377.736791
2 Jan 2020 12:29:41.000,26.630,-78.356,24260.792652
2 Jan 2020 12:30:11.000,24.593,-78.571,24149.184623
2 Jan 2020 12:30:41.000,22.462,-78.785,24043.114030
2 Jan 2020 12:31:11.000,20.234,-78.998,23942.777115
2 Jan 2020 12:31:41.000,17.903,-79.207,23848.363393
2 Jan 2020 12:32:11.000,15.465,-79.412,23760.055550
2 Jan 2020 12:32:41.000,12.917,-79.610,23678.028560
2 Jan 2020 12:33:11.000,10.257,-79.800,23602.448859
2 Jan 2020 12:33:41.000,7.483,-79.981,23533.474027
2 Jan 2020 12:34:11.000,4.596,-80.149,23471.251496
2 Jan 2020 12:34:41.000,1.600,-80.303,23415.918287
2 Jan 2020 12:35:11.000,358.499,-80.442,23367.600268
2 Jan 2020 12:35:41.000,355.301,-80.563,23326.411521
2 Jan 2020 12:36:11.000,352.017,-80.665,23292.453947
2 Jan 2020 12:36:41.000,348.659,-80.747,23265.816500
2 Jan 2020 12:37:11.000,345.242,-80.807,23246.574931
2 Jan 2020 12:37:41.000,341.785,-80.843,23234.791357
2 Jan 2020 12:38:11.000,338.307,-80.857,23230.513975
2 Jan 2020 12:38:41.000,334.827,-80.847,23233.776706
2 Jan 2020 12:39:11.000,331.367,-80.813,23244.599176
2 Jan 2020 12:39:41.000,327.946,-80.756,23262.986534
2 Jan 2020 12:40:11.000,324.582,-80.677,23288.929528
2 Jan 2020 12:40:41.000,321.292,-80.576,23322.404288
2 Jan 2020 12:41:11.000,318.091,-80.455,23363.372864
2 Jan 2020 12:41:41.000,314.989,-80.316,23411.783181
2 Jan 2020 12:42:11.000,311.997,-80.160,23467.569385
2 Jan 2020 12:42:41.000,309.120,-79.989,23530.652353
2 Jan 2020 12:43:11.000,306.363,-79.806,23600.939480
2 Jan 2020 12:43:41.000,303.727,-79.611,23678.326069
2 Jan 2020 12:44:11.000,301.211,-79.407,23762.695258
2 Jan 2020 12:44:41.000,298.816,-79.196,23853.918731
2 Jan 2020 12:45:11.000,296.536,-78.980,23951.857535
2 Jan 2020 12:45:41.000,294.370,-78.760,24056.361906
2 Jan 2020 12:46:11.000,292.313,-78.537,24167.273140
2 Jan 2020 12:46:41.000,290.359,-78.314,24284.423482
2 Jan 2020 12:47:11.000,288.504,-78.092,24407.637024
2 Jan 2020 12:47:41.000,286.742,-77.872,24536.730404
2 Jan 2020 12:48:11.000,285.068,-77.656,24671.513789
2 Jan 2020 12:48:41.000,283.478,-77.444,24811.790472
2 Jan 2020 12:49:11.000,281.966,-77.237,24957.359196
2 Jan 2020 12:49:41.000,280.527,-77.036,25108.013746
2 Jan 2020 12:50:11.000,279.157,-76.843,25263.543873
2 Jan 2020 12:50:41.000,277.852,-76.658,25423.735926
2 Jan 2020 12:51:11.000,276.607,-76.481,25588.373459
2 Jan 2020 12:51:41.000,275.419,-76.313,25757.238112
2 Jan 2020 12:52:11.000,274.284,-76.154,25930.108972
2 Jan 2020 12:52:41.000,273.198,-76.006,26106.764869
2 Jan 2020 12:52:42.978,273.128,-75.996,26118.539908
2 Jan 2020 14:07:53.836,83.457,-75.988,26111.956907
2 Jan 2020 14:08:23.000,83.954,-76.153,25915.701532
2 Jan 2020 14:08:53.000,84.497,-76.337,25716.844000
2 Jan 2020 14:09:23.000,85.076,-76.536,25521.297012
2 Jan 2020 14:09:53.000,85.695,-76.750,25329.308829
2 Jan 2020 14:10:23.000,86.356,-76.978,25141.129026
2 Jan 2020 14:10:53.000,87.063,-77.221,24957.008012
2 Jan 2020 14:11:23.000,87.820,-77.478,24777.196512
2 Jan 2020 14:11:53.000,88.634,-77.748,24601.944715
2 Jan 2020 14:12:23.000,89.508,-78.032,24431.502854
2 Jan 2020 14:12:53.000,90.450,-78.329,24266.118758
2 Jan 2020 14:13:23.000,91.467,-78.638,24106.038363
2 Jan 2020 14:13:53.000,92.568,-78.959,23951.504674
2 Jan 2020 14:14:23.000,93.761,-79.291,23802.756986
2 Jan 2020 14:14:53.000,95.058,-79.633,23660.029795
2 Jan 2020 14:15:23.000,96.472,-79.984,23523.553074
2 Jan 2020 14:15:53.000,98.018,-80.343,23393.549705
2 Jan 2020 14:16:23.000,99.713,-80.707,23270.235724
2 Jan 2020 14:16:53.000,101.575,-81.076,23153.819126
2 Jan 2020 14:17:23.000,103.629,-81.448,23044.498732
2 Jan 2020 14:17:53.000,105.898,-81.819,22942.464148
2 Jan 2020 14:18:23.000,108.414,-82.188,22847.893525
2 Jan 2020 14:18:53.000,111.207,-82.552,22760.953575
2 Jan 2020 14:19:23.000,114.313,-82.906,22681.798338
2 Jan 2020 14:19:53.000,117.768,-83.246,22610.568939
2 Jan 2020 14:20:23.000,121.609,-83.568,22547.391935
2 Jan 2020 14:20:53.000,125.867,-83.867,22492.379198
2 Jan 2020 14:21:23.000,130.564,-84.136,22445.627027
2 Jan 2020 14:21:53.000,135.703,-84.368,22407.215961
2 Jan 2020 14:22:23.000,141.262,-84.559,22377.209702
2 Jan 2020 14:22:53.000,147.186,-84.700,22355.655128
2 Jan 2020 14:23:23.000,153.384,-84.789,22342.581871
2 Jan 2020 14:23:53.000,159.731,-84.820,22338.002263
2 Jan 2020 14:24:23.000,166.084,-84.793,22341.911013
2 Jan 2020 14:24:53.000,172.301,-84.710,22354.285404
2 Jan 2020 14:25:23.000,178.256,-84.573,22375.085399
2 Jan 2020 14:25:53.000,183.856,-84.388,22404.253784
2 Jan 2020 14:26:23.000,189.045,-84.160,22441.716617
2 Jan 2020 14:26:53.000,193.800,-83.896,22487.383597
2 Jan 2020 14:27:23.000,198.124,-83.603,22541.148683
2 Jan 2020 14:27:53.000,202.037,-83.286,22602.890377
2 Jan 2020 14:28:23.000,205.572,-82.951,22672.472866
2 Jan 2020 14:28:53.000,208.763,-82.603,22749.746474
2 Jan 2020 14:29:23.000,211.649,-82.245,22834.548662
2 Jan 2020 14:29:53.000,214.264,-81.882,22926.704377
2 Jan 2020 14:30:23.000,216.640,-81.516,23026.027666
2 Jan 2020 14:30:53.000,218.807,-81.150,23132.322114
2 Jan 2020 14:31:23.000,220.791,-80.787,23245.381882
2 Jan 2020 14:31:53.000,222.614,-80.428,23364.992848
2 Jan 2020 14:32:23.000,224.296,-80.075,23490.932728
2 Jan 2020 14:32:53.000,225.855,-79.729,23622.973190
2 Jan 2020 14:33:23.000,227.305,-79.392,23760.879974
2 Jan 2020 14:33:53.000,228.659,-79.065,23904.413964
2 Jan 2020 14:34:23.000,229.929,-78.749,24053.332038
2 Jan 2020 14:34:53.000,231.124,-78.443,24207.388137
2 Jan 2020 14:35:23.000,232.253,-78.150,24366.333026
2 Jan 2020 14:35:53.000,233.324,-77.869,24529.916543
2 Jan 2020 14:36:23.000,234.342,-77.601,24697.887291
2 Jan 2020 14:36:53.000,235.315,-77.346,24869.993533
2 Jan 2020 14:37:23.000,236.246,-77.105,25045.983793
2 Jan 2020 14:37:53.000,237.141,-76.877,25225.607413
2 Jan 2020 14:38:23.000,238.004,-76.663,25408.615060
2 Jan 2020 14:38:53.000,238.838,-76.464,25594.759197
2 Jan 2020 14:39:23.000,239.646,-76.278,25783.794803
2 Jan 2020 14:39:53.000,240.432,-76.105,25975.478543
2 Jan 2020 14:40:14.062,240.972,-75.993,26111.503916
2 Jan 2020 18:55:30.556,334.861,-75.985,26104.235813
2 Jan 2020 18:56:00.000,336.523,-76.079,25988.942389
2 Jan 2020 18:56:30.000,338.252,-76.179,25874.792343
2 Jan 2020 18:57:00.000,340.018,-76.281,25764.171845
2 Jan 2020 18:57:30.000,341.825,-76.384,25657.259963
2 Jan 2020 18:58:00.000,343.672,-76.489,25554.233618
2 Jan 2020 18:58:30.000,345.560,-76.595,25455.267135
2 Jan 2020 18:59:00.000,347.492,-76.701,25360.531769
2 Jan 2020 18:59:30.000,349.467,-76.806,25270.195119
2 Jan 2020 19:00:00.000,351.486,-76.910,25184.421072
2 Jan 2020 19:00:30.000,353.550,-77.011,25103.368638
2 Jan 2020 19:01:00.000,355.658,-77.111,25027.191899
2 Jan 2020 19:01:30.000,357.810,-77.206,24956.039390
2 Jan 2020 19:02:00.000,0.005,-77.298,24890.053599
2 Jan 2020 19:02:30.000,2.241,-77.384,24829.370405
2 Jan 2020 19:03:00.000,4.518,-77.465,24774.118839
2 Jan 2020 19:03:30.000,6.833,-77.539,24724.420230
2 Jan 2020 19:04:00.000,9.183,-77.607,24680.388004
2 Jan 2020 19:04:30.000,11.565,-77.666,24642.127183
2 Jan 2020 19:05:00.000,13.976,-77.717,24609.733969
2 Jan 2020 19:05:30.000,16.410,-77.760,24583.295357
2 Jan 2020 19:06:00.000,18.865,-77.792,24562.888799
2 Jan 2020 19:06:30.000,21.334,-77.816,24548.581842
2 Jan 2020 19:07:00.000,23.812,-77.829,24540.431887
2 Jan 2020 19:07:30.000,26.295,-77.832,24538.485934
2 Jan 2020 19:08:00.000,28.777,-77.825,24542.780437
2 Jan 2020 19:08:30.000,31.251,-77.808,24553.340967
2 Jan 2020 19:09:00.000,33.713,-77.780,24570.182362
2 Jan 2020 19:09:30.000,36.158,-77.743,24593.308512
2 Jan 2020 19:10:00.000,38.579,-77.696,24622.712383
2 Jan 2020 19:10:30.000,40.972,-77.640,24658.376150
2 Jan 2020 19:11:00.000,43.332,-77.575,24700.270908
2 Jan 2020 19:11:30.000,45.656,-77.502,24748.357351
2 Jan 2020 19:12:00.000,47.940,-77.422,24802.585591
2 Jan 2020 19:12:30.000,50.181,-77.335,24862.895462
2 Jan 2020 19:13:00.000,52.375,-77.242,24929.216779
2 Jan 2020 19:13:30.000,54.522,-77.143,25001.469809
2 Jan 2020 19:14:00.000,56.619,-77.041,25079.564905
2 Jan 2020 19:14:30.000,58.665,-76.934,25163.403894
2 Jan 2020 19:15:00.000,60.659,-76.825,25252.879796
2 Jan 2020 19:15:30.000,62.601,-76.713,25347.877392
2 Jan 2020 19:16:00.000,64.490,-76.601,25448.273666
2 Jan 2020 19:16:30.000,66.328,-76.488,25553.938456
2 Jan 2020 19:17:00.000,68.114,-76.375,25664.734090
2 Jan 2020 19:17:30.000,69.849,-76.263,25780.517084
2 Jan 2020 19:18:00.000,71.535,-76.153,25901.137810
2 Jan 2020 19:18:30.000,73.172,-76.046,26026.441168
2 Jan 2020 19:18:48.117,74.137,-75.982,26104.310976
2 Jan 2020 20:35:49.801,286.165,-75.990,26110.393244
2 Jan 2020 20:36:19.000,286.257,-76.160,25907.622449
2 Jan 2020 20:36:49.000,286.343,-76.351,25701.854954
2 Jan 2020 20:37:19.000,286.421,-76.559,25498.939944
2 Jan 2020 20:37:49.000,286.490,-76.784,25299.131881
2 Jan 2020 20:38:19.000,286.552,-77.026,25102.687956
2 Jan 2020 20:38:49.000,286.604,-77.284,24909.867686
2 Jan 2020 20:39:19.000,286.648,-77.560,24720.932472
2 Jan 2020 20:39:49.000,286.682,-77.852,24536.145100
2 Jan 2020 20:40:19.000,286.706,-78.162,24355.768893
2 Jan 2020 20:40:49.000,286.719,-78.489,24180.068357
2 Jan 2020 20:41:19.000,286.722,-78.832,24009.306654
2 Jan 2020 20:41:49.000,286.712,-79.193,23843.746168
2 Jan 2020 20:42:19.000,286.690,-79.570,23683.647434
2 Jan 2020 20:42:49.000,286.653,-79.963,23529.268340
2 Jan 2020 20:43:19.000,286.600,-80.372,23380.863013
2 Jan 2020 20:43:49.000,286.529,-80.797,23238.682019
2 Jan 2020 20:44:19.000,286.438,-81.238,23102.969778
2 Jan 2020 20:44:49.000,286.323,-81.693,22973.964720
2 Jan 2020 20:45:19.000,286.181,-82.162,22851.898007
2 Jan 2020 20:45:49.000,286.007,-82.645,22736.992317
2 Jan 2020 20:46:19.000,285.793,-83.141,22629.461676
2 Jan 2020 20:46:49.000,285.531,-83.649,22529.509128
2 Jan 2020 20:47:19.000,285.206,-84.169,22437.326604
2 Jan 2020 20:47:49.000,284.802,-84.699,22353.093560
2 Jan 2020 20:48:19.000,284.290,-85.239,22276.976578
2 Jan 2020 20:48:49.000,283.629,-85.787,22209.127574
2 Jan 2020 20:49:19.000,282.749,-86.342,22149.683516
2 Jan 2020 20:49:49.000,281.533,-86.903,22098.765384
2 Jan 2020 20:50:19.000,279.755,-87.468,22056.477804
2 Jan 2020 20:50:49.000,276.928,-88.034,22022.907838
2 Jan 2020 20:51:19.000,271.800,-88.595,21998.124838
2 Jan 2020 20:51:49.000,260.072,-89.133,21982.179879
2 Jan 2020 20:52:19.000,221.418,-89.542,21975.105541
2 Jan 2020 20:52:49.000,155.125,-89.408,21976.915514
2 Jan 2020 20:53:19.000,132.358,-88.917,21987.604647
2 Jan 2020 20:53:49.000,124.306,-88.366,22007.148988
2 Jan 2020 20:54:19.000,120.350,-87.802,22035.505776
2 Jan 2020 20:54:49.000,118.010,-87.236,22072.613931
2 Jan 2020 20:55:19.000,116.461,-86.673,22118.394312
2 Jan 2020 20:55:49.000,115.355,-86.114,22172.750350
2 Jan 2020 20:56:19.000,114.520,-85.562,22235.568232
2 Jan 2020 20:56:49.000,113.863,-85.017,22306.718185
2 Jan 2020 20:57:19.000,113.327,-84.482,22386.054863
2 Jan 2020 20:57:49.000,112.879,-83.956,22473.418444
2 Jan 2020 20:58:19.000,112.494,-83.442,22568.634913
2 Jan 2020 20:58:49.000,112.156,-82.939,22671.517914
2 Jan 2020 20:59:19.000,111.856,-82.449,22781.869148
2 Jan 2020 20:59:49.000,111.583,-81.972,22899.479528
2 Jan 2020 21:00:19.000,111.332,-81.509,23024.130444
2 Jan 2020 21:00:49.000,111.098,-81.060,23155.593829
2 Jan 2020 21:01:19.000,110.878,-80.626,23293.634602
2 Jan 2020 21:01:49.000,110.668,-80.208,23438.010732
2 Jan 2020 21:02:19.000,110.467,-79.806,23588.474446
2 Jan 2020 21:02:49.000,110.272,-79.419,23744.773182
2 Jan 2020 21:03:19.000,110.082,-79.050,23906.650800
2 Jan 2020 21:03:49.000,109.895,-78.696,24073.847239
2 Jan 2020 21:04:19.000,109.710,-78.360,24246.101143
2 Jan 2020 21:04:49.000,109.527,-78.040,24423.149445
2 Jan 2020 21:05:19.000,109.344,-77.738,24604.728386
2 Jan 2020 21:05:49.000,109.162,-77.452,24790.574185
2 Jan 2020 21:06:19.000,108.978,-77.184,24980.423660
2 Jan 2020 21:06:49.000,108.793,-76.932,25174.014801
2 Jan 2020 21:07:19.000,108.607,-76.697,25371.087615
2 Jan 2020 21:07:49.000,108.418,-76.479,25571.383273
2 Jan 2020 21:08:19.000,108.226,-76.278,25774.646509
2 Jan 2020 21:08:49.000,108.031,-76.093,25980.624684
2 Jan 2020 21:09:07.800,107.907,-75.985,26110.978927
2 Jan 2020 22:26:45.963,251.240,-75.993,26117.611354
2 Jan 2020 22:27:15.000,249.605,-76.086,26004.770495
2 Jan 2020 22:27:45.000,247.872,-76.183,25892.826602
2 Jan 2020 22:28:15.000,246.092,-76.281,25785.737802
2 Jan 2020 22:28:45.000,244.267,-76.379,25683.639830
2 Jan 2020 22:29:15.000,242.396,-76.477,25586.662075
2 Jan 2020 22:29:45.000,240.478,-76.574,25494.927141
2 Jan 2020 22:30:15.000,238.514,-76.669,25408.550246
2 Jan 2020 22:30:45.000,236.505,-76.762,25327.639557
2 Jan 2020 22:31:15.000,234.451,-76.851,25252.294661
2 Jan 2020 22:31:45.000,232.355,-76.936,25182.606958
2 Jan 2020 22:32:15.000,230.217,-77.017,25118.659119
2 Jan 2020 22:32:45.000,228.040,-77.092,25060.524762
2 Jan 2020 22:33:15.000,225.826,-77.161,25008.268025
2 Jan 2020 22:33:45.000,223.577,-77.224,24961.943843
2 Jan 2020 22:34:15.000,221.298,-77.280,24921.596904
2 Jan 2020 22:34:45.000,218.992,-77.328,24887.262012
2 Jan 2020 22:35:15.000,216.662,-77.368,24858.963804
2 Jan 2020 22:35:45.000,214.313,-77.400,24836.716568
2 Jan 2020 22:36:15.000,211.949,-77.423,24820.524461
2 Jan 2020 22:36:45.000,209.575,-77.438,24810.381054
2 Jan 2020 22:37:15.000,207.194,-77.444,24806.269651
2 Jan 2020 22:37:45.000,204.813,-77.441,24808.163280
2 Jan 2020 22:38:15.000,202.435,-77.430,24816.024780
2 Jan 2020 22:38:45.000,200.065,-77.409,24829.807040
2 Jan 2020 22:39:15.000,197.708,-77.381,24849.453048
2 Jan 2020 22:39:45.000,195.367,-77.344,24874.896227
2 Jan 2020 22:40:15.000,193.046,-77.300,24906.060670
2 Jan 2020 22:40:45.000,190.749,-77.249,24942.861452
2 Jan 2020 22:41:15.000,188.478,-77.190,24985.204992
2 Jan 2020 22:41:45.000,186.238,-77.126,25032.989275
2 Jan 2020 22:42:15.000,184.029,-77.056,25086.104445
2 Jan 2020 22:42:45.000,181.854,-76.982,25144.433086
2 Jan 2020 22:43:15.000,179.715,-76.902,25207.850681
2 Jan 2020 22:43:45.000,177.613,-76.820,25276.226057
2 Jan 2020 22:44:15.000,175.549,-76.734,25349.421923
2 Jan 2020 22:44:45.000,173.523,-76.645,25427.295002
2 Jan 2020 22:45:15.000,171.535,-76.555,25509.696990
2 Jan 2020 22:45:45.000,169.586,-76.464,25596.474706
2 Jan 2020 22:46:15.000,167.675,-76.372,25687.470643
2 Jan 2020 22:46:45.000,165.802,-76.280,25782.523431
2 Jan 2020 22:47:15.000,163.965,-76.189,25881.468298
2 Jan 2020 22:47:45.000,162.165,-76.099,25984.137522
2 Jan 2020 22:48:15.000,160.400,-76.011,26090.361018
2 Jan 2020 22:48:22.478,159.965,-75.989,26117.373406
3 Jan 2020 01:36:09.900,332.510,-75.997,26121.961029
3 Jan 2020 01:36:39.000,330.541,-76.006,26111.518462
3 Jan 2020 01:37:09.000,328.507,-76.011,26105.490024
3 Jan 2020 01:37:39.000,326.473,-76.012,26104.315268
3 Jan 2020 01:38:09.000,324.439,-76.009,26108.031482
3 Jan 2020 01:38:39.000,322.409,-76.002,26116.668222
3 Jan 2020 01:38:52.040,321.528,-75.998,26121.962495
3 Jan 2020 03:04:36.317,62.973,-75.991,26116.614553
3 Jan 2020 03:05:06.000,62.301,-76.155,25921.840375
3 Jan 2020 03:05:36.000,61.604,-76.334,25727.436998
3 Jan 2020 03:06:06.000,60.887,-76.529,25535.742273
3 Jan 2020 03:06:36.000,60.148,-76.738,25347.002088
3 Jan 2020 03:07:06.000,59.384,-76.961,25161.464985
3 Jan 2020 03:07:36.000,58.591,-77.199,24979.381769
3 Jan 2020 03:08:06.000,57.766,-77.452,24801.005078
3 Jan 2020 03:08:36.000,56.904,-77.719,24626.588910
3 Jan 2020 03:09:06.000,56.000,-78.000,24456.387837
3 Jan 2020 03:09:36.000,55.048,-78.295,24290.657503
3 Jan 2020 03:10:06.000,54.043,-78.603,24129.652390
3 Jan 2020 03:10:36.000,52.977,-78.924,23973.626247
3 Jan 2020 03:11:06.000,51.841,-79.258,23822.831098
3 Jan 2020 03:11:36.000,50.625,-79.604,23677.516491
3 Jan 2020 03:12:06.000,49.318,-79.961,23537.928472
3 Jan 2020 03:12:36.000,47.907,-80.328,23404.309669
3 Jan 2020 03:13:06.000,46.375,-80.703,23276.897016
3 Jan 2020 03:13:36.000,44.705,-81.087,23155.921798
3 Jan 2020 03:14:06.000,42.872,-81.477,23041.608477
3 Jan 2020 03:14:36.000,40.853,-81.870,22934.173579
3 Jan 2020 03:15:06.000,38.615,-82.267,22833.825434
3 Jan 2020 03:15:36.000,36.122,-82.662,22740.762148
3 Jan 2020 03:16:06.000,33.332,-83.054,22655.171375
3 Jan 2020 03:16:36.000,30.196,-83.439,22577.229090
3 Jan 2020 03:17:06.000,26.658,-83.812,22507.099128
3 Jan 2020 03:17:36.000,22.660,-84.169,22444.931629
3 Jan 2020 03:18:06.000,18.140,-84.502,22390.862683
3 Jan 2020 03:18:36.000,13.047,-84.805,22345.013396
3 Jan 2020 03:19:06.000,7.348,-85.069,22307.489437
3 Jan 2020 03:19:36.000,1.049,-85.286,22278.380037
3 Jan 2020 03:20:06.000,354.211,-85.446,22257.757736
3 Jan 2020 03:20:36.000,346.966,-85.544,22245.677878
3 Jan 2020 03:21:06.000,339.508,-85.572,22242.178296
3 Jan 2020 03:21:36.000,332.072,-85.531,22247.279040
3 Jan 2020 03:22:06.000,324.889,-85.421,22260.982308
3 Jan 2020 03:22:36.000,318.147,-85.249,22283.272489
3 Jan 2020 03:23:06.000,311.964,-85.022,22314.116029
3 Jan 2020 03:23:36.000,306.394,-84.749,22353.461983
3 Jan 2020 03:24:06.000,301.434,-84.437,22401.242124
3 Jan 2020 03:24:36.000,297.049,-84.097,22457.371536
3 Jan 2020 03:25:06.000,293.183,-83.734,22521.748662
3 Jan 2020 03:25:36.000,289.777,-83.354,22594.256583
3 Jan 2020 03:26:06.000,286.772,-82.964,22674.763265
3 Jan 2020 03:26:36.000,284.113,-82.566,22763.122576
3 Jan 2020 03:27:06.000,281.753,-82.166,22859.174444
3 Jan 2020 03:27:36.000,279.649,-81.765,22962.746672
3 Jan 2020 03:28:06.000,277.767,-81.366,23073.655205
3 Jan 2020 03:28:36.000,276.077,-80.973,23191.705204
3 Jan 2020 03:29:06.000,274.552,-80.585,23316.692241
3 Jan 2020 03:29:36.000,273.172,-80.206,23448.402238
3 Jan 2020 03:30:06.000,271.919,-79.836,23586.613897
3 Jan 2020 03:30:36.000,270.776,-79.476,23731.098659
3 Jan 2020 03:31:06.000,269.732,-79.128,23881.621858
3 Jan 2020 03:31:36.000,268.774,-78.792,24037.943613
3 Jan 2020 03:32:06.000,267.894,-78.469,24199.820009
3 Jan 2020 03:32:36.000,267.083,-78.159,24367.002669
3 Jan 2020 03:33:06.000,266.334,-77.863,24539.241402
3 Jan 2020 03:33:36.000,265.641,-77.582,24716.283724
3 Jan 2020 03:34:06.000,264.998,-77.315,24897.875858
3 Jan 2020 03:34:36.000,264.402,-77.063,25083.763397
3 Jan 2020 03:35:06.000,263.847,-76.827,25273.691906
3 Jan 2020 03:35:36.000,263.331,-76.606,25467.407492
3 Jan 2020 03:36:06.000,262.850,-76.399,25664.657660
3 Jan 2020 03:36:36.000,262.401,-76.209,25865.190417
3 Jan 2020 03:37:06.000,261.983,-76.033,26068.756745
3 Jan 2020 03:37:12.912,261.891,-75.995,26116.061931
3 Jan 2020 04:52:33.335,94.936,-75.987,26109.309733
3 Jan 2020 04:53:03.000,96.097,-76.128,25940.594928
3 Jan 2020 04:53:33.000,97.321,-76.279,25773.851658
3 Jan 2020 04:54:03.000,98.599,-76.439,25611.222410
3 Jan 2020 04:54:33.000,99.934,-76.606,25452.919608
3 Jan 2020 04:55:03.000,101.330,-76.781,25299.153448
3 Jan 2020 04:55:33.000,102.791,-76.963,25150.131352
3 Jan 2020 04:56:03.000,104.319,-77.150,25006.057133
3 Jan 2020 04:56:33.000,105.920,-77.342,24867.131415
3 Jan 2020 04:57:03.000,107.597,-77.538,24733.549473
3 Jan 2020 04:57:33.000,109.355,-77.737,24605.501631
3 Jan 2020 04:58:03.000,111.197,-77.939,24483.172351
3 Jan 2020 04:58:33.000,113.127,-78.141,24366.739570
3 Jan 2020 04:59:03.000,115.150,-78.342,24256.373807
3 Jan 2020 04:59:33.000,117.268,-78.541,24152.238440
3 Jan 2020 05:00:03.000,119.485,-78.737,24054.487617
3 Jan 2020 05:00:33.000,121.803,-78.928,23963.266574
3 Jan 2020 05:01:03.000,124.224,-79.113,23878.710764
3 Jan 2020 05:01:33.000,126.749,-79.289,23800.945087
3 Jan 2020 05:02:03.000,129.376,-79.456,23730.083982
3 Jan 2020 05:02:33.000,132.104,-79.612,23666.229868
3 Jan 2020 05:03:03.000,134.928,-79.754,23609.473339
3 Jan 2020 05:03:33.000,137.844,-79.882,23559.892540
3 Jan 2020 05:04:03.000,140.844,-79.994,23517.552661
3 Jan 2020 05:04:33.000,143.918,-80.088,23482.506046
3 Jan 2020 05:05:03.000,147.055,-80.164,23454.791227
3 Jan 2020 05:05:33.000,150.242,-80.221,23434.433190
3 Jan 2020 05:06:03.000,153.466,-80.257,23421.443112
3 Jan 2020 05:06:33.000,156.709,-80.273,23415.818250
3 Jan 2020 05:07:03.000,159.957,-80.268,23417.542118
3 Jan 2020 05:07:33.000,163.194,-80.243,23426.584278
3 Jan 2020 05:08:03.000,166.404,-80.198,23442.900692
3 Jan 2020 05:08:33.000,169.573,-80.133,23466.433878
3 Jan 2020 05:09:03.000,172.688,-80.050,23497.113226
3 Jan 2020 05:09:33.000,175.737,-79.949,23534.855234
3 Jan 2020 05:10:03.000,178.711,-79.832,23579.564059
3 Jan 2020 05:10:33.000,181.602,-79.701,23631.131893
3 Jan 2020 05:11:03.000,184.405,-79.556,23689.439493
3 Jan 2020 05:11:33.000,187.115,-79.400,23754.356824
3 Jan 2020 05:12:03.000,189.730,-79.235,23825.743304
3 Jan 2020 05:12:33.000,192.250,-79.061,23903.448934
3 Jan 2020 05:13:03.000,194.676,-78.880,23987.314620
3 Jan 2020 05:13:33.000,197.008,-78.694,24077.172920
3 Jan 2020 05:14:03.000,199.249,-78.504,24172.848731
3 Jan 2020 05:14:33.000,201.402,-78.312,24274.160133
3 Jan 2020 05:15:03.000,203.470,-78.118,24380.918441
3 Jan 2020 05:15:33.000,205.459,-77.925,24492.929837
3 Jan 2020 05:16:03.000,207.371,-77.734,24609.995428
3 Jan 2020 05:16:33.000,209.211,-77.544,24731.912059
3 Jan 2020 05:17:03.000,210.982,-77.358,24858.472964
3 Jan 2020 05:17:33.000,212.690,-77.176,24989.468388
3 Jan 2020 05:18:03.000,214.338,-76.999,25124.686400
3 Jan 2020 05:18:33.000,215.930,-76.827,25263.912647
3 Jan 2020 05:19:03.000,217.470,-76.661,25406.932127
3 Jan 2020 05:19:33.000,218.962,-76.503,25553.528899
3 Jan 2020 05:20:03.000,220.409,-76.351,25703.486776
3 Jan 2020 05:20:33.000,221.814,-76.207,25856.589783
3 Jan 2020 05:21:03.000,223.181,-76.071,26012.622583
3 Jan 2020 05:21:21.306,223.998,-75.992,26109.183908
3 Jan 2020 09:34:27.828,310.812,-75.987,26106.105570
3 Jan 2020 09:34:57.000,311.980,-76.124,25941.589443
3 Jan 2020 09:35:27.000,313.216,-76.274,25775.029709
3 Jan 2020 09:35:57.000,314.488,-76.434,25611.354223
3 Jan 2020 09:36:27.000,315.800,-76.604,25450.787533
3 Jan 2020 09:36:57.000,317.157,-76.783,25293.555376
3 Jan 2020 09:37:27.000,318.563,-76.970,25139.884252
3 Jan 2020 09:37:57.000,320.020,-77.165,24990.000967
3 Jan 2020 09:38:27.000,321.535,-77.368,24844.132137
3 Jan 2020 09:38:57.000,323.113,-77.578,24702.503453
3 Jan 2020 09:39:27.000,324.757,-77.794,24565.339961
3 Jan 2020 09:39:57.000,326.475,-78.016,24432.864189
3 Jan 2020 09:40:27.000,328.271,-78.242,24305.296377
3 Jan 2020 09:40:57.000,330.152,-78.472,24182.853605
3 Jan 2020 09:41:27.000,332.124,-78.704,24065.749107
3 Jan 2020 09:41:57.000,334.195,-78.937,23954.191404
