STKdata/stk_70fov_6leo/Satellite-MEO_Satellite10105-To-Satellite-LEO_Satellite20000 AER.csv

"Time (UTCG)","Azimuth (deg)","Elevation (deg)","Range (km)"
1 Jan 2020 04:12:57.680,334.402,-75.985,26104.363351
1 Jan 2020 04:13:27.000,336.051,-76.080,25988.629513
1 Jan 2020 04:13:57.000,337.773,-76.180,25873.510378
1 Jan 2020 04:14:27.000,339.534,-76.283,25761.906735
1 Jan 2020 04:14:57.000,341.335,-76.388,25653.998598
1 Jan 2020 04:15:27.000,343.176,-76.494,25549.963904
1 Jan 2020 04:15:57.000,345.060,-76.601,25449.978054
1 Jan 2020 04:16:27.000,346.986,-76.708,25354.213443
1 Jan 2020 04:16:57.000,348.957,-76.815,25262.838873
1 Jan 2020 04:17:27.000,350.972,-76.920,25176.019494
1 Jan 2020 04:17:57.000,353.032,-77.024,25093.915637
1 Jan 2020 04:18:27.000,355.138,-77.125,25016.682761
1 Jan 2020 04:18:57.000,357.288,-77.223,24944.470828
1 Jan 2020 04:19:27.000,359.482,-77.316,24877.423802
1 Jan 2020 04:19:57.000,1.718,-77.405,24815.679080
1 Jan 2020 04:20:27.000,3.996,-77.487,24759.367255
1 Jan 2020 04:20:57.000,6.312,-77.564,24708.611245
1 Jan 2020 04:21:27.000,8.665,-77.633,24663.526098
1 Jan 2020 04:21:57.000,11.051,-77.695,24624.218474
1 Jan 2020 04:22:27.000,13.466,-77.748,24590.786230
1 Jan 2020 04:22:57.000,15.907,-77.792,24563.318022
1 Jan 2020 04:23:27.000,18.368,-77.827,24541.892969
1 Jan 2020 04:23:57.000,20.846,-77.852,24526.580272
1 Jan 2020 04:24:27.000,23.334,-77.867,24517.438974
1 Jan 2020 04:24:57.000,25.827,-77.872,24514.517694
1 Jan 2020 04:25:27.000,28.319,-77.867,24517.854475
1 Jan 2020 04:25:57.000,30.806,-77.851,24527.476444
1 Jan 2020 04:26:27.000,33.280,-77.824,24543.399949
1 Jan 2020 04:26:57.000,35.737,-77.788,24565.630339
1 Jan 2020 04:27:27.000,38.172,-77.742,24594.161982
1 Jan 2020 04:27:57.000,40.578,-77.686,24628.978396
1 Jan 2020 04:28:27.000,42.953,-77.622,24670.051946
1 Jan 2020 04:28:57.000,45.291,-77.549,24717.344529
1 Jan 2020 04:29:27.000,47.588,-77.469,24770.807378
1 Jan 2020 04:29:57.000,49.842,-77.382,24830.381369
1 Jan 2020 04:30:27.000,52.050,-77.288,24895.997278
1 Jan 2020 04:30:57.000,54.209,-77.189,24967.576242
1 Jan 2020 04:31:27.000,56.318,-77.086,25045.029404
1 Jan 2020 04:31:57.000,58.376,-76.978,25128.259289
1 Jan 2020 04:32:27.000,60.381,-76.868,25217.159525
1 Jan 2020 04:32:57.000,62.334,-76.755,25311.615417
1 Jan 2020 04:33:27.000,64.233,-76.641,25411.504383
1 Jan 2020 04:33:57.000,66.080,-76.527,25516.696614
1 Jan 2020 04:34:27.000,67.875,-76.413,25627.054702
1 Jan 2020 04:34:57.000,69.618,-76.299,25742.435352
1 Jan 2020 04:35:27.000,71.311,-76.188,25862.689043
1 Jan 2020 04:35:57.000,72.955,-76.078,25987.660710
1 Jan 2020 04:36:24.070,74.397,-75.982,26104.341385
1 Jan 2020 05:53:22.695,286.003,-75.990,26110.499893
1 Jan 2020 05:53:52.000,286.085,-76.161,25906.953528
1 Jan 2020 05:54:22.000,286.161,-76.353,25701.155931
1 Jan 2020 05:54:52.000,286.228,-76.561,25498.216999
1 Jan 2020 05:55:22.000,286.286,-76.785,25298.391255
1 Jan 2020 05:55:52.000,286.336,-77.027,25101.935941
1 Jan 2020 05:56:22.000,286.376,-77.286,24909.110611
1 Jan 2020 05:56:52.000,286.406,-77.561,24720.176688
1 Jan 2020 05:57:22.000,286.426,-77.854,24535.396965
1 Jan 2020 05:57:52.000,286.435,-78.164,24355.034756
1 Jan 2020 05:58:22.000,286.432,-78.491,24179.354541
1 Jan 2020 05:58:52.000,286.417,-78.834,24008.619436
1 Jan 2020 05:59:22.000,286.389,-79.195,23843.091760
1 Jan 2020 05:59:52.000,286.346,-79.572,23683.031962
1 Jan 2020 06:00:22.000,286.286,-79.965,23528.697823
1 Jan 2020 06:00:52.000,286.209,-80.375,23380.343338
1 Jan 2020 06:01:22.000,286.111,-80.800,23238.218923
1 Jan 2020 06:01:52.000,285.990,-81.240,23102.568819
1 Jan 2020 06:02:22.000,285.842,-81.695,22973.631253
1 Jan 2020 06:02:52.000,285.662,-82.164,22851.637164
1 Jan 2020 06:03:22.000,285.444,-82.647,22736.808977
1 Jan 2020 06:03:52.000,285.180,-83.143,22629.360444
1 Jan 2020 06:04:22.000,284.859,-83.651,22529.494309
1 Jan 2020 06:04:52.000,284.465,-84.170,22437.402179
1 Jan 2020 06:05:22.000,283.977,-84.699,22353.263168
1 Jan 2020 06:05:52.000,283.362,-85.238,22277.243488
1 Jan 2020 06:06:22.000,282.570,-85.785,22209.494668
1 Jan 2020 06:06:52.000,281.521,-86.339,22150.153271
1 Jan 2020 06:07:22.000,280.074,-86.899,22099.339856
1 Jan 2020 06:07:52.000,277.966,-87.461,22057.158610
1 Jan 2020 06:08:22.000,274.632,-88.023,22023.696150
1 Jan 2020 06:08:52.000,268.649,-88.576,21999.021367
1 Jan 2020 06:09:22.000,255.413,-89.097,21983.184871
1 Jan 2020 06:09:52.000,217.436,-89.469,21976.218776
1 Jan 2020 06:10:22.000,159.549,-89.344,21978.136299
1 Jan 2020 06:10:52.000,135.970,-88.877,21988.931822
1 Jan 2020 06:11:22.000,126.897,-88.337,22008.580929
1 Jan 2020 06:11:52.000,122.326,-87.778,22037.040402
1 Jan 2020 06:12:22.000,119.597,-87.216,22074.248715
1 Jan 2020 06:12:52.000,117.782,-86.655,22120.126294
1 Jan 2020 06:13:22.000,116.484,-86.098,22174.576149
1 Jan 2020 06:13:52.000,115.504,-85.547,22237.484066
1 Jan 2020 06:14:22.000,114.733,-85.004,22308.719890
1 Jan 2020 06:14:52.000,114.106,-84.470,22388.137913
1 Jan 2020 06:15:22.000,113.582,-83.945,22475.577972
1 Jan 2020 06:15:52.000,113.135,-83.431,22570.865738
1 Jan 2020 06:16:22.000,112.744,-82.929,22673.814562
1 Jan 2020 06:16:52.000,112.397,-82.439,22784.225877
1 Jan 2020 06:17:22.000,112.084,-81.963,22901.890355
1 Jan 2020 06:17:52.000,111.798,-81.500,23026.589169
1 Jan 2020 06:18:22.000,111.532,-81.052,23158.094063
1 Jan 2020 06:18:52.000,111.284,-80.619,23296.169788
1 Jan 2020 06:19:22.000,111.049,-80.201,23440.574172
1 Jan 2020 06:19:52.000,110.824,-79.799,23591.059327
1 Jan 2020 06:20:22.000,110.608,-79.414,23747.372593
1 Jan 2020 06:20:52.000,110.398,-79.044,23909.257760
1 Jan 2020 06:21:22.000,110.193,-78.691,24076.454715
1 Jan 2020 06:21:52.000,109.992,-78.355,24248.702074
1 Jan 2020 06:22:22.000,109.793,-78.036,24425.736756
1 Jan 2020 06:22:52.000,109.596,-77.734,24607.295008
1 Jan 2020 06:23:22.000,109.400,-77.449,24793.113074
1 Jan 2020 06:23:52.000,109.203,-77.180,24982.927810
1 Jan 2020 06:24:22.000,109.006,-76.929,25176.477260
1 Jan 2020 06:24:52.000,108.808,-76.695,25373.501496
1 Jan 2020 06:25:22.000,108.608,-76.477,25573.741770
1 Jan 2020 06:25:52.000,108.406,-76.276,25776.942907
1 Jan 2020 06:26:22.000,108.201,-76.091,25982.852367
1 Jan 2020 06:26:40.491,108.073,-75.985,26111.010527
1 Jan 2020 07:44:22.584,250.944,-75.993,26117.734113
1 Jan 2020 07:44:52.000,249.280,-76.086,26004.591963
1 Jan 2020 07:45:22.000,247.538,-76.182,25893.887720
1 Jan 2020 07:45:52.000,245.752,-76.279,25788.050840
1 Jan 2020 07:46:22.000,243.919,-76.376,25687.215194
1 Jan 2020 07:46:52.000,242.041,-76.473,25591.508237
1 Jan 2020 07:47:22.000,240.117,-76.568,25501.050578
1 Jan 2020 07:47:52.000,238.148,-76.661,25415.955377
1 Jan 2020 07:48:22.000,236.135,-76.752,25336.328684
1 Jan 2020 07:48:52.000,234.077,-76.839,25262.267931
1 Jan 2020 07:49:22.000,231.978,-76.923,25193.862318
1 Jan 2020 07:49:52.000,229.838,-77.001,25131.192287
1 Jan 2020 07:50:22.000,227.659,-77.074,25074.329203
1 Jan 2020 07:50:52.000,225.445,-77.141,25023.334941
1 Jan 2020 07:51:22.000,223.198,-77.202,24978.262160
1 Jan 2020 07:51:52.000,220.921,-77.256,24939.153283
1 Jan 2020 07:52:22.000,218.618,-77.302,24906.040865
1 Jan 2020 07:52:52.000,216.292,-77.340,24878.947312
1 Jan 2020 07:53:22.000,213.949,-77.370,24857.884723
1 Jan 2020 07:53:52.000,211.591,-77.391,24842.855097
1 Jan 2020 07:54:22.000,209.224,-77.404,24833.849911
1 Jan 2020 07:54:52.000,206.852,-77.409,24830.850431
1 Jan 2020 07:55:22.000,204.480,-77.404,24833.827717
1 Jan 2020 07:55:52.000,202.112,-77.391,24842.742720
1 Jan 2020 07:56:22.000,199.753,-77.370,24857.546521
1 Jan 2020 07:56:52.000,197.407,-77.340,24878.180395
1 Jan 2020 07:57:22.000,195.077,-77.303,24904.576150
1 Jan 2020 07:57:52.000,192.768,-77.258,24936.656366
1 Jan 2020 07:58:22.000,190.483,-77.206,24974.334709
1 Jan 2020 07:58:52.000,188.225,-77.147,25017.516307
1 Jan 2020 07:59:22.000,185.997,-77.083,25066.097957
1 Jan 2020 07:59:52.000,183.800,-77.013,25119.968738
1 Jan 2020 08:00:22.000,181.637,-76.939,25179.010283
1 Jan 2020 08:00:52.000,179.510,-76.860,25243.097240
1 Jan 2020 08:01:22.000,177.419,-76.777,25312.097716
1 Jan 2020 08:01:52.000,175.365,-76.692,25385.873732
1 Jan 2020 08:02:22.000,173.350,-76.605,25464.281788
1 Jan 2020 08:02:52.000,171.372,-76.516,25547.172919
1 Jan 2020 08:03:22.000,169.432,-76.426,25634.393768
1 Jan 2020 08:03:52.000,167.530,-76.335,25725.786658
1 Jan 2020 08:04:22.000,165.665,-76.244,25821.190151
1 Jan 2020 08:04:52.000,163.836,-76.155,25920.439502
1 Jan 2020 08:05:22.000,162.043,-76.066,26023.367109
1 Jan 2020 08:05:48.570,160.484,-75.989,26117.461651
1 Jan 2020 10:52:54.666,335.772,-75.997,26121.885678
1 Jan 2020 10:53:24.000,333.790,-76.011,26104.231359
1 Jan 2020 10:53:54.000,331.758,-76.022,26090.870843
1 Jan 2020 10:54:24.000,329.721,-76.029,26082.313663
1 Jan 2020 10:54:54.000,327.682,-76.032,26078.608668
1 Jan 2020 10:55:24.000,325.643,-76.031,26079.797142
1 Jan 2020 10:55:54.000,323.605,-76.027,26085.912661
1 Jan 2020 10:56:24.000,321.572,-76.018,26096.981036
1 Jan 2020 10:56:54.000,319.545,-76.005,26113.019983
1 Jan 2020 10:57:07.569,318.630,-75.998,26121.909897
1 Jan 2020 12:22:08.316,63.167,-75.991,26116.464391
1 Jan 2020 12:22:38.000,62.504,-76.155,25921.364976
1 Jan 2020 12:23:08.000,61.816,-76.335,25726.644212
1 Jan 2020 12:23:38.000,61.109,-76.529,25534.631750
1 Jan 2020 12:24:08.000,60.381,-76.739,25345.573701
1 Jan 2020 12:24:38.000,59.628,-76.963,25159.718840
1 Jan 2020 12:25:08.000,58.846,-77.202,24977.318221
1 Jan 2020 12:25:38.000,58.032,-77.455,24798.624743
1 Jan 2020 12:26:08.000,57.182,-77.723,24623.892680
1 Jan 2020 12:26:38.000,56.291,-78.004,24453.376891
1 Jan 2020 12:27:08.000,55.354,-78.300,24287.333324
1 Jan 2020 12:27:38.000,54.363,-78.610,24126.016778
1 Jan 2020 12:28:08.000,53.312,-78.932,23969.681330
1 Jan 2020 12:28:38.000,52.192,-79.267,23818.579346
1 Jan 2020 12:29:08.000,50.994,-79.615,23672.960728
1 Jan 2020 12:29:38.000,49.705,-79.973,23533.071887
1 Jan 2020 12:30:08.000,48.313,-80.341,23399.155826
1 Jan 2020 12:30:38.000,46.801,-80.719,23271.449864
1 Jan 2020 12:31:08.000,45.152,-81.105,23150.185673
1 Jan 2020 12:31:38.000,43.342,-81.497,23035.588114
1 Jan 2020 12:32:08.000,41.345,-81.894,22927.874109
1 Jan 2020 12:32:38.000,39.130,-82.293,22827.252391
1 Jan 2020 12:33:08.000,36.661,-82.691,22733.921462
1 Jan 2020 12:33:38.000,33.893,-83.087,22648.069370
1 Jan 2020 12:34:08.000,30.777,-83.476,22569.872479
1 Jan 2020 12:34:38.000,27.256,-83.853,22499.495004
1 Jan 2020 12:35:08.000,23.266,-84.214,22437.087448
1 Jan 2020 12:35:38.000,18.745,-84.553,22382.786256
1 Jan 2020 12:36:08.000,13.636,-84.860,22336.712863
1 Jan 2020 12:36:38.000,7.901,-85.130,22298.973255
1 Jan 2020 12:37:08.000,1.541,-85.351,22269.656950
1 Jan 2020 12:37:38.000,354.615,-85.517,22248.836752
1 Jan 2020 12:38:08.000,347.257,-85.617,22236.568242
1 Jan 2020 12:38:38.000,339.671,-85.648,22232.889457
1 Jan 2020 12:39:08.000,332.102,-85.607,22237.820623
1 Jan 2020 12:39:38.000,324.796,-85.497,22251.364077
1 Jan 2020 12:40:08.000,317.948,-85.323,22273.504315
1 Jan 2020 12:40:38.000,311.684,-85.093,22304.207857
1 Jan 2020 12:41:08.000,306.055,-84.816,22343.423791
1 Jan 2020 12:41:38.000,301.058,-84.501,22391.083895
1 Jan 2020 12:42:08.000,296.651,-84.156,22447.103220
1 Jan 2020 12:42:38.000,292.776,-83.790,22511.380140
1 Jan 2020 12:43:08.000,289.369,-83.407,22583.797640
1 Jan 2020 12:43:38.000,286.370,-83.013,22664.223553
1 Jan 2020 12:44:08.000,283.721,-82.612,22752.511590
1 Jan 2020 12:44:38.000,281.373,-82.208,22848.501488
1 Jan 2020 12:45:08.000,279.283,-81.805,22952.020840
1 Jan 2020 12:45:38.000,277.416,-81.403,23062.885355
1 Jan 2020 12:46:08.000,275.741,-81.007,23180.899939
1 Jan 2020 12:46:38.000,274.231,-80.617,23305.859888
1 Jan 2020 12:47:08.000,272.866,-80.236,23437.550834
1 Jan 2020 12:47:38.000,271.627,-79.864,23575.751178
1 Jan 2020 12:48:08.000,270.499,-79.502,23720.232046
1 Jan 2020 12:48:38.000,269.468,-79.152,23870.758450
1 Jan 2020 12:49:08.000,268.523,-78.814,24027.090186
1 Jan 2020 12:49:38.000,267.655,-78.489,24188.983003
1 Jan 2020 12:50:08.000,266.856,-78.178,24356.188193
1 Jan 2020 12:50:38.000,266.118,-77.881,24528.455235
1 Jan 2020 12:51:08.000,265.436,-77.598,24705.531313
1 Jan 2020 12:51:38.000,264.804,-77.330,24887.162324
1 Jan 2020 12:52:08.000,264.218,-77.077,25073.093539
1 Jan 2020 12:52:38.000,263.673,-76.840,25263.070210
1 Jan 2020 12:53:08.000,263.167,-76.617,25456.838136
1 Jan 2020 12:53:38.000,262.695,-76.410,25654.144523
1 Jan 2020 12:54:08.000,262.255,-76.218,25854.737089
1 Jan 2020 12:54:38.000,261.845,-76.042,26058.366535
1 Jan 2020 12:54:46.420,261.735,-75.995,26116.027271
1 Jan 2020 14:10:07.891,95.119,-75.987,26109.182425
1 Jan 2020 14:10:37.000,96.266,-76.124,25944.232162
1 Jan 2020 14:11:07.000,97.499,-76.275,25778.084219
1 Jan 2020 14:11:37.000,98.785,-76.434,25616.058801
1 Jan 2020 14:12:07.000,100.128,-76.600,25458.367518
1 Jan 2020 14:12:37.000,101.532,-76.774,25305.219703
1 Jan 2020 14:13:07.000,103.000,-76.954,25156.821860
1 Jan 2020 14:13:37.000,104.537,-77.140,25013.376836
1 Jan 2020 14:14:07.000,106.145,-77.330,24875.084232
1 Jan 2020 14:14:37.000,107.830,-77.525,24742.138258
1 Jan 2020 14:15:07.000,109.594,-77.722,24614.728125
1 Jan 2020 14:15:37.000,111.442,-77.921,24493.037137
1 Jan 2020 14:16:07.000,113.379,-78.121,24377.242035
1 Jan 2020 14:16:37.000,115.406,-78.320,24267.512103
1 Jan 2020 14:17:07.000,117.529,-78.518,24164.009453
1 Jan 2020 14:17:37.000,119.749,-78.711,24066.886939
1 Jan 2020 14:18:07.000,122.069,-78.900,23976.288484
1 Jan 2020 14:18:37.000,124.491,-79.082,23892.348207
1 Jan 2020 14:19:07.000,127.014,-79.256,23815.189668
1 Jan 2020 14:19:37.000,129.639,-79.420,23744.925958
1 Jan 2020 14:20:07.000,132.362,-79.573,23681.658155
1 Jan 2020 14:20:37.000,135.179,-79.713,23625.475519
1 Jan 2020 14:21:07.000,138.086,-79.838,23576.454880
1 Jan 2020 14:21:37.000,141.075,-79.948,23534.660137
1 Jan 2020 14:22:07.000,144.136,-80.040,23500.142373
1 Jan 2020 14:22:37.000,147.257,-80.114,23472.938899
1 Jan 2020 14:23:07.000,150.427,-80.168,23453.073525
1 Jan 2020 14:23:37.000,153.632,-80.203,23440.556302
1 Jan 2020 14:24:07.000,156.855,-80.218,23435.383421
1 Jan 2020 14:24:37.000,160.082,-80.212,23437.537388
1 Jan 2020 14:25:07.000,163.297,-80.186,23446.986833
1 Jan 2020 14:25:37.000,166.485,-80.140,23463.686852
1 Jan 2020 14:26:07.000,169.631,-80.075,23487.579175
1 Jan 2020 14:26:37.000,172.725,-79.991,23518.592485
1 Jan 2020 14:27:07.000,175.753,-79.891,23556.642651
1 Jan 2020 14:27:37.000,178.707,-79.775,23601.633286
1 Jan 2020 14:28:07.000,181.580,-79.644,23653.456122
1 Jan 2020 14:28:37.000,184.366,-79.501,23711.991539
1 Jan 2020 14:29:07.000,187.060,-79.346,23777.109208
1 Jan 2020 14:29:37.000,189.662,-79.182,23848.668337
1 Jan 2020 14:30:07.000,192.170,-79.010,23926.518794
1 Jan 2020 14:30:37.000,194.584,-78.830,24010.501432
1 Jan 2020 14:31:07.000,196.907,-78.646,24100.448831
1 Jan 2020 14:31:37.000,199.140,-78.458,24196.185978
1 Jan 2020 14:32:07.000,201.287,-78.268,24297.531115
1 Jan 2020 14:32:37.000,203.350,-78.077,24404.295783
1 Jan 2020 14:33:07.000,205.335,-77.886,24516.286446
1 Jan 2020 14:33:37.000,207.243,-77.696,24633.304550
1 Jan 2020 14:34:07.000,209.081,-77.509,24755.147330
1 Jan 2020 14:34:37.000,210.851,-77.325,24881.608457
1 Jan 2020 14:35:07.000,212.558,-77.145,25012.478653
1 Jan 2020 14:35:37.000,214.206,-76.969,25147.546502
1 Jan 2020 14:36:07.000,215.799,-76.800,25286.598201
1 Jan 2020 14:36:37.000,217.340,-76.636,25429.419325
1 Jan 2020 14:37:07.000,218.833,-76.479,25575.794534
1 Jan 2020 14:37:37.000,220.282,-76.329,25725.508264
1 Jan 2020 14:38:07.000,221.689,-76.187,25878.345179
1 Jan 2020 14:38:37.000,223.059,-76.053,26034.090600
1 Jan 2020 14:38:51.265,223.697,-75.992,26109.103801
1 Jan 2020 18:51:58.408,310.548,-75.987,26106.238988
1 Jan 2020 18:52:28.000,311.726,-76.127,25938.797213
1 Jan 2020 18:52:58.000,312.953,-76.278,25771.689285
1 Jan 2020 18:53:28.000,314.218,-76.439,25607.463279
1 Jan 2020 18:53:58.000,315.523,-76.609,25446.344237
1 Jan 2020 18:54:28.000,316.872,-76.789,25288.558417
1 Jan 2020 18:54:58.000,318.269,-76.977,25134.332865
1 Jan 2020 18:55:28.000,319.719,-77.174,24983.894967
1 Jan 2020 18:55:58.000,321.226,-77.378,24837.471942
1 Jan 2020 18:56:28.000,322.795,-77.590,24695.290113
1 Jan 2020 18:56:58.000,324.432,-77.808,24557.575192
1 Jan 2020 18:57:28.000,326.142,-78.031,24424.550390
1 Jan 2020 18:57:58.000,327.931,-78.259,24296.436659
1 Jan 2020 18:58:28.000,329.805,-78.491,24173.451812
1 Jan 2020 18:58:58.000,331.771,-78.725,24055.809839
1 Jan 2020 18:59:28.000,333.835,-78.960,23943.720034
1 Jan 2020 18:59:58.000,336.004,-79.195,23837.386918
1 Jan 2020 19:00:28.000,338.285,-79.428,23737.008498
1 Jan 2020 19:00:58.000,340.684,-79.658,23642.776183
1 Jan 2020 19:01:28.000,343.207,-79.882,23554.873854
1 Jan 2020 19:01:58.000,345.858,-80.099,23473.476994
1 Jan 2020 19:02:28.000,348.641,-80.306,23398.752370
1 Jan 2020 19:02:58.000,351.558,-80.503,23330.856630
1 Jan 2020 19:03:28.000,354.608,-80.685,23269.936040
1 Jan 2020 19:03:58.000,357.790,-80.852,23216.125682
1 Jan 2020 19:04:28.000,1.096,-81.000,23169.548752
1 Jan 2020 19:04:58.000,4.517,-81.129,23130.316171
1 Jan 2020 19:05:28.000,8.041,-81.235,23098.525685
1 Jan 2020 19:05:58.000,11.650,-81.318,23074.261610
1 Jan 2020 19:06:28.000,15.323,-81.375,23057.594338
1 Jan 2020 19:06:58.000,19.039,-81.407,23048.579967
1 Jan 2020 19:07:28.000,22.772,-81.411,23047.260001
1 Jan 2020 19:07:58.000,26.496,-81.389,23053.661153
1 Jan 2020 19:08:28.000,30.185,-81.340,23067.795260
1 Jan 2020 19:08:58.000,33.815,-81.265,23089.659022
1 Jan 2020 19:09:28.000,37.364,-81.165,23119.234324
1 Jan 2020 19:09:58.000,40.814,-81.042,23156.488167
1 Jan 2020 19:10:28.000,44.148,-80.897,23201.373002
1 Jan 2020 19:10:58.000,47.354,-80.733,23253.826601
1 Jan 2020 19:11:28.000,50.426,-80.552,23313.772979
1 Jan 2020 19:11:58.000,53.357,-80.355,23381.122431
1 Jan 2020 19:12:28.000,56.147,-80.146,23455.772094
1 Jan 2020 19:12:58.000,58.794,-79.925,23537.606671
1 Jan 2020 19:13:28.000,61.304,-79.696,23626.498262
1 Jan 2020 19:13:58.000,63.678,-79.461,23722.308096
1 Jan 2020 19:14:28.000,65.923,-79.221,23824.886468
1 Jan 2020 19:14:58.000,68.043,-78.979,23934.073611
1 Jan 2020 19:15:28.000,70.047,-78.735,24049.700633
1 Jan 2020 19:15:58.000,71.940,-78.492,24171.589352
1 Jan 2020 19:16:28.000,73.728,-78.251,24299.554362
1 Jan 2020 19:16:58.000,75.419,-78.013,24433.402892
1 Jan 2020 19:17:28.000,77.018,-77.780,24572.935762
1 Jan 2020 19:17:58.000,78.532,-77.552,24717.948103
1 Jan 2020 19:18:28.000,79.966,-77.331,24868.230351
1 Jan 2020 19:18:58.000,81.326,-77.118,25023.567818
1 Jan 2020 19:19:28.000,82.616,-76.912,25183.743025
1 Jan 2020 19:19:58.000,83.842,-76.716,25348.535244
1 Jan 2020 19:20:28.000,85.008,-76.529,25517.721382
1 Jan 2020 19:20:58.000,86.117,-76.352,25691.076566
1 Jan 2020 19:21:28.000,87.175,-76.185,25868.374692
1 Jan 2020 19:21:58.000,88.183,-76.030,26049.388942
1 Jan 2020 19:22:07.349,88.488,-75.983,26106.522651
1 Jan 2020 20:37:10.805,275.069,-75.991,26113.192854
1 Jan 2020 20:37:40.000,274.481,-76.154,25919.323078
1 Jan 2020 20:38:10.000,273.842,-76.335,25723.227581
1 Jan 2020 20:38:40.000,273.162,-76.530,25530.537956
1 Jan 2020 20:39:10.000,272.440,-76.740,25341.499714
1 Jan 2020 20:39:40.000,271.672,-76.963,25156.359290
1 Jan 2020 20:40:10.000,270.852,-77.199,24975.363554
1 Jan 2020 20:40:40.000,269.977,-77.449,24798.759282
1 Jan 2020 20:41:10.000,269.042,-77.712,24626.792287
1 Jan 2020 20:41:40.000,268.040,-77.987,24459.707998
1 Jan 2020 20:42:10.000,266.964,-78.274,24297.748998
1 Jan 2020 20:42:40.000,265.808,-78.572,24141.155537
1 Jan 2020 20:43:10.000,264.562,-78.880,23990.164489
1 Jan 2020 20:43:40.000,263.218,-79.198,23845.008583
1 Jan 2020 20:44:10.000,261.763,-79.524,23705.915320
1 Jan 2020 20:44:40.000,260.186,-79.857,23573.107251
1 Jan 2020 20:45:10.000,258.472,-80.195,23446.799441
1 Jan 2020 20:45:40.000,256.606,-80.538,23327.199726
1 Jan 2020 20:46:10.000,254.569,-80.883,23214.507546
1 Jan 2020 20:46:40.000,252.343,-81.228,23108.912848
1 Jan 2020 20:47:10.000,249.906,-81.571,23010.596060
1 Jan 2020 20:47:40.000,247.234,-81.908,22919.725924
1 Jan 2020 20:48:10.000,244.303,-82.237,22836.459535
1 Jan 2020 20:48:40.000,241.089,-82.553,22760.941168
1 Jan 2020 20:49:10.000,237.568,-82.854,22693.302071
1 Jan 2020 20:49:40.000,233.722,-83.135,22633.658893
1 Jan 2020 20:50:10.000,229.540,-83.390,22582.113611
1 Jan 2020 20:50:40.000,225.019,-83.615,22538.752707
1 Jan 2020 20:51:10.000,220.175,-83.805,22503.647031
1 Jan 2020 20:51:40.000,215.042,-83.955,22476.850803
1 Jan 2020 20:52:10.000,209.675,-84.061,22458.401681
1 Jan 2020 20:52:40.000,204.149,-84.120,22448.320391
1 Jan 2020 20:53:10.000,198.554,-84.130,22446.610730
1 Jan 2020 20:53:40.000,192.989,-84.090,22453.259306
1 Jan 2020 20:54:10.000,187.546,-84.003,22468.235771
1 Jan 2020 20:54:40.000,182.307,-83.871,22491.492982
1 Jan 2020 20:55:10.000,177.333,-83.698,22522.967163
1 Jan 2020 20:55:40.000,172.666,-83.489,22562.578409
1 Jan 2020 20:56:10.000,168.326,-83.247,22610.231063
1 Jan 2020 20:56:40.000,164.317,-82.980,22665.814359
1 Jan 2020 20:57:10.000,160.631,-82.690,22729.202722
1 Jan 2020 20:57:40.000,157.249,-82.384,22800.256904
1 Jan 2020 20:58:10.000,154.151,-82.064,22878.824445
1 Jan 2020 20:58:40.000,151.311,-81.736,22964.740535
1 Jan 2020 20:59:10.000,148.706,-81.401,23057.829016
1 Jan 2020 20:59:40.000,146.312,-81.062,23157.902593
1 Jan 2020 21:00:10.000,144.106,-80.724,23264.764687
1 Jan 2020 21:00:40.000,142.068,-80.386,23378.209705
1 Jan 2020 21:01:10.000,140.180,-80.052,23498.024097
1 Jan 2020 21:01:40.000,138.425,-79.723,23623.987457
1 Jan 2020 21:02:10.000,136.789,-79.401,23755.872615
1 Jan 2020 21:02:40.000,135.258,-79.086,23893.447679
1 Jan 2020 21:03:10.000,133.820,-78.780,24036.476106
1 Jan 2020 21:03:40.000,132.466,-78.483,24184.717704
1 Jan 2020 21:04:10.000,131.187,-78.197,24337.929412
1 Jan 2020 21:04:40.000,129.974,-77.922,24495.866041
1 Jan 2020 21:05:10.000,128.821,-77.658,24658.281255
1 Jan 2020 21:05:40.000,127.720,-77.407,24824.927114
1 Jan 2020 21:06:10.000,126.668,-77.168,24995.556351
1 Jan 2020 21:06:40.000,125.657,-76.942,25169.921846
1 Jan 2020 21:07:10.000,124.685,-76.728,25347.777421
1 Jan 2020 21:07:40.000,123.746,-76.528,25528.878332
1 Jan 2020 21:08:10.000,122.838,-76.341,25712.981699
1 Jan 2020 21:08:40.000,121.957,-76.167,25899.846917
1 Jan 2020 21:09:10.000,121.099,-76.006,26089.236006
1 Jan 2020 21:09:13.826,120.992,-75.987,26113.560874
2 Jan 2020 01:23:53.759,29.152,-75.994,26120.230455
2 Jan 2020 01:24:23.000,27.557,-76.095,25997.679402
2 Jan 2020 01:24:53.000,25.885,-76.203,25875.130736
2 Jan 2020 01:25:23.000,24.173,-76.314,25755.995071
2 Jan 2020 01:25:53.000,22.420,-76.427,25640.459684
2 Jan 2020 01:26:23.000,20.624,-76.543,25528.710270
2 Jan 2020 01:26:53.000,18.784,-76.661,25420.930491
2 Jan 2020 01:27:23.000,16.898,-76.780,25317.301489
2 Jan 2020 01:27:53.000,14.964,-76.899,25218.001404
2 Jan 2020 01:28:23.000,12.982,-77.018,25123.204732
2 Jan 2020 01:28:53.000,10.950,-77.135,25033.082339
2 Jan 2020 01:29:23.000,8.868,-77.251,24947.800122
2 Jan 2020 01:29:53.000,6.735,-77.364,24867.519028
2 Jan 2020 01:30:23.000,4.552,-77.474,24792.394377
2 Jan 2020 01:30:53.000,2.319,-77.579,24722.575326
2 Jan 2020 01:31:23.000,0.038,-77.678,24658.204270
2 Jan 2020 01:31:53.000,357.709,-77.772,24599.416597
2 Jan 2020 01:32:23.000,355.336,-77.859,24546.339752
2 Jan 2020 01:32:53.000,352.920,-77.937,24499.093033
2 Jan 2020 01:33:23.000,350.466,-78.008,24457.787045
2 Jan 2020 01:33:53.000,347.976,-78.069,24422.523255
2 Jan 2020 01:34:23.000,345.457,-78.120,24393.393563
2 Jan 2020 01:34:53.000,342.913,-78.161,24370.479960
2 Jan 2020 01:35:23.000,340.349,-78.190,24353.854102
2 Jan 2020 01:35:53.000,337.772,-78.209,24343.577066
2 Jan 2020 01:36:23.000,335.188,-78.216,24339.699065
2 Jan 2020 01:36:53.000,332.604,-78.212,24342.259282
2 Jan 2020 01:37:23.000,330.026,-78.195,24351.285523
2 Jan 2020 01:37:53.000,327.461,-78.168,24366.794346
2 Jan 2020 01:38:23.000,324.915,-78.129,24388.790837
2 Jan 2020 01:38:53.000,322.394,-78.079,24417.268631
2 Jan 2020 01:39:23.000,319.904,-78.018,24452.210049
2 Jan 2020 01:39:53.000,317.451,-77.948,24493.585797
2 Jan 2020 01:40:23.000,315.039,-77.868,24541.355667
2 Jan 2020 01:40:53.000,312.673,-77.779,24595.468360
2 Jan 2020 01:41:23.000,310.355,-77.683,24655.861801
2 Jan 2020 01:41:53.000,308.090,-77.580,24722.463565
2 Jan 2020 01:42:23.000,305.879,-77.471,24795.190622
2 Jan 2020 01:42:53.000,303.724,-77.357,24873.950527
2 Jan 2020 01:43:23.000,301.626,-77.238,24958.641259
2 Jan 2020 01:43:53.000,299.586,-77.116,25049.151772
2 Jan 2020 01:44:23.000,297.605,-76.991,25145.362437
2 Jan 2020 01:44:53.000,295.682,-76.865,25247.145719
2 Jan 2020 01:45:23.000,293.817,-76.739,25354.365805
2 Jan 2020 01:45:53.000,292.009,-76.612,25466.880363
2 Jan 2020 01:46:23.000,290.257,-76.487,25584.540213
2 Jan 2020 01:46:53.000,288.559,-76.363,25707.190035
2 Jan 2020 01:47:23.000,286.914,-76.242,25834.668883
2 Jan 2020 01:47:53.000,285.321,-76.124,25966.810694
2 Jan 2020 01:48:23.000,283.778,-76.010,26103.445047
2 Jan 2020 01:48:26.605,283.596,-75.997,26120.159032
2 Jan 2020 03:05:03.134,75.282,-75.989,26113.959639
2 Jan 2020 03:05:33.000,75.276,-76.164,25906.395955
2 Jan 2020 03:06:03.000,75.282,-76.356,25700.549444
2 Jan 2020 03:06:33.000,75.301,-76.565,25497.609711
2 Jan 2020 03:07:03.000,75.333,-76.790,25297.831462
2 Jan 2020 03:07:33.000,75.378,-77.032,25101.472025
2 Jan 2020 03:08:03.000,75.439,-77.291,24908.790950
2 Jan 2020 03:08:33.000,75.515,-77.567,24720.049547
2 Jan 2020 03:09:03.000,75.608,-77.860,24535.510390
2 Jan 2020 03:09:33.000,75.719,-78.170,24355.436441
2 Jan 2020 03:10:03.000,75.851,-78.497,24180.091721
2 Jan 2020 03:10:33.000,76.004,-78.841,24009.738735
2 Jan 2020 03:11:03.000,76.182,-79.201,23844.639051
2 Jan 2020 03:11:33.000,76.388,-79.577,23685.052217
2 Jan 2020 03:12:03.000,76.625,-79.970,23531.234956
2 Jan 2020 03:12:33.000,76.897,-80.378,23383.440040
2 Jan 2020 03:13:03.000,77.210,-80.801,23241.916500
2 Jan 2020 03:13:33.000,77.570,-81.240,23106.907017
2 Jan 2020 03:14:03.000,77.985,-81.692,22978.648079
2 Jan 2020 03:14:33.000,78.467,-82.159,22857.368713
2 Jan 2020 03:15:03.000,79.029,-82.638,22743.289254
2 Jan 2020 03:15:33.000,79.688,-83.129,22636.621193
2 Jan 2020 03:16:03.000,80.470,-83.631,22537.564839
2 Jan 2020 03:16:33.000,81.408,-84.143,22446.309195
2 Jan 2020 03:17:03.000,82.548,-84.664,22363.030614
2 Jan 2020 03:17:33.000,83.960,-85.191,22287.892402
2 Jan 2020 03:18:03.000,85.746,-85.724,22221.043034
2 Jan 2020 03:18:33.000,88.067,-86.259,22162.615899
2 Jan 2020 03:19:03.000,91.191,-86.793,22112.728266
2 Jan 2020 03:19:33.000,95.583,-87.319,22071.480943
2 Jan 2020 03:20:03.000,102.104,-87.826,22038.957082
2 Jan 2020 03:20:33.000,112.412,-88.292,22015.222058
2 Jan 2020 03:21:03.000,129.421,-88.667,22000.322920
2 Jan 2020 03:21:33.000,155.310,-88.855,21994.288204
2 Jan 2020 03:22:03.000,183.394,-88.764,21997.127553
2 Jan 2020 03:22:33.000,203.652,-88.444,22008.831797
2 Jan 2020 03:23:03.000,216.016,-88.003,22029.373009
2 Jan 2020 03:23:33.000,223.688,-87.508,22058.704529
2 Jan 2020 03:24:03.000,228.758,-86.988,22096.761467
2 Jan 2020 03:24:33.000,232.316,-86.457,22143.460989
2 Jan 2020 03:25:03.000,234.940,-85.922,22198.702959
2 Jan 2020 03:25:33.000,236.955,-85.389,22262.370154
2 Jan 2020 03:26:03.000,238.553,-84.860,22334.329552
2 Jan 2020 03:26:33.000,239.856,-84.338,22414.432736
2 Jan 2020 03:27:03.000,240.942,-83.824,22502.516997
2 Jan 2020 03:27:33.000,241.864,-83.319,22598.405642
2 Jan 2020 03:28:03.000,242.662,-82.825,22701.909828
2 Jan 2020 03:28:33.000,243.362,-82.343,22812.828982
2 Jan 2020 03:29:03.000,243.985,-81.874,22930.951951
2 Jan 2020 03:29:33.000,244.545,-81.418,23056.058267
2 Jan 2020 03:30:03.000,245.054,-80.975,23187.918220
2 Jan 2020 03:30:33.000,245.522,-80.548,23326.295283
2 Jan 2020 03:31:03.000,245.956,-80.135,23470.946179
2 Jan 2020 03:31:33.000,246.361,-79.738,23621.622087
2 Jan 2020 03:32:03.000,246.743,-79.357,23778.069581
2 Jan 2020 03:32:33.000,247.105,-78.992,23940.031829
2 Jan 2020 03:33:03.000,247.451,-78.644,24107.248266
2 Jan 2020 03:33:33.000,247.783,-78.312,24279.457178
2 Jan 2020 03:34:03.000,248.104,-77.997,24456.395298
2 Jan 2020 03:34:33.000,248.415,-77.698,24637.798807
2 Jan 2020 03:35:03.000,248.719,-77.417,24823.403998
2 Jan 2020 03:35:33.000,249.017,-77.152,25012.947891
2 Jan 2020 03:36:03.000,249.310,-76.904,25206.168789
2 Jan 2020 03:36:33.000,249.599,-76.673,25402.807113
2 Jan 2020 03:37:03.000,249.886,-76.458,25602.604567
2 Jan 2020 03:37:33.000,250.171,-76.260,25805.306487
2 Jan 2020 03:38:03.000,250.455,-76.078,26010.660924
2 Jan 2020 03:38:17.876,250.596,-75.994,26113.393104
2 Jan 2020 04:56:35.168,111.599,-75.986,26106.797737
2 Jan 2020 04:57:05.000,113.346,-76.072,26001.949277
2 Jan 2020 04:57:35.000,115.145,-76.159,25901.320812
2 Jan 2020 04:58:05.000,116.985,-76.246,25805.640495
2 Jan 2020 04:58:35.000,118.867,-76.332,25715.026848
2 Jan 2020 04:59:05.000,120.791,-76.417,25629.591473
2 Jan 2020 04:59:35.000,122.755,-76.500,25549.438671
2 Jan 2020 05:00:05.000,124.760,-76.579,25474.664906
2 Jan 2020 05:00:35.000,126.802,-76.656,25405.359131
2 Jan 2020 05:01:05.000,128.882,-76.729,25341.601430
2 Jan 2020 05:01:35.000,130.998,-76.797,25283.463409
2 Jan 2020 05:02:05.000,133.146,-76.860,25231.007743
2 Jan 2020 05:02:35.000,135.325,-76.917,25184.287932
2 Jan 2020 05:03:05.000,137.532,-76.968,25143.347974
2 Jan 2020 05:03:35.000,139.764,-77.013,25108.222639
2 Jan 2020 05:04:05.000,142.017,-77.051,25078.936631
2 Jan 2020 05:04:35.000,144.288,-77.081,25055.504958
2 Jan 2020 05:05:05.000,146.574,-77.105,25037.932745
2 Jan 2020 05:05:35.000,148.869,-77.120,25026.215208
2 Jan 2020 05:06:05.000,151.172,-77.128,25020.337623
2 Jan 2020 05:06:35.000,153.476,-77.128,25020.275581
2 Jan 2020 05:07:05.000,155.779,-77.121,25025.994767
2 Jan 2020 05:07:35.000,158.077,-77.106,25037.451317
2 Jan 2020 05:08:05.000,160.365,-77.083,25054.591933
2 Jan 2020 05:08:35.000,162.640,-77.054,25077.354094
2 Jan 2020 05:09:05.000,164.900,-77.017,25105.666313
2 Jan 2020 05:09:35.000,167.140,-76.975,25139.448368
2 Jan 2020 05:10:05.000,169.357,-76.926,25178.611662
2 Jan 2020 05:10:35.000,171.550,-76.871,25223.059536
2 Jan 2020 05:11:05.000,173.716,-76.812,25272.687625
2 Jan 2020 05:11:35.000,175.852,-76.747,25327.384243
2 Jan 2020 05:12:05.000,177.958,-76.679,25387.030842
2 Jan 2020 05:12:35.000,180.033,-76.608,25451.502184
2 Jan 2020 05:13:05.000,182.074,-76.533,25520.667120
2 Jan 2020 05:13:35.000,184.082,-76.456,25594.388796
2 Jan 2020 05:14:05.000,186.055,-76.377,25672.525150
2 Jan 2020 05:14:35.000,187.995,-76.298,25754.929355
2 Jan 2020 05:15:05.000,189.901,-76.217,25841.450265
2 Jan 2020 05:15:35.000,191.772,-76.136,25931.932855
2 Jan 2020 05:16:05.000,193.611,-76.056,26026.218789
2 Jan 2020 05:16:29.853,195.109,-75.990,26107.093990
2 Jan 2020 08:01:14.375,10.732,-75.983,26103.025150
2 Jan 2020 08:01:44.000,12.694,-76.020,26057.114370
2 Jan 2020 08:02:14.000,14.698,-76.054,26015.024243
2 Jan 2020 08:02:44.000,16.718,-76.086,25977.460851
2 Jan 2020 08:03:14.000,18.752,-76.114,25944.516249
2 Jan 2020 08:03:44.000,20.799,-76.139,25916.275991
2 Jan 2020 08:04:14.000,22.856,-76.159,25892.818844
2 Jan 2020 08:04:44.000,24.923,-76.176,25874.216533
2 Jan 2020 08:05:14.000,26.997,-76.188,25860.533449
2 Jan 2020 08:05:44.000,29.076,-76.196,25851.826483
2 Jan 2020 08:06:14.000,31.157,-76.199,25848.144792
2 Jan 2020 08:06:44.000,33.238,-76.198,25849.529632
2 Jan 2020 08:07:14.000,35.317,-76.192,25856.014210
2 Jan 2020 08:07:44.000,37.391,-76.182,25867.623625
2 Jan 2020 08:08:14.000,39.459,-76.166,25884.374545
2 Jan 2020 08:08:44.000,41.517,-76.147,25906.275482
2 Jan 2020 08:09:14.000,43.563,-76.123,25933.326545
2 Jan 2020 08:09:44.000,45.596,-76.095,25965.519494
2 Jan 2020 08:10:14.000,47.614,-76.064,26002.837768
2 Jan 2020 08:10:44.000,49.613,-76.028,26045.256649
2 Jan 2020 08:11:14.000,51.593,-75.990,26092.742943
2 Jan 2020 08:11:20.091,51.992,-75.982,26102.998820
2 Jan 2020 09:33:38.589,295.229,-75.989,26108.491523
2 Jan 2020 09:34:08.000,295.811,-76.153,25912.684208
2 Jan 2020 09:34:38.000,296.418,-76.335,25715.394629
2 Jan 2020 09:35:08.000,297.041,-76.533,25520.812306
2 Jan 2020 09:35:38.000,297.682,-76.746,25329.185171
2 Jan 2020 09:36:08.000,298.344,-76.974,25140.763902
2 Jan 2020 09:36:38.000,299.029,-77.217,24955.801536
2 Jan 2020 09:37:08.000,299.742,-77.475,24774.553042
2 Jan 2020 09:37:38.000,300.486,-77.749,24597.274845
2 Jan 2020 09:38:08.000,301.265,-78.037,24424.224039
2 Jan 2020 09:38:38.000,302.084,-78.340,24255.658907
2 Jan 2020 09:39:08.000,302.950,-78.658,24091.836651
2 Jan 2020 09:39:38.000,303.868,-78.990,23933.013834
2 Jan 2020 09:40:08.000,304.847,-79.335,23779.445389
2 Jan 2020 09:40:38.000,305.895,-79.694,23631.383854
2 Jan 2020 09:41:08.000,307.025,-80.065,23489.078332
2 Jan 2020 09:41:38.000,308.247,-80.447,23352.774600
2 Jan 2020 09:42:08.000,309.578,-80.841,23222.712772
2 Jan 2020 09:42:38.000,311.037,-81.243,23099.127360
2 Jan 2020 09:43:08.000,312.644,-81.655,22982.246087
2 Jan 2020 09:43:38.000,314.428,-82.072,22872.288736
2 Jan 2020 09:44:08.000,316.420,-82.495,22769.466920
2 Jan 2020 09:44:38.000,318.662,-82.920,22673.981972
2 Jan 2020 09:45:08.000,321.202,-83.345,22586.024737
2 Jan 2020 09:45:38.000,324.101,-83.766,22505.774308
2 Jan 2020 09:46:08.000,327.431,-84.180,22433.397568
2 Jan 2020 09:46:38.000,331.278,-84.580,22369.047571
2 Jan 2020 09:47:08.000,335.739,-84.961,22312.863195
2 Jan 2020 09:47:38.000,340.921,-85.314,22264.968166
2 Jan 2020 09:48:08.000,346.918,-85.630,22225.470618
2 Jan 2020 09:48:38.000,353.790,-85.898,22194.462025
2 Jan 2020 09:49:08.000,1.518,-86.104,22172.016957
2 Jan 2020 09:49:38.000,9.960,-86.237,22158.192549
2 Jan 2020 09:50:08.000,18.830,-86.287,22153.028185
2 Jan 2020 09:50:38.000,27.739,-86.252,22156.545189
2 Jan 2020 09:51:08.000,36.284,-86.134,22168.746764
2 Jan 2020 09:51:38.000,44.155,-85.940,22189.618017
2 Jan 2020 09:52:08.000,51.180,-85.682,22219.125842
2 Jan 2020 09:52:38.000,57.318,-85.373,22257.219441
2 Jan 2020 09:53:08.000,62.616,-85.024,22303.830456
2 Jan 2020 09:53:38.000,67.166,-84.645,22358.873562
2 Jan 2020 09:54:08.000,71.072,-84.245,22422.246525
2 Jan 2020 09:54:38.000,74.434,-83.830,22493.831489
2 Jan 2020 09:55:08.000,77.340,-83.407,22573.495236
2 Jan 2020 09:55:38.000,79.867,-82.978,22661.090223
2 Jan 2020 09:56:08.000,82.075,-82.549,22756.454756
2 Jan 2020 09:56:38.000,84.018,-82.121,22859.414821
2 Jan 2020 09:57:08.000,85.735,-81.698,22969.784373
2 Jan 2020 09:57:38.000,87.262,-81.281,23087.366433
2 Jan 2020 09:58:08.000,88.626,-80.872,23211.954301
2 Jan 2020 09:58:38.000,89.851,-80.472,23343.331518
2 Jan 2020 09:59:08.000,90.954,-80.083,23481.274320
2 Jan 2020 09:59:38.000,91.953,-79.706,23625.551609
2 Jan 2020 10:00:08.000,92.860,-79.341,23775.926138
2 Jan 2020 10:00:38.000,93.687,-78.989,23932.155415
2 Jan 2020 10:01:08.000,94.442,-78.651,24093.992903
2 Jan 2020 10:01:38.000,95.134,-78.327,24261.187608
2 Jan 2020 10:02:08.000,95.769,-78.018,24433.486747
2 Jan 2020 10:02:38.000,96.353,-77.724,24610.635276
2 Jan 2020 10:03:08.000,96.891,-77.446,24792.376908
2 Jan 2020 10:03:38.000,97.387,-77.183,24978.454781
2 Jan 2020 10:04:08.000,97.845,-76.935,25168.612079
2 Jan 2020 10:04:38.000,98.269,-76.704,25362.592597
2 Jan 2020 10:05:08.000,98.661,-76.488,25560.141619
2 Jan 2020 10:05:38.000,99.024,-76.288,25761.005009
2 Jan 2020 10:06:08.000,99.360,-76.104,25964.931705
2 Jan 2020 10:06:28.946,99.579,-75.984,26108.996978
2 Jan 2020 11:21:59.761,263.311,-75.992,26115.824173
2 Jan 2020 11:22:29.000,262.085,-76.126,25955.737017
2 Jan 2020 11:22:59.000,260.776,-76.270,25795.457181
2 Jan 2020 11:23:29.000,259.413,-76.421,25639.407589
2 Jan 2020 11:23:59.000,257.993,-76.580,25487.792334
2 Jan 2020 11:24:29.000,256.512,-76.744,25340.812670
2 Jan 2020 11:24:59.000,254.968,-76.914,25198.666460
2 Jan 2020 11:25:29.000,253.356,-77.088,25061.547363
2 Jan 2020 11:25:59.000,251.674,-77.266,24929.645232
2 Jan 2020 11:26:29.000,249.919,-77.447,24803.144014
2 Jan 2020 11:26:59.000,248.086,-77.630,24682.222137
2 Jan 2020 11:27:29.000,246.173,-77.813,24567.051637
2 Jan 2020 11:27:59.000,244.178,-77.995,24457.797528
2 Jan 2020 11:28:29.000,242.097,-78.176,24354.616957
2 Jan 2020 11:28:59.000,239.928,-78.353,24257.659483
2 Jan 2020 11:29:29.000,237.671,-78.526,24167.065104
2 Jan 2020 11:29:59.000,235.324,-78.693,24082.964588
2 Jan 2020 11:30:29.000,232.887,-78.853,24005.478673
2 Jan 2020 11:30:59.000,230.362,-79.004,23934.717374
2 Jan 2020 11:31:29.000,227.751,-79.145,23870.780100
2 Jan 2020 11:31:59.000,225.057,-79.275,23813.754240
2 Jan 2020 11:32:29.000,222.286,-79.391,23763.715384
2 Jan 2020 11:32:59.000,219.443,-79.494,23720.726791
2 Jan 2020 11:33:29.000,216.538,-79.581,23684.838974
2 Jan 2020 11:33:59.000,213.578,-79.652,23656.089841
2 Jan 2020 11:34:29.000,210.575,-79.706,23634.503878
2 Jan 2020 11:34:59.000,207.540,-79.742,23620.092443
2 Jan 2020 11:35:29.000,204.486,-79.760,23612.853589
2 Jan 2020 11:35:59.000,201.424,-79.760,23612.772033
2 Jan 2020 11:36:29.000,198.369,-79.742,23619.819353
2 Jan 2020 11:36:59.000,195.333,-79.706,23633.953907
2 Jan 2020 11:37:29.000,192.326,-79.653,23655.121187
2 Jan 2020 11:37:59.000,189.362,-79.584,23683.254036
2 Jan 2020 11:38:29.000,186.449,-79.498,23718.273007
2 Jan 2020 11:38:59.000,183.595,-79.398,23760.086609
2 Jan 2020 11:39:29.000,180.809,-79.285,23808.591910
2 Jan 2020 11:39:59.000,178.095,-79.159,23863.674910
2 Jan 2020 11:40:29.000,175.459,-79.023,23925.211078
2 Jan 2020 11:40:59.000,172.901,-78.877,23993.066003
2 Jan 2020 11:41:29.000,170.426,-78.723,24067.095621
2 Jan 2020 11:41:59.000,168.032,-78.563,24147.147340
2 Jan 2020 11:42:29.000,165.719,-78.397,24233.060335
2 Jan 2020 11:42:59.000,163.487,-78.227,24324.666273
2 Jan 2020 11:43:29.000,161.332,-78.054,24421.789963
2 Jan 2020 11:43:59.000,159.254,-77.880,24524.250163
2 Jan 2020 11:44:29.000,157.249,-77.705,24631.859621
2 Jan 2020 11:44:59.000,155.314,-77.531,24744.426619
2 Jan 2020 11:45:29.000,153.446,-77.359,24861.755017
2 Jan 2020 11:45:59.000,151.641,-77.189,24983.645013
2 Jan 2020 11:46:29.000,149.896,-77.022,25109.893747
2 Jan 2020 11:46:59.000,148.208,-76.859,25240.295877
2 Jan 2020 11:47:29.000,146.573,-76.701,25374.644138
2 Jan 2020 11:47:59.000,144.988,-76.549,25512.730090
2 Jan 2020 11:48:29.000,143.449,-76.402,25654.343751
2 Jan 2020 11:48:59.000,141.954,-76.262,25799.275372
2 Jan 2020 11:49:29.000,140.500,-76.128,25947.315026
2 Jan 2020 11:49:59.000,139.083,-76.002,26098.253242
2 Jan 2020 11:50:02.466,138.922,-75.988,26115.868120
2 Jan 2020 16:03:20.932,51.517,-75.992,26118.289141
2 Jan 2020 16:03:50.000,50.422,-76.133,25949.449931
2 Jan 2020 16:04:20.000,49.261,-76.289,25777.772173
2 Jan 2020 16:04:50.000,48.064,-76.455,25608.931499
2 Jan 2020 16:05:20.000,46.829,-76.632,25443.156548
2 Jan 2020 16:05:50.000,45.551,-76.819,25280.677458
2 Jan 2020 16:06:20.000,44.226,-77.015,25121.725446
2 Jan 2020 16:06:50.000,42.849,-77.220,24966.532358
2 Jan 2020 16:07:20.000,41.417,-77.435,24815.330175
2 Jan 2020 16:07:50.000,39.922,-77.657,24668.350270
2 Jan 2020 16:08:20.000,38.361,-77.887,24525.823722
2 Jan 2020 16:08:50.000,36.727,-78.123,24387.979382
2 Jan 2020 16:09:20.000,35.012,-78.365,24255.044135
2 Jan 2020 16:09:50.000,33.211,-78.613,24127.242003
2 Jan 2020 16:10:20.000,31.315,-78.863,24004.793448
2 Jan 2020 16:10:50.000,29.317,-79.116,23887.914473
2 Jan 2020 16:11:20.000,27.209,-79.371,23776.816568
2 Jan 2020 16:11:50.000,24.982,-79.624,23671.704884
2 Jan 2020 16:12:20.000,22.629,-79.875,23572.778160
2 Jan 2020 16:12:50.000,20.141,-80.122,23480.227756
2 Jan 2020 16:13:20.000,17.510,-80.363,23394.236742
2 Jan 2020 16:13:50.000,14.731,-80.595,23314.979583
2 Jan 2020 16:14:20.000,11.798,-80.816,23242.620631
2 Jan 2020 16:14:50.000,8.709,-81.024,23177.313867
2 Jan 2020 16:15:20.000,5.464,-81.216,23119.202043
2 Jan 2020 16:15:50.000,2.066,-81.390,23068.415927
2 Jan 2020 16:16:20.000,358.524,-81.543,23025.073907
2 Jan 2020 16:16:50.000,354.849,-81.673,22989.280983
2 Jan 2020 16:17:20.000,351.059,-81.777,22961.128505
2 Jan 2020 16:17:50.000,347.177,-81.854,22940.693623
2 Jan 2020 16:18:20.000,343.230,-81.903,22928.038895
2 Jan 2020 16:18:50.000,339.246,-81.921,22923.211906
2 Jan 2020 16:19:20.000,335.260,-81.910,22926.245057
2 Jan 2020 16:19:50.000,331.302,-81.868,22937.155439
2 Jan 2020 16:20:20.000,327.404,-81.797,22955.944556
2 Jan 2020 16:20:50.000,323.595,-81.698,22982.598591
2 Jan 2020 16:21:20.000,319.899,-81.573,23017.088333
2 Jan 2020 16:21:50.000,316.335,-81.423,23059.369490
2 Jan 2020 16:22:20.000,312.919,-81.251,23109.382556
2 Jan 2020 16:22:50.000,309.660,-81.059,23167.053712
2 Jan 2020 16:23:20.000,306.564,-80.850,23232.294868
2 Jan 2020 16:23:50.000,303.633,-80.626,23305.004229
2 Jan 2020 16:24:20.000,300.864,-80.391,23385.067029
2 Jan 2020 16:24:50.000,298.255,-80.145,23472.355373
2 Jan 2020 16:25:20.000,295.800,-79.893,23566.729984
2 Jan 2020 16:25:50.000,293.490,-79.635,23668.040167
2 Jan 2020 16:26:20.000,291.320,-79.374,23776.124697
2 Jan 2020 16:26:50.000,289.280,-79.112,23890.812797
2 Jan 2020 16:27:20.000,287.362,-78.850,24011.923980
2 Jan 2020 16:27:50.000,285.558,-78.591,24139.270170
2 Jan 2020 16:28:20.000,283.861,-78.335,24272.655581
2 Jan 2020 16:28:50.000,282.263,-78.084,24411.877709
2 Jan 2020 16:29:20.000,280.756,-77.838,24556.728086
2 Jan 2020 16:29:50.000,279.334,-77.600,24706.993315
2 Jan 2020 16:30:20.000,277.991,-77.369,24862.454641
2 Jan 2020 16:30:50.000,276.722,-77.147,25022.890369
2 Jan 2020 16:31:20.000,275.520,-76.934,25188.075401
2 Jan 2020 16:31:50.000,274.381,-76.731,25357.782158
2 Jan 2020 16:32:20.000,273.300,-76.539,25531.781195
2 Jan 2020 16:32:50.000,272.273,-76.358,25709.841777
2 Jan 2020 16:33:20.000,271.297,-76.187,25891.732422
2 Jan 2020 16:33:50.000,270.368,-76.029,26077.221732
2 Jan 2020 16:33:56.512,270.172,-75.996,26117.936798
2 Jan 2020 17:48:57.694,86.185,-75.988,26111.288317
2 Jan 2020 17:49:27.000,86.850,-76.149,25919.267285
2 Jan 2020 17:49:57.000,87.570,-76.328,25725.909178
2 Jan 2020 17:50:27.000,88.332,-76.520,25536.041545
2 Jan 2020 17:50:57.000,89.141,-76.725,25349.907196
2 Jan 2020 17:51:27.000,89.999,-76.944,25167.749549
2 Jan 2020 17:51:57.000,90.911,-77.175,24989.812125
2 Jan 2020 17:52:27.000,91.882,-77.419,24816.338009
2 Jan 2020 17:52:57.000,92.917,-77.674,24647.568972
2 Jan 2020 17:53:27.000,94.023,-77.941,24483.746047
2 Jan 2020 17:53:57.000,95.206,-78.219,24325.107053
2 Jan 2020 17:54:27.000,96.474,-78.507,24171.887110
2 Jan 2020 17:54:57.000,97.835,-78.804,24024.317600
2 Jan 2020 17:55:27.000,99.299,-79.109,23882.625391
2 Jan 2020 17:55:57.000,100.876,-79.420,23747.031774
2 Jan 2020 17:56:27.000,102.578,-79.738,23617.752733
2 Jan 2020 17:56:57.000,104.418,-80.059,23494.996443
2 Jan 2020 17:57:27.000,106.411,-80.383,23378.963530
2 Jan 2020 17:57:57.000,108.571,-80.706,23269.845933
2 Jan 2020 17:58:27.000,110.917,-81.028,23167.825836
2 Jan 2020 17:58:57.000,113.465,-81.346,23073.075653
2 Jan 2020 17:59:27.000,116.234,-81.656,22985.755926
2 Jan 2020 17:59:57.000,119.241,-81.956,22906.015378
2 Jan 2020 18:00:27.000,122.503,-82.242,22833.989795
2 Jan 2020 18:00:57.000,126.033,-82.511,22769.801843
2 Jan 2020 18:01:27.000,129.840,-82.758,22713.559572
2 Jan 2020 18:01:57.000,133.923,-82.980,22665.356372
2 Jan 2020 18:02:27.000,138.274,-83.171,22625.270210
2 Jan 2020 18:02:57.000,142.871,-83.329,22593.363523
2 Jan 2020 18:03:27.000,147.676,-83.450,22569.682305
2 Jan 2020 18:03:57.000,152.641,-83.530,22554.256199
2 Jan 2020 18:04:27.000,157.702,-83.567,22547.098186
2 Jan 2020 18:04:57.000,162.790,-83.562,22548.204622
2 Jan 2020 18:05:27.000,167.833,-83.513,22557.555039
2 Jan 2020 18:05:57.000,172.764,-83.422,22575.112407
2 Jan 2020 18:06:27.000,177.523,-83.293,22600.823330
2 Jan 2020 18:06:57.000,182.067,-83.127,22634.618237
2 Jan 2020 18:07:27.000,186.363,-82.929,22676.411916
2 Jan 2020 18:07:57.000,190.396,-82.704,22726.103913
2 Jan 2020 18:08:27.000,194.158,-82.454,22783.579184
2 Jan 2020 18:08:57.000,197.654,-82.185,22848.708401
2 Jan 2020 18:09:27.000,200.894,-81.899,22921.349108
2 Jan 2020 18:09:57.000,203.892,-81.602,23001.346163
2 Jan 2020 18:10:27.000,206.667,-81.295,23088.532604
2 Jan 2020 18:10:57.000,209.236,-80.983,23182.730635
2 Jan 2020 18:11:27.000,211.616,-80.667,23283.751835
2 Jan 2020 18:11:57.000,213.827,-80.350,23391.398973
2 Jan 2020 18:12:27.000,215.883,-80.034,23505.466272
2 Jan 2020 18:12:57.000,217.801,-79.720,23625.740436
2 Jan 2020 18:13:27.000,219.593,-79.412,23752.001718
2 Jan 2020 18:13:57.000,221.274,-79.109,23884.024014
2 Jan 2020 18:14:27.000,222.854,-78.813,24021.576835
2 Jan 2020 18:14:57.000,224.344,-78.525,24164.425374
2 Jan 2020 18:15:27.000,225.753,-78.246,24312.331474
2 Jan 2020 18:15:57.000,227.089,-77.977,24465.054378
2 Jan 2020 18:16:27.000,228.359,-77.718,24622.351439
2 Jan 2020 18:16:57.000,229.571,-77.470,24783.979067
2 Jan 2020 18:17:27.000,230.729,-77.233,24949.692284
2 Jan 2020 18:17:57.000,231.840,-77.009,25119.246914
2 Jan 2020 18:18:27.000,232.909,-76.796,25292.399073
2 Jan 2020 18:18:57.000,233.939,-76.596,25468.905935
2 Jan 2020 18:19:27.000,234.935,-76.408,25648.526196
2 Jan 2020 18:19:57.000,235.900,-76.233,25831.020495
2 Jan 2020 18:20:27.000,236.837,-76.070,26016.151796
2 Jan 2020 18:20:42.202,237.302,-75.993,26110.894938
2 Jan 2020 22:34:51.007,327.491,-75.985,26104.677414
2 Jan 2020 22:35:21.000,329.072,-76.095,25971.930876
2 Jan 2020 22:35:51.000,330.692,-76.209,25842.276088
2 Jan 2020 22:36:21.000,332.351,-76.328,25715.940864
2 Jan 2020 22:36:51.000,334.052,-76.450,25593.118912
2 Jan 2020 22:37:21.000,335.798,-76.576,25474.002817
2 Jan 2020 22:37:51.000,337.590,-76.704,25358.783577
2 Jan 2020 22:38:21.000,339.431,-76.834,25247.650134
2 Jan 2020 22:38:51.000,341.322,-76.965,25140.788871
2 Jan 2020 22:39:21.000,343.265,-77.097,25038.382954
2 Jan 2020 22:39:51.000,345.261,-77.229,24940.612393
2 Jan 2020 22:40:21.000,347.313,-77.359,24847.652600
2 Jan 2020 22:40:51.000,349.421,-77.488,24759.674443
2 Jan 2020 22:41:21.000,351.585,-77.614,24676.843532
2 Jan 2020 22:41:51.000,353.806,-77.735,24599.319656
2 Jan 2020 22:42:21.000,356.084,-77.853,24527.256137
2 Jan 2020 22:42:51.000,358.416,-77.964,24460.799609
2 Jan 2020 22:43:21.000,0.803,-78.068,24400.088948
2 Jan 2020 22:43:51.000,3.241,-78.165,24345.255092
2 Jan 2020 22:44:21.000,5.729,-78.254,24296.420428
2 Jan 2020 22:44:51.000,8.261,-78.333,24253.698299
2 Jan 2020 22:45:21.000,10.833,-78.401,24217.192507
2 Jan 2020 22:45:51.000,13.441,-78.459,24186.996983
2 Jan 2020 22:46:21.000,16.078,-78.505,24163.195203
2 Jan 2020 22:46:51.000,18.738,-78.539,24145.859961
2 Jan 2020 22:47:21.000,21.414,-78.560,24135.053010
2 Jan 2020 22:47:51.000,24.098,-78.568,24130.824821
2 Jan 2020 22:48:21.000,26.783,-78.563,24133.214238
2 Jan 2020 22:48:51.000,29.461,-78.546,24142.248478
2 Jan 2020 22:49:21.000,32.124,-78.515,24157.942906
2 Jan 2020 22:49:51.000,34.765,-78.471,24180.300999
2 Jan 2020 22:50:21.000,37.377,-78.416,24209.314427
2 Jan 2020 22:50:51.000,39.952,-78.348,24244.962749
2 Jan 2020 22:51:21.000,42.486,-78.270,24287.214028
2 Jan 2020 22:51:51.000,44.973,-78.181,24336.024653
2 Jan 2020 22:52:21.000,47.408,-78.083,24391.339632
2 Jan 2020 22:52:51.000,49.787,-77.976,24453.092981
2 Jan 2020 22:53:21.000,52.107,-77.861,24521.207477
2 Jan 2020 22:53:51.000,54.365,-77.740,24595.595813
2 Jan 2020 22:54:21.000,56.561,-77.613,24676.160452
2 Jan 2020 22:54:51.000,58.692,-77.482,24762.794172
2 Jan 2020 22:55:21.000,60.759,-77.347,24855.380513
2 Jan 2020 22:55:51.000,62.761,-77.209,24953.794469
2 Jan 2020 22:56:21.000,64.699,-77.070,25057.902118
2 Jan 2020 22:56:51.000,66.574,-76.930,25167.562419
2 Jan 2020 22:57:21.000,68.387,-76.790,25282.626888
2 Jan 2020 22:57:51.000,70.139,-76.652,25402.940337
2 Jan 2020 22:58:21.000,71.832,-76.515,25528.341418
2 Jan 2020 22:58:51.000,73.468,-76.382,25658.663151
2 Jan 2020 22:59:21.000,75.048,-76.251,25793.733739
2 Jan 2020 22:59:51.000,76.576,-76.126,25933.375999
2 Jan 2020 23:00:21.000,78.052,-76.005,26077.409506
2 Jan 2020 23:00:26.611,78.323,-75.982,26104.820217
3 Jan 2020 00:16:41.398,283.373,-75.990,26111.049920
3 Jan 2020 00:17:11.000,283.297,-76.163,25905.454826
3 Jan 2020 00:17:41.000,283.204,-76.355,25699.782895
3 Jan 2020 00:18:11.000,283.094,-76.562,25497.067549
3 Jan 2020 00:18:41.000,282.967,-76.787,25297.563257
3 Jan 2020 00:19:11.000,282.821,-77.028,25101.526964
3 Jan 2020 00:19:41.000,282.655,-77.286,24909.217671
3 Jan 2020 00:20:11.000,282.466,-77.561,24720.895978
3 Jan 2020 00:20:41.000,282.254,-77.853,24536.823565
3 Jan 2020 00:21:11.000,282.015,-78.161,24357.262320
3 Jan 2020 00:21:41.000,281.748,-78.486,24182.475011
3 Jan 2020 00:22:11.000,281.448,-78.827,24012.722683
3 Jan 2020 00:22:41.000,281.112,-79.184,23848.265247
3 Jan 2020 00:23:11.000,280.735,-79.558,23689.360393
3 Jan 2020 00:23:41.000,280.312,-79.947,23536.262779
3 Jan 2020 00:24:11.000,279.836,-80.351,23389.222902
3 Jan 2020 00:24:41.000,279.299,-80.769,23248.487318
3 Jan 2020 00:25:11.000,278.691,-81.202,23114.296020
3 Jan 2020 00:25:41.000,277.999,-81.648,22986.882615
3 Jan 2020 00:26:11.000,277.207,-82.107,22866.473049
3 Jan 2020 00:26:41.000,276.295,-82.577,22753.284389
3 Jan 2020 00:27:11.000,275.236,-83.058,22647.524690
3 Jan 2020 00:27:41.000,273.994,-83.548,22549.390651
3 Jan 2020 00:28:11.000,272.521,-84.045,22459.067526
3 Jan 2020 00:28:41.000,270.753,-84.548,22376.727779
3 Jan 2020 00:29:11.000,268.597,-85.055,22302.530722
3 Jan 2020 00:29:41.000,265.921,-85.561,22236.620742
3 Jan 2020 00:30:11.000,262.528,-86.062,22179.127070
3 Jan 2020 00:30:41.000,258.126,-86.553,22130.162776
3 Jan 2020 00:31:11.000,252.267,-87.021,22089.824447
3 Jan 2020 00:31:41.000,244.294,-87.452,22058.191025
3 Jan 2020 00:32:11.000,233.343,-87.818,22035.323706
3 Jan 2020 00:32:41.000,218.724,-88.078,22021.265425
3 Jan 2020 00:33:11.000,201.049,-88.185,22016.040691
3 Jan 2020 00:33:41.000,183.067,-88.110,22019.655231
3 Jan 2020 00:34:11.000,167.795,-87.874,22032.096100
3 Jan 2020 00:34:41.000,156.212,-87.524,22053.331755
3 Jan 2020 00:35:11.000,147.754,-87.103,22083.312109
3 Jan 2020 00:35:41.000,141.544,-86.640,22121.969043
3 Jan 2020 00:36:11.000,136.881,-86.154,22169.216711
3 Jan 2020 00:36:41.000,133.286,-85.655,22224.952204
3 Jan 2020 00:37:11.000,130.442,-85.151,22289.055772
3 Jan 2020 00:37:41.000,128.140,-84.646,22361.392114
3 Jan 2020 00:38:11.000,126.238,-84.144,22441.810801
3 Jan 2020 00:38:41.000,124.637,-83.647,22530.147372
3 Jan 2020 00:39:11.000,123.269,-83.158,22626.223651
3 Jan 2020 00:39:41.000,122.083,-82.677,22729.849572
3 Jan 2020 00:40:11.000,121.041,-82.207,22840.823598
3 Jan 2020 00:40:41.000,120.115,-81.749,22958.933866
3 Jan 2020 00:41:11.000,119.285,-81.302,23083.959439
3 Jan 2020 00:41:41.000,118.532,-80.869,23215.670387
3 Jan 2020 00:42:11.000,117.844,-80.450,23353.830172
3 Jan 2020 00:42:41.000,117.210,-80.045,23498.195726
3 Jan 2020 00:43:11.000,116.621,-79.656,23648.518636
3 Jan 2020 00:43:41.000,116.071,-79.281,23804.546066
3 Jan 2020 00:44:11.000,115.553,-78.923,23966.021949
3 Jan 2020 00:44:41.000,115.062,-78.580,24132.686653
3 Jan 2020 00:45:11.000,114.596,-78.253,24304.279531
3 Jan 2020 00:45:41.000,114.149,-77.943,24480.538514
3 Jan 2020 00:46:11.000,113.720,-77.650,24661.201101
3 Jan 2020 00:46:41.000,113.305,-77.373,24846.005009
3 Jan 2020 00:47:11.000,112.902,-77.112,25034.688772
3 Jan 2020 00:47:41.000,112.509,-76.868,25226.992288
3 Jan 2020 00:48:11.000,112.125,-76.640,25422.657636
3 Jan 2020 00:48:41.000,111.749,-76.429,25621.428259
3 Jan 2020 00:49:11.000,111.378,-76.234,25823.051258
3 Jan 2020 00:49:41.000,111.011,-76.054,26027.276498
3 Jan 2020 00:49:53.287,110.862,-75.986,26111.615388
3 Jan 2020 02:08:51.768,245.394,-75.993,26118.147076
3 Jan 2020 02:09:21.000,243.624,-76.068,26026.475959
3 Jan 2020 02:09:51.000,241.770,-76.144,25937.243981
3 Jan 2020 02:10:21.000,239.878,-76.219,25853.028081
3 Jan 2020 02:10:51.000,237.950,-76.293,25773.928728
3 Jan 2020 02:11:21.000,235.985,-76.364,25700.038998
3 Jan 2020 02:11:51.000,233.986,-76.432,25631.444239
3 Jan 2020 02:12:21.000,231.953,-76.497,25568.221622
3 Jan 2020 02:12:51.000,229.889,-76.558,25510.440459
3 Jan 2020 02:13:21.000,227.795,-76.615,25458.161027
3 Jan 2020 02:13:51.000,225.673,-76.666,25411.434962
3 Jan 2020 02:14:21.000,223.526,-76.713,25370.304902
3 Jan 2020 02:14:51.000,221.356,-76.754,25334.804320
3 Jan 2020 02:15:21.000,219.167,-76.788,25304.957305
3 Jan 2020 02:15:51.000,216.961,-76.817,25280.778824
3 Jan 2020 02:16:21.000,214.742,-76.839,25262.274108
3 Jan 2020 02:16:51.000,212.513,-76.854,25249.439003
3 Jan 2020 02:17:21.000,210.278,-76.863,25242.259894
3 Jan 2020 02:17:51.000,208.040,-76.864,25240.713750
3 Jan 2020 02:18:21.000,205.802,-76.859,25244.768186
3 Jan 2020 02:18:51.000,203.568,-76.848,25254.381717
3 Jan 2020 02:19:21.000,201.342,-76.829,25269.503710
3 Jan 2020 02:19:51.000,199.125,-76.805,25290.074726
3 Jan 2020 02:20:21.000,196.922,-76.774,25316.026711
3 Jan 2020 02:20:51.000,194.736,-76.738,25347.283247
3 Jan 2020 02:21:21.000,192.568,-76.696,25383.759872
3 Jan 2020 02:21:51.000,190.421,-76.649,25425.364287
3 Jan 2020 02:22:21.000,188.297,-76.597,25471.996829
3 Jan 2020 02:22:51.000,186.199,-76.542,25523.550743
3 Jan 2020 02:23:21.000,184.127,-76.482,25579.912570
3 Jan 2020 02:23:51.000,182.083,-76.420,25640.962542
3 Jan 2020 02:24:21.000,180.068,-76.354,25706.574975
3 Jan 2020 02:24:51.000,178.082,-76.287,25776.618763
3 Jan 2020 02:25:21.000,176.127,-76.218,25850.957465
3 Jan 2020 02:25:51.000,174.202,-76.147,25929.450204
3 Jan 2020 02:26:21.000,172.308,-76.076,26011.951774
3 Jan 2020 02:26:51.000,170.444,-76.005,26098.313135
3 Jan 2020 02:26:57.612,170.037,-75.989,26117.851174
3 Jan 2020 05:10:52.885,357.656,-75.996,26121.571681
3 Jan 2020 05:11:22.000,355.768,-76.046,26060.229083
3 Jan 2020 05:11:52.000,353.799,-76.096,26001.157433
3 Jan 2020 05:12:22.000,351.807,-76.143,25946.402676
3 Jan 2020 05:12:52.000,349.795,-76.188,25896.080570
3 Jan 2020 05:13:22.000,347.762,-76.229,25850.301237
3 Jan 2020 05:13:52.000,345.710,-76.267,25809.168811
3 Jan 2020 05:14:22.000,343.641,-76.301,25772.781095
3 Jan 2020 05:14:52.000,341.556,-76.332,25741.229227
3 Jan 2020 05:15:22.000,339.459,-76.358,25714.597409
3 Jan 2020 05:15:52.000,337.349,-76.379,25692.962540
3 Jan 2020 05:16:22.000,335.231,-76.395,25676.394005
3 Jan 2020 05:16:52.000,333.106,-76.407,25664.953410
3 Jan 2020 05:17:22.000,330.977,-76.413,25658.694360
3 Jan 2020 05:17:52.000,328.846,-76.414,25657.662302
3 Jan 2020 05:18:22.000,326.717,-76.410,25661.894209
3 Jan 2020 05:18:52.000,324.591,-76.400,25671.418658
3 Jan 2020 05:19:22.000,322.472,-76.386,25686.255587
3 Jan 2020 05:19:52.000,320.362,-76.366,25706.416256
3 Jan 2020 05:20:22.000,318.264,-76.341,25731.903204
3 Jan 2020 05:20:52.000,316.180,-76.312,25762.710332
3 Jan 2020 05:21:22.000,314.112,-76.277,25798.822570
3 Jan 2020 05:21:52.000,312.064,-76.239,25840.216455
3 Jan 2020 05:22:22.000,310.037,-76.197,25886.859882
3 Jan 2020 05:22:52.000,308.033,-76.151,25938.712302
3 Jan 2020 05:23:22.000,306.053,-76.101,25995.724870
3 Jan 2020 05:23:52.000,304.100,-76.049,26057.840758
3 Jan 2020 05:24:20.524,302.269,-75.998,26121.573436
3 Jan 2020 06:45:13.202,66.249,-75.991,26116.001173
3 Jan 2020 06:45:43.000,65.733,-76.159,25915.543044
3 Jan 2020 06:46:13.000,65.204,-76.344,25716.191779
3 Jan 2020 06:46:43.000,64.662,-76.545,25519.558487
3 Jan 2020 06:47:13.000,64.105,-76.761,25325.892806
3 Jan 2020 06:47:43.000,63.531,-76.993,25135.447194
3 Jan 2020 06:48:13.000,62.938,-77.240,24948.476546
3 Jan 2020 06:48:43.000,62.323,-77.504,24765.237768
3 Jan 2020 06:49:13.000,61.682,-77.783,24585.989297
3 Jan 2020 06:49:43.000,61.012,-78.077,24410.990302
3 Jan 2020 06:50:13.000,60.308,-78.387,24240.501231
3 Jan 2020 06:50:43.000,59.564,-78.712,24074.781498
3 Jan 2020 06:51:13.000,58.776,-79.052,23914.089940
3 Jan 2020 06:51:43.000,57.936,-79.406,23758.683818
3 Jan 2020 06:52:13.000,57.036,-79.774,23608.818040
3 Jan 2020 06:52:43.000,56.066,-80.156,23464.744106
3 Jan 2020 06:53:13.000,55.014,-80.551,23326.710233
3 Jan 2020 06:53:43.000,53.867,-80.958,23194.958966
3 Jan 2020 06:54:13.000,52.606,-81.375,23069.727252
3 Jan 2020 06:54:43.000,51.211,-81.803,22951.245228
3 Jan 2020 06:55:13.000,49.655,-82.239,22839.735054
3 Jan 2020 06:55:43.000,47.905,-82.683,22735.410687
3 Jan 2020 06:56:13.000,45.921,-83.131,22638.475715
3 Jan 2020 06:56:43.000,43.650,-83.582,22549.123158
3 Jan 2020 06:57:13.000,41.025,-84.032,22467.534177
3 Jan 2020 06:57:43.000,37.962,-84.478,22393.877608
3 Jan 2020 06:58:13.000,34.351,-84.915,22328.308303
3 Jan 2020 06:58:43.000,30.058,-85.337,22270.966781
3 Jan 2020 06:59:13.000,24.920,-85.735,22221.978227
3 Jan 2020 06:59:43.000,18.756,-86.099,22181.452051
3 Jan 2020 07:00:13.000,11.397,-86.415,22149.480780
3 Jan 2020 07:00:43.000,2.762,-86.666,22126.139822
3 Jan 2020 07:01:13.000,352.957,-86.834,22111.486907
3 Jan 2020 07:01:43.000,342.376,-86.905,22105.561789
3 Jan 2020 07:02:13.000,331.666,-86.871,22108.385897
3 Jan 2020 07:02:43.000,321.523,-86.736,22119.962292
3 Jan 2020 07:03:13.000,312.449,-86.512,22140.275682
3 Jan 2020 07:03:43.000,304.648,-86.217,22169.292319
3 Jan 2020 07:04:13.000,298.095,-85.867,22206.960504
3 Jan 2020 07:04:43.000,292.641,-85.478,22253.210743
3 Jan 2020 07:05:13.000,288.107,-85.062,22307.956337
3 Jan 2020 07:05:43.000,284.319,-84.627,22371.093467
3 Jan 2020 07:06:13.000,281.133,-84.181,22442.502474
3 Jan 2020 07:06:43.000,278.430,-83.729,22522.048153
3 Jan 2020 07:07:13.000,276.118,-83.274,22609.580793
3 Jan 2020 07:07:43.000,274.124,-82.822,22704.936380
3 Jan 2020 07:08:13.000,272.390,-82.373,22807.938437
3 Jan 2020 07:08:43.000,270.873,-81.930,22918.398340
3 Jan 2020 07:09:13.000,269.535,-81.496,23036.116431
3 Jan 2020 07:09:43.000,268.349,-81.070,23160.883248
3 Jan 2020 07:10:13.000,267.292,-80.656,23292.479515
3 Jan 2020 07:10:43.000,266.346,-80.253,23430.678602
3 Jan 2020 07:11:13.000,265.494,-79.863,23575.246527
3 Jan 2020 07:11:43.000,264.726,-79.487,23725.943149
3 Jan 2020 07:12:13.000,264.030,-79.124,23882.523091
3 Jan 2020 07:12:43.000,263.397,-78.776,24044.736958
3 Jan 2020 07:13:13.000,262.822,-78.443,24212.330929
3 Jan 2020 07:13:43.000,262.296,-78.125,24385.049451
3 Jan 2020 07:14:13.000,261.816,-77.823,24562.634766
3 Jan 2020 07:14:43.000,261.376,-77.537,24744.827945
3 Jan 2020 07:15:13.000,260.974,-77.267,24931.369565
3 Jan 2020 07:15:43.000,260.604,-77.013,25122.000330
3 Jan 2020 07:16:13.000,260.266,-76.775,25316.461656
3 Jan 2020 07:16:43.000,259.955,-76.554,25514.496537
3 Jan 2020 07:17:13.000,259.671,-76.348,25715.848651
3 Jan 2020 07:17:43.000,259.410,-76.159,25920.264855
3 Jan 2020 07:18:11.262,259.186,-75.995,26115.418448
3 Jan 2020 08:33:55.402,98.248,-75.987,26108.684222
3 Jan 2020 08:34:25.000,99.558,-76.117,25952.483681
3 Jan 2020 08:34:55.000,100.938,-76.256,25798.270068
3 Jan 2020 08:35:25.000,102.371,-76.401,25648.390344
3 Jan 2020 08:35:55.000,103.862,-76.551,25503.040820
3 Jan 2020 08:36:25.000,105.413,-76.707,25362.414450
3 Jan 2020 08:36:55.000,107.026,-76.867,25226.700286
3 Jan 2020 08:37:25.000,108.705,-77.031,25096.082673
3 Jan 2020 08:37:55.000,110.453,-77.197,24970.741639
3 Jan 2020 08:38:25.000,112.271,-77.364,24850.850840
3 Jan 2020 08:38:55.000,114.163,-77.533,24736.577952
3 Jan 2020 08:39:25.000,116.130,-77.701,24628.083820
3 Jan 2020 08:39:55.000,118.175,-77.867,24525.521867
3 Jan 2020 08:40:25.000,120.299,-78.030,24429.037292
3 Jan 2020 08:40:55.000,122.503,-78.190,24338.767339
3 Jan 2020 08:41:25.000,124.787,-78.344,24254.839445
3 Jan 2020 08:41:55.000,127.151,-78.491,24177.371566
3 Jan 2020 08:42:25.000,129.594,-78.631,24106.471450
3 Jan 2020 08:42:55.000,132.113,-78.761,24042.236004
3 Jan 2020 08:43:25.000,134.705,-78.882,23984.751429
3 Jan 2020 08:43:55.000,137.366,-78.990,23934.091939
3 Jan 2020 08:44:25.000,140.089,-79.086,23890.319997
3 Jan 2020 08:44:55.000,142.868,-79.169,23853.485862
3 Jan 2020 08:45:25.000,145.696,-79.236,23823.627248
