STKdata/stk_70fov_6leo/Satellite-MEO_Satellite10002-To-Satellite-LEO_Satellite20000 AER.csv

"Time (UTCG)","Azimuth (deg)","Elevation (deg)","Range (km)"
1 Jan 2020 00:30:35.911,224.730,-75.993,26119.919779
1 Jan 2020 00:31:05.000,225.798,-76.106,25982.299561
1 Jan 2020 00:31:35.000,226.925,-76.230,25842.290191
1 Jan 2020 00:32:05.000,228.078,-76.361,25704.351690
1 Jan 2020 00:32:35.000,229.259,-76.498,25568.607263
1 Jan 2020 00:33:05.000,230.470,-76.642,25435.180735
1 Jan 2020 00:33:35.000,231.714,-76.792,25304.196399
1 Jan 2020 00:34:05.000,232.993,-76.947,25175.778847
1 Jan 2020 00:34:35.000,234.308,-77.109,25050.052799
1 Jan 2020 00:35:05.000,235.664,-77.275,24927.142914
1 Jan 2020 00:35:35.000,237.062,-77.447,24807.173594
1 Jan 2020 00:36:05.000,238.506,-77.623,24690.268770
1 Jan 2020 00:36:35.000,239.998,-77.803,24576.551464
1 Jan 2020 00:37:05.000,241.541,-77.987,24466.144458
1 Jan 2020 00:37:35.000,243.139,-78.174,24359.168691
1 Jan 2020 00:38:05.000,244.796,-78.364,24255.743921
1 Jan 2020 00:38:35.000,246.514,-78.555,24155.988244
1 Jan 2020 00:39:05.000,248.298,-78.747,24060.017820
1 Jan 2020 00:39:35.000,250.150,-78.940,23967.946603
1 Jan 2020 00:40:05.000,252.076,-79.133,23879.886060
1 Jan 2020 00:40:35.000,254.077,-79.324,23795.944735
1 Jan 2020 00:41:05.000,256.158,-79.513,23716.228591
1 Jan 2020 00:41:35.000,258.322,-79.699,23640.839757
1 Jan 2020 00:42:05.000,260.572,-79.881,23569.876894
1 Jan 2020 00:42:35.000,262.909,-80.057,23503.434739
1 Jan 2020 00:43:05.000,265.336,-80.226,23441.603821
1 Jan 2020 00:43:35.000,267.853,-80.388,23384.470179
1 Jan 2020 00:44:05.000,270.461,-80.541,23332.115002
1 Jan 2020 00:44:35.000,273.158,-80.684,23284.614738
1 Jan 2020 00:45:05.000,275.942,-80.815,23242.040259
1 Jan 2020 00:45:35.000,278.808,-80.934,23204.457021
1 Jan 2020 00:46:05.000,281.750,-81.038,23171.924731
1 Jan 2020 00:46:35.000,284.762,-81.128,23144.497141
1 Jan 2020 00:47:05.000,287.835,-81.203,23122.221828
1 Jan 2020 00:47:35.000,290.957,-81.260,23105.140130
1 Jan 2020 00:48:05.000,294.117,-81.301,23093.286817
1 Jan 2020 00:48:35.000,297.302,-81.323,23086.690089
1 Jan 2020 00:49:05.000,300.497,-81.328,23085.371433
1 Jan 2020 00:49:35.000,303.690,-81.314,23089.345547
1 Jan 2020 00:50:05.000,306.865,-81.282,23098.620314
1 Jan 2020 00:50:35.000,310.009,-81.233,23113.196632
1 Jan 2020 00:51:05.000,313.108,-81.166,23133.068603
1 Jan 2020 00:51:35.000,316.152,-81.083,23158.223434
1 Jan 2020 00:52:05.000,319.130,-80.984,23188.641507
1 Jan 2020 00:52:35.000,322.033,-80.870,23224.296449
1 Jan 2020 00:53:05.000,324.854,-80.743,23265.155329
1 Jan 2020 00:53:35.000,327.588,-80.603,23311.178381
1 Jan 2020 00:54:05.000,330.231,-80.452,23362.319715
1 Jan 2020 00:54:35.000,332.781,-80.290,23418.527106
1 Jan 2020 00:55:05.000,335.235,-80.120,23479.742270
1 Jan 2020 00:55:35.000,337.596,-79.943,23545.901052
1 Jan 2020 00:56:05.000,339.863,-79.758,23616.933648
1 Jan 2020 00:56:35.000,342.038,-79.569,23692.765011
1 Jan 2020 00:57:05.000,344.124,-79.376,23773.314374
1 Jan 2020 00:57:35.000,346.124,-79.180,23858.496568
1 Jan 2020 00:58:05.000,348.041,-78.982,23948.221577
1 Jan 2020 00:58:35.000,349.878,-78.782,24042.394986
1 Jan 2020 00:59:05.000,351.639,-78.583,24140.918247
1 Jan 2020 00:59:35.000,353.327,-78.385,24243.688959
1 Jan 2020 01:00:05.000,354.947,-78.188,24350.601144
1 Jan 2020 01:00:35.000,356.501,-77.993,24461.545774
1 Jan 2020 01:01:05.000,357.994,-77.802,24576.410065
1 Jan 2020 01:01:35.000,359.427,-77.614,24695.079210
1 Jan 2020 01:02:05.000,0.806,-77.430,24817.435685
1 Jan 2020 01:02:35.000,2.133,-77.251,24943.359751
1 Jan 2020 01:03:05.000,3.410,-77.077,25072.729715
1 Jan 2020 01:03:35.000,4.642,-76.909,25205.422176
1 Jan 2020 01:04:05.000,5.829,-76.746,25341.312271
1 Jan 2020 01:04:35.000,6.976,-76.590,25480.273908
1 Jan 2020 01:05:05.000,8.083,-76.441,25622.179990
1 Jan 2020 01:05:35.000,9.154,-76.299,25766.902631
1 Jan 2020 01:06:05.000,10.191,-76.163,25914.313673
1 Jan 2020 01:06:35.000,11.195,-76.036,26064.283634
1 Jan 2020 01:06:46.042,11.557,-75.990,26120.101934
1 Jan 2020 02:33:54.257,218.509,-75.990,26119.913520
1 Jan 2020 02:34:24.000,218.543,-76.141,25940.127835
1 Jan 2020 02:34:54.000,218.573,-76.304,25760.763390
1 Jan 2020 02:35:24.000,218.596,-76.481,25583.544546
1 Jan 2020 02:35:54.000,218.613,-76.669,25408.635498
1 Jan 2020 02:36:24.000,218.623,-76.871,25236.202021
1 Jan 2020 02:36:54.000,218.626,-77.085,25066.411284
1 Jan 2020 02:37:24.000,218.622,-77.312,24899.431642
1 Jan 2020 02:37:54.000,218.611,-77.552,24735.432417
1 Jan 2020 02:38:24.000,218.591,-77.805,24574.583648
1 Jan 2020 02:38:54.000,218.564,-78.070,24417.055826
1 Jan 2020 02:39:24.000,218.527,-78.348,24263.019303
1 Jan 2020 02:39:54.000,218.480,-78.639,24112.645204
1 Jan 2020 02:40:24.000,218.423,-78.943,23966.103249
1 Jan 2020 02:40:54.000,218.355,-79.259,23823.562642
1 Jan 2020 02:41:24.000,218.274,-79.588,23685.191377
1 Jan 2020 02:41:54.000,218.180,-79.928,23551.155854
1 Jan 2020 02:42:24.000,218.070,-80.281,23421.620456
1 Jan 2020 02:42:54.000,217.944,-80.646,23296.746878
1 Jan 2020 02:43:24.000,217.798,-81.022,23176.694661
1 Jan 2020 02:43:54.000,217.631,-81.409,23061.619238
1 Jan 2020 02:44:24.000,217.438,-81.807,22951.672460
1 Jan 2020 02:44:54.000,217.216,-82.216,22847.001858
1 Jan 2020 02:45:24.000,216.960,-82.635,22747.750152
1 Jan 2020 02:45:54.000,216.663,-83.063,22654.054563
1 Jan 2020 02:46:24.000,216.317,-83.501,22566.047084
1 Jan 2020 02:46:54.000,215.910,-83.947,22483.852819
1 Jan 2020 02:47:24.000,215.427,-84.401,22407.590292
1 Jan 2020 02:47:54.000,214.847,-84.862,22337.370764
1 Jan 2020 02:48:24.000,214.141,-85.330,22273.297666
1 Jan 2020 02:48:54.000,213.265,-85.803,22215.466638
1 Jan 2020 02:49:24.000,212.153,-86.282,22163.964377
1 Jan 2020 02:49:54.000,210.699,-86.763,22118.868759
1 Jan 2020 02:50:24.000,208.721,-87.247,22080.248356
1 Jan 2020 02:50:54.000,205.885,-87.729,22048.162063
1 Jan 2020 02:51:24.000,201.514,-88.206,22022.659073
1 Jan 2020 02:51:54.000,194.027,-88.668,22003.778250
1 Jan 2020 02:52:24.000,179.190,-89.086,21991.548219
1 Jan 2020 02:52:54.000,146.876,-89.362,21985.987157
1 Jan 2020 02:53:24.000,102.742,-89.298,21987.102712
1 Jan 2020 02:53:54.000,77.543,-88.956,21994.891947
1 Jan 2020 02:54:24.000,65.912,-88.518,22009.341360
1 Jan 2020 02:54:54.000,59.720,-88.050,22030.426962
1 Jan 2020 02:55:24.000,55.948,-87.570,22058.114382
1 Jan 2020 02:55:54.000,53.422,-87.087,22092.359105
1 Jan 2020 02:56:24.000,51.613,-86.605,22133.106404
1 Jan 2020 02:56:54.000,50.251,-86.125,22180.291998
1 Jan 2020 02:57:24.000,49.185,-85.648,22233.842090
1 Jan 2020 02:57:54.000,48.325,-85.177,22293.673772
1 Jan 2020 02:58:24.000,47.613,-84.712,22359.695515
1 Jan 2020 02:58:54.000,47.011,-84.253,22431.807066
1 Jan 2020 02:59:24.000,46.493,-83.803,22509.900624
1 Jan 2020 02:59:54.000,46.040,-83.360,22593.860802
1 Jan 2020 03:00:24.000,45.638,-82.926,22683.565211
1 Jan 2020 03:00:54.000,45.278,-82.502,22778.884944
1 Jan 2020 03:01:24.000,44.950,-82.087,22879.685282
1 Jan 2020 03:01:54.000,44.650,-81.682,22985.825348
1 Jan 2020 03:02:24.000,44.372,-81.288,23097.159847
1 Jan 2020 03:02:54.000,44.112,-80.905,23213.538749
1 Jan 2020 03:03:24.000,43.868,-80.534,23334.807977
1 Jan 2020 03:03:54.000,43.637,-80.174,23460.809890
1 Jan 2020 03:04:24.000,43.416,-79.825,23591.383758
1 Jan 2020 03:04:54.000,43.205,-79.489,23726.366480
1 Jan 2020 03:05:24.000,43.000,-79.165,23865.591968
1 Jan 2020 03:05:54.000,42.803,-78.854,24008.893152
1 Jan 2020 03:06:24.000,42.610,-78.555,24156.101336
1 Jan 2020 03:06:54.000,42.421,-78.269,24307.046847
1 Jan 2020 03:07:24.000,42.237,-77.995,24461.559395
1 Jan 2020 03:07:54.000,42.054,-77.734,24619.468415
1 Jan 2020 03:08:24.000,41.874,-77.486,24780.603395
1 Jan 2020 03:08:54.000,41.696,-77.251,24944.794166
1 Jan 2020 03:09:24.000,41.518,-77.028,25111.871184
1 Jan 2020 03:09:54.000,41.341,-76.818,25281.666108
1 Jan 2020 03:10:24.000,41.165,-76.621,25454.010749
1 Jan 2020 03:10:54.000,40.988,-76.436,25628.739208
1 Jan 2020 03:11:24.000,40.811,-76.264,25805.686787
1 Jan 2020 03:11:54.000,40.633,-76.104,25984.690495
1 Jan 2020 03:12:16.402,40.499,-75.993,26119.605496
1 Jan 2020 04:40:13.609,186.403,-75.987,26113.527400
1 Jan 2020 04:40:43.000,185.336,-76.103,25972.680406
1 Jan 2020 04:41:13.000,184.216,-76.229,25831.425268
1 Jan 2020 04:41:43.000,183.062,-76.361,25692.825989
1 Jan 2020 04:42:13.000,181.872,-76.498,25557.002621
1 Jan 2020 04:42:43.000,180.644,-76.642,25424.074478
1 Jan 2020 04:43:13.000,179.376,-76.791,25294.159943
1 Jan 2020 04:43:43.000,178.066,-76.945,25167.376268
1 Jan 2020 04:44:13.000,176.713,-77.104,25043.839370
1 Jan 2020 04:44:43.000,175.312,-77.267,24923.663614
1 Jan 2020 04:45:13.000,173.862,-77.433,24806.961352
1 Jan 2020 04:45:43.000,172.361,-77.603,24693.843668
1 Jan 2020 04:46:13.000,170.805,-77.776,24584.418674
1 Jan 2020 04:46:43.000,169.192,-77.951,24478.792263
1 Jan 2020 04:47:13.000,167.520,-78.127,24377.067612
1 Jan 2020 04:47:43.000,165.785,-78.304,24279.344946
1 Jan 2020 04:48:13.000,163.986,-78.482,24185.721284
1 Jan 2020 04:48:43.000,162.119,-78.658,24096.290202
1 Jan 2020 04:49:13.000,160.182,-78.833,24011.141385
1 Jan 2020 04:49:43.000,158.174,-79.005,23930.361180
1 Jan 2020 04:50:13.000,156.092,-79.174,23854.031156
1 Jan 2020 04:50:43.000,153.934,-79.339,23782.228680
1 Jan 2020 04:51:13.000,151.701,-79.499,23715.026490
1 Jan 2020 04:51:43.000,149.390,-79.653,23652.492470
1 Jan 2020 04:52:13.000,147.004,-79.799,23594.689452
1 Jan 2020 04:52:43.000,144.541,-79.937,23541.674890
1 Jan 2020 04:53:13.000,142.006,-80.066,23493.501187
1 Jan 2020 04:53:43.000,139.399,-80.184,23450.214751
1 Jan 2020 04:54:13.000,136.726,-80.292,23411.856373
1 Jan 2020 04:54:43.000,133.991,-80.387,23378.460956
1 Jan 2020 04:55:13.000,131.201,-80.469,23350.057397
1 Jan 2020 04:55:43.000,128.362,-80.538,23326.668444
1 Jan 2020 04:56:13.000,125.482,-80.593,23308.310840
1 Jan 2020 04:56:43.000,122.571,-80.633,23294.994914
1 Jan 2020 04:57:13.000,119.639,-80.659,23286.724798
1 Jan 2020 04:57:43.000,116.694,-80.669,23283.498349
1 Jan 2020 04:58:13.000,113.749,-80.663,23285.307158
1 Jan 2020 04:58:43.000,110.813,-80.643,23292.136592
1 Jan 2020 04:59:13.000,107.896,-80.607,23303.965835
1 Jan 2020 04:59:43.000,105.007,-80.557,23320.767966
1 Jan 2020 05:00:13.000,102.157,-80.493,23342.510065
1 Jan 2020 05:00:43.000,99.352,-80.415,23369.153326
1 Jan 2020 05:01:13.000,96.600,-80.325,23400.653192
1 Jan 2020 05:01:43.000,93.906,-80.223,23436.959509
1 Jan 2020 05:02:13.000,91.277,-80.110,23478.016778
1 Jan 2020 05:02:43.000,88.714,-79.987,23523.764027
1 Jan 2020 05:03:13.000,86.222,-79.854,23574.135467
1 Jan 2020 05:03:43.000,83.802,-79.714,23629.060413
1 Jan 2020 05:04:13.000,81.454,-79.567,23688.463576
1 Jan 2020 05:04:43.000,79.180,-79.413,23752.265295
1 Jan 2020 05:05:13.000,76.978,-79.254,23820.381784
1 Jan 2020 05:05:43.000,74.847,-79.091,23892.725506
1 Jan 2020 05:06:13.000,72.787,-78.925,23969.204901
1 Jan 2020 05:06:43.000,70.794,-78.756,24049.725417
1 Jan 2020 05:07:13.000,68.867,-78.586,24134.189259
1 Jan 2020 05:07:43.000,67.004,-78.415,24222.495769
1 Jan 2020 05:08:13.000,65.201,-78.244,24314.541678
1 Jan 2020 05:08:43.000,63.457,-78.073,24410.221366
1 Jan 2020 05:09:13.000,61.768,-77.904,24509.427102
1 Jan 2020 05:09:43.000,60.132,-77.736,24612.049296
1 Jan 2020 05:10:13.000,58.546,-77.571,24717.976944
1 Jan 2020 05:10:43.000,57.008,-77.409,24827.097031
1 Jan 2020 05:11:13.000,55.515,-77.250,24939.295988
1 Jan 2020 05:11:43.000,54.064,-77.094,25054.459095
1 Jan 2020 05:12:13.000,52.654,-76.943,25172.470895
1 Jan 2020 05:12:43.000,51.282,-76.797,25293.215390
1 Jan 2020 05:13:13.000,49.945,-76.655,25416.576231
1 Jan 2020 05:13:43.000,48.642,-76.519,25542.436903
1 Jan 2020 05:14:13.000,47.371,-76.388,25670.680897
1 Jan 2020 05:14:43.000,46.129,-76.262,25801.191868
1 Jan 2020 05:15:13.000,44.915,-76.142,25933.853790
1 Jan 2020 05:15:43.000,43.728,-76.028,26068.551099
1 Jan 2020 05:15:52.864,43.343,-75.992,26113.266514
1 Jan 2020 06:52:29.183,140.832,-75.986,26106.236637
1 Jan 2020 06:52:59.000,139.556,-76.089,25982.063325
1 Jan 2020 06:53:29.000,138.246,-76.197,25859.212243
1 Jan 2020 06:53:59.000,136.907,-76.309,25738.556919
1 Jan 2020 06:54:29.000,135.540,-76.426,25620.200679
1 Jan 2020 06:54:59.000,134.141,-76.547,25504.246787
1 Jan 2020 06:55:29.000,132.710,-76.672,25390.798310
1 Jan 2020 06:55:59.000,131.244,-76.800,25279.957966
1 Jan 2020 06:56:29.000,129.743,-76.931,25171.827975
1 Jan 2020 06:56:59.000,128.204,-77.066,25066.509896
1 Jan 2020 06:57:29.000,126.625,-77.202,24964.104457
1 Jan 2020 06:57:59.000,125.006,-77.341,24864.711386
1 Jan 2020 06:58:29.000,123.343,-77.481,24768.429030
1 Jan 2020 06:58:59.000,121.636,-77.623,24675.354965
1 Jan 2020 06:59:29.000,119.883,-77.765,24585.584605
1 Jan 2020 06:59:59.000,118.082,-77.907,24499.211809
1 Jan 2020 07:00:29.000,116.232,-78.048,24416.328486
1 Jan 2020 07:00:59.000,114.330,-78.189,24337.024387
1 Jan 2020 07:01:29.000,112.377,-78.327,24261.386903
1 Jan 2020 07:01:59.000,110.371,-78.463,24189.500860
1 Jan 2020 07:02:29.000,108.312,-78.596,24121.448190
1 Jan 2020 07:02:59.000,106.198,-78.726,24057.308223
1 Jan 2020 07:03:29.000,104.031,-78.851,23997.156724
1 Jan 2020 07:03:59.000,101.810,-78.970,23941.066209
1 Jan 2020 07:04:29.000,99.535,-79.084,23889.105617
1 Jan 2020 07:04:59.000,97.209,-79.191,23841.340114
1 Jan 2020 07:05:29.000,94.833,-79.291,23797.830914
1 Jan 2020 07:05:59.000,92.410,-79.382,23758.635098
1 Jan 2020 07:06:29.000,89.942,-79.465,23723.805383
1 Jan 2020 07:06:59.000,87.433,-79.539,23693.390223
1 Jan 2020 07:07:29.000,84.888,-79.602,23667.433255
1 Jan 2020 07:07:59.000,82.311,-79.656,23645.973441
1 Jan 2020 07:08:29.000,79.708,-79.698,23629.044877
1 Jan 2020 07:08:59.000,77.083,-79.730,23616.676676
1 Jan 2020 07:09:29.000,74.444,-79.749,23608.892880
1 Jan 2020 07:09:59.000,71.797,-79.758,23605.712384
1 Jan 2020 07:10:29.000,69.149,-79.754,23607.148847
1 Jan 2020 07:10:59.000,66.505,-79.739,23613.210668
1 Jan 2020 07:11:29.000,63.873,-79.712,23623.900953
1 Jan 2020 07:11:59.000,61.260,-79.673,23639.217494
1 Jan 2020 07:12:29.000,58.670,-79.624,23659.152774
1 Jan 2020 07:12:59.000,56.111,-79.563,23683.693988
1 Jan 2020 07:13:29.000,53.586,-79.493,23712.823154
1 Jan 2020 07:13:59.000,51.102,-79.412,23746.516870
1 Jan 2020 07:14:29.000,48.662,-79.322,23784.746813
1 Jan 2020 07:14:59.000,46.269,-79.224,23827.479545
1 Jan 2020 07:15:29.000,43.926,-79.118,23874.676681
1 Jan 2020 07:15:59.000,41.637,-79.004,23926.294998
1 Jan 2020 07:16:29.000,39.402,-78.884,23982.286563
1 Jan 2020 07:16:59.000,37.223,-78.758,24042.599002
1 Jan 2020 07:17:29.000,35.100,-78.627,24107.175126
1 Jan 2020 07:17:59.000,33.034,-78.492,24175.953863
1 Jan 2020 07:18:29.000,31.025,-78.353,24248.869917
1 Jan 2020 07:18:59.000,29.072,-78.211,24325.854070
1 Jan 2020 07:19:29.000,27.175,-78.067,24406.833361
1 Jan 2020 07:19:59.000,25.332,-77.922,24491.731276
1 Jan 2020 07:20:29.000,23.542,-77.776,24580.467936
1 Jan 2020 07:20:59.000,21.804,-77.629,24672.960492
1 Jan 2020 07:21:29.000,20.117,-77.483,24769.122543
1 Jan 2020 07:21:59.000,18.478,-77.338,24868.865487
1 Jan 2020 07:22:29.000,16.886,-77.194,24972.097959
1 Jan 2020 07:22:59.000,15.340,-77.053,25078.726215
1 Jan 2020 07:23:29.000,13.837,-76.914,25188.654328
1 Jan 2020 07:23:59.000,12.376,-76.777,25301.784383
1 Jan 2020 07:24:29.000,10.955,-76.645,25418.016664
1 Jan 2020 07:24:59.000,9.573,-76.515,25537.249839
1 Jan 2020 07:25:29.000,8.227,-76.390,25659.381146
1 Jan 2020 07:25:59.000,6.917,-76.269,25784.306564
1 Jan 2020 07:26:29.000,5.640,-76.153,25911.921256
1 Jan 2020 07:26:59.000,4.395,-76.042,26042.118660
1 Jan 2020 07:27:13.533,3.803,-75.990,26106.089022
1 Jan 2020 08:57:04.067,136.657,-75.988,26104.073387
1 Jan 2020 08:57:34.000,136.228,-76.135,25928.580125
1 Jan 2020 08:58:04.000,135.790,-76.294,25754.569915
1 Jan 2020 08:58:34.000,135.343,-76.464,25582.593579
1 Jan 2020 08:59:04.000,134.887,-76.646,25412.810264
1 Jan 2020 08:59:34.000,134.419,-76.840,25245.380793
1 Jan 2020 09:00:04.000,133.939,-77.046,25080.467489
1 Jan 2020 09:00:34.000,133.445,-77.264,24918.233984
1 Jan 2020 09:01:04.000,132.935,-77.494,24758.845007
1 Jan 2020 09:01:34.000,132.407,-77.735,24602.466158
1 Jan 2020 09:02:04.000,131.860,-77.989,24449.263649
1 Jan 2020 09:02:34.000,131.290,-78.254,24299.403762
1 Jan 2020 09:03:04.000,130.694,-78.531,24153.053676
1 Jan 2020 09:03:34.000,130.070,-78.819,24010.379458
1 Jan 2020 09:04:04.000,129.413,-79.119,23871.546869
1 Jan 2020 09:04:34.000,128.720,-79.430,23736.720721
1 Jan 2020 09:05:04.000,127.985,-79.751,23606.064505
1 Jan 2020 09:05:34.000,127.203,-80.083,23479.739996
1 Jan 2020 09:06:04.000,126.366,-80.425,23357.906618
1 Jan 2020 09:06:34.000,125.466,-80.777,23240.721919
1 Jan 2020 09:07:04.000,124.495,-81.138,23128.339762
1 Jan 2020 09:07:34.000,123.440,-81.507,23020.910789
1 Jan 2020 09:08:04.000,122.287,-81.884,22918.581720
1 Jan 2020 09:08:34.000,121.020,-82.268,22821.494882
1 Jan 2020 09:09:04.000,119.618,-82.658,22729.787558
1 Jan 2020 09:09:34.000,118.057,-83.053,22643.592199
1 Jan 2020 09:10:04.000,116.303,-83.452,22563.034888
1 Jan 2020 09:10:34.000,114.319,-83.852,22488.235582
1 Jan 2020 09:11:04.000,112.054,-84.253,22419.307464
1 Jan 2020 09:11:34.000,109.447,-84.650,22356.356492
1 Jan 2020 09:12:04.000,106.419,-85.043,22299.480853
1 Jan 2020 09:12:34.000,102.870,-85.426,22248.771014
1 Jan 2020 09:13:04.000,98.680,-85.794,22204.308614
1 Jan 2020 09:13:34.000,93.702,-86.141,22166.166602
1 Jan 2020 09:14:04.000,87.779,-86.459,22134.408779
1 Jan 2020 09:14:34.000,80.761,-86.736,22109.089477
1 Jan 2020 09:15:04.000,72.573,-86.959,22090.253471
1 Jan 2020 09:15:34.000,63.290,-87.115,22077.935503
1 Jan 2020 09:16:04.000,53.226,-87.192,22072.160316
1 Jan 2020 09:16:34.000,42.924,-87.181,22072.942480
1 Jan 2020 09:17:04.000,33.005,-87.085,22080.286356
1 Jan 2020 09:17:34.000,23.968,-86.911,22094.185978
1 Jan 2020 09:18:04.000,16.066,-86.673,22114.625207
1 Jan 2020 09:18:34.000,9.334,-86.384,22141.577739
1 Jan 2020 09:19:04.000,3.669,-86.057,22175.007241
1 Jan 2020 09:19:34.000,358.918,-85.703,22214.867619
1 Jan 2020 09:20:04.000,354.924,-85.329,22261.102873
1 Jan 2020 09:20:34.000,351.547,-84.941,22313.647870
1 Jan 2020 09:21:04.000,348.670,-84.545,22372.428307
1 Jan 2020 09:21:34.000,346.200,-84.144,22437.361121
1 Jan 2020 09:22:04.000,344.061,-83.740,22508.354995
1 Jan 2020 09:22:34.000,342.195,-83.337,22585.310185
1 Jan 2020 09:23:04.000,340.556,-82.937,22668.119761
1 Jan 2020 09:23:34.000,339.105,-82.540,22756.669503
1 Jan 2020 09:24:04.000,337.814,-82.148,22850.838480
1 Jan 2020 09:24:34.000,336.657,-81.763,22950.499516
1 Jan 2020 09:25:04.000,335.616,-81.384,23055.519877
1 Jan 2020 09:25:34.000,334.674,-81.014,23165.760877
1 Jan 2020 09:26:04.000,333.818,-80.652,23281.079645
1 Jan 2020 09:26:34.000,333.038,-80.300,23401.328744
1 Jan 2020 09:27:04.000,332.323,-79.957,23526.356853
1 Jan 2020 09:27:34.000,331.667,-79.625,23656.009222
1 Jan 2020 09:28:04.000,331.062,-79.303,23790.128120
1 Jan 2020 09:28:34.000,330.504,-78.993,23928.553541
1 Jan 2020 09:29:04.000,329.987,-78.693,24071.122543
1 Jan 2020 09:29:34.000,329.507,-78.405,24217.671263
1 Jan 2020 09:30:04.000,329.060,-78.129,24368.034229
1 Jan 2020 09:30:34.000,328.645,-77.865,24522.044996
1 Jan 2020 09:31:04.000,328.257,-77.613,24679.536489
1 Jan 2020 09:31:34.000,327.894,-77.373,24840.341330
1 Jan 2020 09:32:04.000,327.555,-77.145,25004.292140
1 Jan 2020 09:32:34.000,327.238,-76.930,25171.221824
1 Jan 2020 09:33:04.000,326.941,-76.727,25340.963839
1 Jan 2020 09:33:34.000,326.662,-76.535,25513.352431
1 Jan 2020 09:34:04.000,326.400,-76.357,25688.223211
1 Jan 2020 09:34:34.000,326.154,-76.190,25865.411976
1 Jan 2020 09:35:04.000,325.924,-76.035,26044.756961
1 Jan 2020 09:35:13.862,325.851,-75.987,26104.155037
1 Jan 2020 11:01:24.425,160.224,-75.992,26108.685181
1 Jan 2020 11:01:54.000,161.005,-76.125,25948.173714
1 Jan 2020 11:02:24.000,161.826,-76.270,25787.755421
1 Jan 2020 11:02:54.000,162.679,-76.424,25629.898615
1 Jan 2020 11:03:24.000,163.565,-76.586,25474.746565
1 Jan 2020 11:03:54.000,164.487,-76.758,25322.442575
1 Jan 2020 11:04:24.000,165.448,-76.937,25173.129771
1 Jan 2020 11:04:54.000,166.450,-77.125,25026.950872
1 Jan 2020 11:05:24.000,167.496,-77.321,24884.047954
1 Jan 2020 11:05:54.000,168.589,-77.525,24744.562194
1 Jan 2020 11:06:24.000,169.734,-77.735,24608.633330
1 Jan 2020 11:06:54.000,170.933,-77.953,24476.400485
1 Jan 2020 11:07:24.000,172.192,-78.177,24348.000213
1 Jan 2020 11:07:54.000,173.514,-78.406,24223.567312
1 Jan 2020 11:08:24.000,174.904,-78.641,24103.234229
1 Jan 2020 11:08:54.000,176.368,-78.880,23987.130743
1 Jan 2020 11:09:24.000,177.911,-79.123,23875.383632
1 Jan 2020 11:09:54.000,179.539,-79.368,23768.116119
1 Jan 2020 11:10:24.000,181.259,-79.615,23665.448416
1 Jan 2020 11:10:54.000,183.077,-79.864,23567.496043
1 Jan 2020 11:11:24.000,185.001,-80.112,23474.370386
1 Jan 2020 11:11:54.000,187.037,-80.358,23386.178123
1 Jan 2020 11:12:24.000,189.193,-80.602,23303.020890
1 Jan 2020 11:12:54.000,191.476,-80.841,23224.994784
1 Jan 2020 11:13:24.000,193.893,-81.075,23152.190692
1 Jan 2020 11:13:54.000,196.451,-81.301,23084.692986
1 Jan 2020 11:14:24.000,199.155,-81.518,23022.579891
1 Jan 2020 11:14:54.000,202.008,-81.723,22965.923036
1 Jan 2020 11:15:24.000,205.012,-81.916,22914.787184
1 Jan 2020 11:15:54.000,208.168,-82.094,22869.229886
1 Jan 2020 11:16:24.000,211.470,-82.255,22829.301688
1 Jan 2020 11:16:54.000,214.912,-82.396,22795.045275
1 Jan 2020 11:17:24.000,218.481,-82.518,22766.495752
1 Jan 2020 11:17:54.000,222.163,-82.616,22743.680394
1 Jan 2020 11:18:24.000,225.936,-82.691,22726.618531
1 Jan 2020 11:18:54.000,229.778,-82.742,22715.321440
1 Jan 2020 11:19:24.000,233.661,-82.766,22709.792447
1 Jan 2020 11:19:54.000,237.557,-82.765,22710.026673
1 Jan 2020 11:20:24.000,241.437,-82.738,22716.011232
1 Jan 2020 11:20:54.000,245.272,-82.686,22727.725233
1 Jan 2020 11:21:24.000,249.037,-82.609,22745.139871
1 Jan 2020 11:21:54.000,252.709,-82.509,22768.218582
1 Jan 2020 11:22:24.000,256.269,-82.387,22796.917045
1 Jan 2020 11:22:54.000,259.701,-82.245,22831.183567
1 Jan 2020 11:23:24.000,262.997,-82.085,22870.959159
1 Jan 2020 11:23:54.000,266.148,-81.909,22916.177800
1 Jan 2020 11:24:24.000,269.153,-81.718,22966.766690
1 Jan 2020 11:24:54.000,272.011,-81.515,23022.646631
1 Jan 2020 11:25:24.000,274.725,-81.302,23083.731912
1 Jan 2020 11:25:54.000,277.299,-81.080,23149.931219
1 Jan 2020 11:26:24.000,279.739,-80.851,23221.147571
1 Jan 2020 11:26:54.000,282.051,-80.616,23297.278753
1 Jan 2020 11:27:24.000,284.242,-80.378,23378.217654
1 Jan 2020 11:27:54.000,286.320,-80.137,23463.852628
1 Jan 2020 11:28:24.000,288.292,-79.896,23554.068016
1 Jan 2020 11:28:54.000,290.166,-79.654,23648.743803
1 Jan 2020 11:29:24.000,291.947,-79.413,23747.757014
1 Jan 2020 11:29:54.000,293.644,-79.174,23850.981380
1 Jan 2020 11:30:24.000,295.261,-78.938,23958.287852
1 Jan 2020 11:30:54.000,296.806,-78.705,24069.544945
1 Jan 2020 11:31:24.000,298.284,-78.477,24184.619063
1 Jan 2020 11:31:54.000,299.699,-78.254,24303.374826
1 Jan 2020 11:32:24.000,301.057,-78.036,24425.675380
1 Jan 2020 11:32:54.000,302.362,-77.824,24551.382950
1 Jan 2020 11:33:24.000,303.618,-77.619,24680.358115
1 Jan 2020 11:33:54.000,304.829,-77.420,24812.461590
1 Jan 2020 11:34:24.000,305.999,-77.229,24947.553486
1 Jan 2020 11:34:54.000,307.130,-77.044,25085.493804
1 Jan 2020 11:35:24.000,308.226,-76.868,25226.142664
1 Jan 2020 11:35:54.000,309.289,-76.699,25369.360527
1 Jan 2020 11:36:24.000,310.323,-76.538,25515.008390
1 Jan 2020 11:36:54.000,311.328,-76.386,25662.947978
1 Jan 2020 11:37:24.000,312.308,-76.242,25813.041918
1 Jan 2020 11:37:54.000,313.265,-76.106,25965.153899
1 Jan 2020 11:38:22.048,314.140,-75.987,26109.075714
1 Jan 2020 13:13:07.174,207.910,-75.993,26116.547544
1 Jan 2020 13:13:37.000,209.257,-76.089,26000.027669
1 Jan 2020 13:14:07.000,210.639,-76.189,25885.104558
1 Jan 2020 13:14:37.000,212.050,-76.293,25772.557235
1 Jan 2020 13:15:07.000,213.490,-76.400,25662.477322
1 Jan 2020 13:15:37.000,214.962,-76.510,25554.955768
1 Jan 2020 13:16:07.000,216.466,-76.622,25450.082713
1 Jan 2020 13:16:37.000,218.004,-76.737,25347.947355
1 Jan 2020 13:17:07.000,219.576,-76.855,25248.637806
1 Jan 2020 13:17:37.000,221.185,-76.973,25152.240949
1 Jan 2020 13:18:07.000,222.830,-77.093,25058.842289
1 Jan 2020 13:18:37.000,224.514,-77.214,24968.525619
1 Jan 2020 13:19:07.000,226.238,-77.336,24881.373600
1 Jan 2020 13:19:37.000,228.002,-77.457,24797.466492
1 Jan 2020 13:20:07.000,229.807,-77.578,24716.882743
1 Jan 2020 13:20:37.000,231.654,-77.697,24639.698640
1 Jan 2020 13:21:07.000,233.544,-77.816,24565.988149
1 Jan 2020 13:21:37.000,235.477,-77.932,24495.822755
1 Jan 2020 13:22:07.000,237.453,-78.045,24429.271302
1 Jan 2020 13:22:37.000,239.473,-78.156,24366.399836
1 Jan 2020 13:23:07.000,241.535,-78.263,24307.271325
1 Jan 2020 13:23:37.000,243.640,-78.365,24251.946017
1 Jan 2020 13:24:07.000,245.787,-78.463,24200.480513
1 Jan 2020 13:24:37.000,247.975,-78.555,24152.928155
1 Jan 2020 13:25:07.000,250.201,-78.641,24109.338754
1 Jan 2020 13:25:37.000,252.465,-78.721,24069.758458
1 Jan 2020 13:26:07.000,254.763,-78.794,24034.229633
1 Jan 2020 13:26:37.000,257.094,-78.860,24002.790746
1 Jan 2020 13:27:07.000,259.453,-78.918,23975.476210
1 Jan 2020 13:27:37.000,261.838,-78.967,23952.316506
1 Jan 2020 13:28:07.000,264.245,-79.008,23933.337754
1 Jan 2020 13:28:37.000,266.670,-79.040,23918.561880
1 Jan 2020 13:29:07.000,269.109,-79.063,23908.006486
1 Jan 2020 13:29:37.000,271.557,-79.077,23901.684807
1 Jan 2020 13:30:07.000,274.010,-79.082,23899.605662
1 Jan 2020 13:30:37.000,276.462,-79.077,23901.773439
1 Jan 2020 13:31:07.000,278.910,-79.062,23908.188093
1 Jan 2020 13:31:37.000,281.348,-79.039,23918.845073
1 Jan 2020 13:32:07.000,283.773,-79.006,23933.735437
1 Jan 2020 13:32:37.000,286.180,-78.965,23952.845814
1 Jan 2020 13:33:07.000,288.564,-78.915,23976.158457
1 Jan 2020 13:33:37.000,290.923,-78.857,24003.651289
1 Jan 2020 13:34:07.000,293.252,-78.790,24035.297967
1 Jan 2020 13:34:37.000,295.549,-78.717,24071.067952
1 Jan 2020 13:35:07.000,297.811,-78.636,24110.926690
1 Jan 2020 13:35:37.000,300.035,-78.549,24154.835333
1 Jan 2020 13:36:07.000,302.220,-78.456,24202.751386
1 Jan 2020 13:36:37.000,304.364,-78.357,24254.628466
1 Jan 2020 13:37:07.000,306.466,-78.254,24310.416508
1 Jan 2020 13:37:37.000,308.524,-78.146,24370.061896
1 Jan 2020 13:38:07.000,310.539,-78.035,24433.507595
1 Jan 2020 13:38:37.000,312.510,-77.920,24500.693291
1 Jan 2020 13:39:07.000,314.438,-77.803,24571.555540
1 Jan 2020 13:39:37.000,316.321,-77.684,24646.028085
1 Jan 2020 13:40:07.000,318.161,-77.563,24724.041337
1 Jan 2020 13:40:37.000,319.959,-77.441,24805.523529
1 Jan 2020 13:41:07.000,321.714,-77.319,24890.400217
1 Jan 2020 13:41:37.000,323.428,-77.196,24978.594599
1 Jan 2020 13:42:07.000,325.102,-77.075,25070.027675
1 Jan 2020 13:42:37.000,326.738,-76.953,25164.618404
1 Jan 2020 13:43:07.000,328.335,-76.834,25262.283864
1 Jan 2020 13:43:37.000,329.895,-76.716,25362.939404
1 Jan 2020 13:44:07.000,331.420,-76.600,25466.498802
1 Jan 2020 13:44:37.000,332.910,-76.486,25572.874410
1 Jan 2020 13:45:07.000,334.368,-76.376,25681.977541
1 Jan 2020 13:45:37.000,335.793,-76.268,25793.717676
1 Jan 2020 13:46:07.000,337.188,-76.164,25908.003997
1 Jan 2020 13:46:37.000,338.554,-76.063,26024.744601
1 Jan 2020 13:47:00.196,339.590,-75.988,26116.630800
1 Jan 2020 15:20:12.295,225.730,-75.992,26120.691876
1 Jan 2020 15:20:42.000,226.507,-76.126,25959.776143
1 Jan 2020 15:21:12.000,227.310,-76.270,25799.115223
1 Jan 2020 15:21:42.000,228.133,-76.425,25640.461482
1 Jan 2020 15:22:12.000,228.978,-76.589,25483.960137
1 Jan 2020 15:22:42.000,229.847,-76.762,25329.757721
1 Jan 2020 15:23:12.000,230.742,-76.945,25178.001926
1 Jan 2020 15:23:42.000,231.665,-77.137,25028.841416
1 Jan 2020 15:24:12.000,232.620,-77.339,24882.425636
1 Jan 2020 15:24:42.000,233.610,-77.549,24738.904599
1 Jan 2020 15:25:12.000,234.638,-77.768,24598.428656
1 Jan 2020 15:25:42.000,235.707,-77.996,24461.148251
1 Jan 2020 15:26:12.000,236.821,-78.233,24327.213392
1 Jan 2020 15:26:42.000,237.986,-78.477,24196.774455
1 Jan 2020 15:27:12.000,239.206,-78.728,24069.980248
1 Jan 2020 15:27:42.000,240.486,-78.987,23946.978805
1 Jan 2020 15:28:12.000,241.834,-79.252,23827.916780
1 Jan 2020 15:28:42.000,243.254,-79.523,23712.939102
1 Jan 2020 15:29:12.000,244.756,-79.799,23602.188628
1 Jan 2020 15:29:42.000,246.347,-80.079,23495.805581
1 Jan 2020 15:30:12.000,248.037,-80.363,23393.927933
1 Jan 2020 15:30:42.000,249.836,-80.649,23296.689871
1 Jan 2020 15:31:12.000,251.755,-80.937,23204.222175
1 Jan 2020 15:31:42.000,253.806,-81.224,23116.651622
1 Jan 2020 15:32:12.000,256.002,-81.510,23034.100585
1 Jan 2020 15:32:42.000,258.358,-81.792,22956.686502
1 Jan 2020 15:33:12.000,260.888,-82.070,22884.522010
1 Jan 2020 15:33:42.000,263.606,-82.340,22817.713733
1 Jan 2020 15:34:12.000,266.528,-82.601,22756.362452
1 Jan 2020 15:34:42.000,269.667,-82.851,22700.562591
1 Jan 2020 15:35:12.000,273.034,-83.085,22650.401859
1 Jan 2020 15:35:42.000,276.636,-83.302,22605.960829
1 Jan 2020 15:36:12.000,280.476,-83.499,22567.312938
1 Jan 2020 15:36:42.000,284.548,-83.672,22534.523696
1 Jan 2020 15:37:12.000,288.838,-83.819,22507.650756
1 Jan 2020 15:37:42.000,293.320,-83.936,22486.743588
1 Jan 2020 15:38:12.000,297.959,-84.021,22471.843264
1 Jan 2020 15:38:42.000,302.709,-84.072,22462.982293
1 Jan 2020 15:39:12.000,307.515,-84.088,22460.184482
1 Jan 2020 15:39:42.000,312.320,-84.069,22463.464803
1 Jan 2020 15:40:12.000,317.063,-84.015,22472.829363
1 Jan 2020 15:40:42.000,321.693,-83.927,22488.275364
1 Jan 2020 15:41:12.000,326.161,-83.807,22509.791178
1 Jan 2020 15:41:42.000,330.432,-83.657,22537.356170
1 Jan 2020 15:42:12.000,334.482,-83.480,22570.941108
1 Jan 2020 15:42:42.000,338.294,-83.280,22610.508084
1 Jan 2020 15:43:12.000,341.864,-83.059,22656.010729
1 Jan 2020 15:43:42.000,345.194,-82.820,22707.394401
1 Jan 2020 15:44:12.000,348.291,-82.566,22764.596560
1 Jan 2020 15:44:42.000,351.166,-82.300,22827.546463
1 Jan 2020 15:45:12.000,353.832,-82.024,22896.166266
1 Jan 2020 15:45:42.000,356.305,-81.742,22970.370799
1 Jan 2020 15:46:12.000,358.599,-81.454,23050.068024
1 Jan 2020 15:46:42.000,0.728,-81.162,23135.159380
1 Jan 2020 15:47:12.000,2.707,-80.869,23225.540340
1 Jan 2020 15:47:42.000,4.548,-80.576,23321.100014
1 Jan 2020 15:48:12.000,6.265,-80.284,23421.722671
1 Jan 2020 15:48:42.000,7.867,-79.995,23527.287379
1 Jan 2020 15:49:12.000,9.365,-79.709,23637.668577
1 Jan 2020 15:49:42.000,10.769,-79.427,23752.736471
1 Jan 2020 15:50:12.000,12.087,-79.151,23872.357421
1 Jan 2020 15:50:42.000,13.326,-78.881,23996.394585
1 Jan 2020 15:51:12.000,14.493,-78.618,24124.707277
1 Jan 2020 15:51:42.000,15.594,-78.362,24257.152853
1 Jan 2020 15:52:12.000,16.634,-78.114,24393.586070
1 Jan 2020 15:52:42.000,17.619,-77.874,24533.859682
1 Jan 2020 15:53:12.000,18.553,-77.643,24677.824778
1 Jan 2020 15:53:42.000,19.440,-77.421,24825.331100
1 Jan 2020 15:54:12.000,20.284,-77.208,24976.227353
1 Jan 2020 15:54:42.000,21.088,-77.005,25130.361496
1 Jan 2020 15:55:12.000,21.854,-76.812,25287.581019
1 Jan 2020 15:55:42.000,22.586,-76.628,25447.733529
1 Jan 2020 15:56:12.000,23.286,-76.455,25610.665689
1 Jan 2020 15:56:42.000,23.956,-76.292,25776.225398
1 Jan 2020 15:57:12.000,24.599,-76.139,25944.260706
1 Jan 2020 15:57:42.000,25.216,-75.997,26114.620336
1 Jan 2020 15:57:43.088,25.238,-75.992,26120.837891
1 Jan 2020 17:23:29.493,210.121,-75.989,26118.162971
1 Jan 2020 17:23:59.000,209.707,-76.134,25944.660830
1 Jan 2020 17:24:29.000,209.265,-76.292,25770.444387
1 Jan 2020 17:24:59.000,208.802,-76.462,25598.588830
1 Jan 2020 17:25:29.000,208.315,-76.643,25429.252821
1 Jan 2020 17:25:59.000,207.802,-76.836,25262.595953
1 Jan 2020 17:26:29.000,207.261,-77.040,25098.778540
1 Jan 2020 17:26:59.000,206.691,-77.255,24937.961397
1 Jan 2020 17:27:29.000,206.087,-77.481,24780.305601
1 Jan 2020 17:27:59.000,205.449,-77.718,24625.972226
1 Jan 2020 17:28:29.000,204.772,-77.966,24475.121786
1 Jan 2020 17:28:59.000,204.053,-78.225,24327.915079
1 Jan 2020 17:29:29.000,203.288,-78.493,24184.511147
1 Jan 2020 17:29:59.000,202.473,-78.772,24045.068100
1 Jan 2020 17:30:29.000,201.601,-79.061,23909.742475
1 Jan 2020 17:30:59.000,200.668,-79.358,23778.688869
1 Jan 2020 17:31:29.000,199.666,-79.665,23652.059558
1 Jan 2020 17:31:59.000,198.588,-79.979,23530.003854
1 Jan 2020 17:32:29.000,197.424,-80.301,23412.668683
1 Jan 2020 17:32:59.000,196.165,-80.630,23300.196674
1 Jan 2020 17:33:29.000,194.798,-80.964,23192.726735
1 Jan 2020 17:33:59.000,193.310,-81.304,23090.393364
1 Jan 2020 17:34:29.000,191.686,-81.647,22993.326213
1 Jan 2020 17:34:59.000,189.905,-81.992,22901.649460
1 Jan 2020 17:35:29.000,187.949,-82.338,22815.482136
1 Jan 2020 17:35:59.000,185.791,-82.684,22734.936539
1 Jan 2020 17:36:29.000,183.404,-83.027,22660.118594
1 Jan 2020 17:36:59.000,180.756,-83.364,22591.127246
1 Jan 2020 17:37:29.000,177.812,-83.693,22528.054071
1 Jan 2020 17:37:59.000,174.534,-84.011,22470.982773
1 Jan 2020 17:38:29.000,170.882,-84.314,22419.989372
1 Jan 2020 17:38:59.000,166.818,-84.598,22375.141060
1 Jan 2020 17:39:29.000,162.310,-84.857,22336.496472
1 Jan 2020 17:39:59.000,157.340,-85.087,22304.105286
1 Jan 2020 17:40:29.000,151.909,-85.282,22278.007949
1 Jan 2020 17:40:59.000,146.055,-85.436,22258.235719
1 Jan 2020 17:41:29.000,139.848,-85.544,22244.810169
1 Jan 2020 17:41:59.000,133.402,-85.602,22237.743334
1 Jan 2020 17:42:29.000,126.860,-85.608,22237.037590
1 Jan 2020 17:42:59.000,120.379,-85.562,22242.685654
1 Jan 2020 17:43:29.000,114.107,-85.465,22254.670593
1 Jan 2020 17:43:59.000,108.163,-85.322,22272.965911
1 Jan 2020 17:44:29.000,102.629,-85.137,22297.535678
1 Jan 2020 17:44:59.000,97.545,-84.916,22328.334680
1 Jan 2020 17:45:29.000,92.920,-84.664,22365.308698
1 Jan 2020 17:45:59.000,88.739,-84.388,22408.394476
1 Jan 2020 17:46:29.000,84.971,-84.091,22457.520380
1 Jan 2020 17:46:59.000,81.581,-83.779,22512.606463
1 Jan 2020 17:47:29.000,78.527,-83.456,22573.564859
1 Jan 2020 17:47:59.000,75.771,-83.123,22640.300148
1 Jan 2020 17:48:29.000,73.278,-82.786,22712.709891
1 Jan 2020 17:48:59.000,71.014,-82.445,22790.684445
1 Jan 2020 17:49:29.000,68.952,-82.103,22874.108252
1 Jan 2020 17:49:59.000,67.065,-81.762,22962.859704
1 Jan 2020 17:50:29.000,65.333,-81.422,23056.811722
1 Jan 2020 17:50:59.000,63.736,-81.087,23155.832204
1 Jan 2020 17:51:29.000,62.257,-80.756,23259.784655
1 Jan 2020 17:51:59.000,60.884,-80.430,23368.527886
1 Jan 2020 17:52:29.000,59.603,-80.111,23481.917566
1 Jan 2020 17:52:59.000,58.403,-79.800,23599.805926
1 Jan 2020 17:53:29.000,57.277,-79.496,23722.042355
1 Jan 2020 17:53:59.000,56.214,-79.201,23848.473824
1 Jan 2020 17:54:29.000,55.210,-78.914,23978.945273
1 Jan 2020 17:54:59.000,54.257,-78.637,24113.300003
1 Jan 2020 17:55:29.000,53.350,-78.369,24251.380310
1 Jan 2020 17:55:59.000,52.484,-78.111,24393.026770
1 Jan 2020 17:56:29.000,51.656,-77.864,24538.080154
1 Jan 2020 17:56:59.000,50.861,-77.627,24686.380697
1 Jan 2020 17:57:29.000,50.096,-77.400,24837.768651
1 Jan 2020 17:57:59.000,49.358,-77.184,24992.084559
1 Jan 2020 17:58:29.000,48.644,-76.979,25149.169516
1 Jan 2020 17:58:59.000,47.953,-76.784,25308.865400
1 Jan 2020 17:59:29.000,47.281,-76.601,25471.015098
1 Jan 2020 17:59:59.000,46.628,-76.428,25635.462703
1 Jan 2020 18:00:29.000,45.990,-76.266,25802.053699
1 Jan 2020 18:00:59.000,45.367,-76.115,25970.635125
1 Jan 2020 18:01:24.923,44.840,-75.993,26117.791169
1 Jan 2020 19:32:52.537,168.012,-75.986,26110.597600
1 Jan 2020 19:33:22.000,166.734,-76.086,25989.092423
1 Jan 2020 19:33:52.000,165.404,-76.192,25867.819777
1 Jan 2020 19:34:22.000,164.043,-76.303,25749.115395
1 Jan 2020 19:34:52.000,162.649,-76.417,25633.076036
1 Jan 2020 19:35:22.000,161.221,-76.534,25519.797451
1 Jan 2020 19:35:52.000,159.758,-76.655,25409.374235
1 Jan 2020 19:36:22.000,158.258,-76.778,25301.899670
1 Jan 2020 19:36:52.000,156.720,-76.904,25197.465571
1 Jan 2020 19:37:22.000,155.142,-77.032,25096.162123
1 Jan 2020 19:37:52.000,153.524,-77.161,24998.077711
1 Jan 2020 19:38:22.000,151.864,-77.291,24903.298548
1 Jan 2020 19:38:52.000,150.160,-77.422,24811.909354
1 Jan 2020 19:39:22.000,148.411,-77.553,24723.991893
1 Jan 2020 19:39:52.000,146.617,-77.684,24639.625673
1 Jan 2020 19:40:22.000,144.777,-77.814,24558.887550
1 Jan 2020 19:40:52.000,142.889,-77.942,24481.851561
1 Jan 2020 19:41:22.000,140.953,-78.068,24408.588752
1 Jan 2020 19:41:52.000,138.969,-78.191,24339.167011
1 Jan 2020 19:42:22.000,136.936,-78.311,24273.650766
1 Jan 2020 19:42:52.000,134.856,-78.427,24212.101391
1 Jan 2020 19:43:22.000,132.727,-78.538,24154.576193
1 Jan 2020 19:43:52.000,130.552,-78.644,24101.128845
1 Jan 2020 19:44:22.000,128.331,-78.744,24051.809096
1 Jan 2020 19:44:52.000,126.067,-78.838,24006.662645
1 Jan 2020 19:45:22.000,123.760,-78.925,23965.731011
1 Jan 2020 19:45:52.000,121.415,-79.004,23929.051349
1 Jan 2020 19:46:22.000,119.033,-79.075,23896.656656
1 Jan 2020 19:46:52.000,116.618,-79.137,23868.575199
1 Jan 2020 19:47:22.000,114.175,-79.191,23844.830769
1 Jan 2020 19:47:52.000,111.707,-79.235,23825.442524
1 Jan 2020 19:48:22.000,109.219,-79.270,23810.424939
1 Jan 2020 19:48:52.000,106.716,-79.295,23799.787765
1 Jan 2020 19:49:22.000,104.203,-79.309,23793.535990
1 Jan 2020 19:49:52.000,101.686,-79.314,23791.669893
1 Jan 2020 19:50:22.000,99.168,-79.308,23794.184931
1 Jan 2020 19:50:52.000,96.657,-79.292,23801.071842
1 Jan 2020 19:51:22.000,94.156,-79.266,23812.316652
1 Jan 2020 19:51:52.000,91.671,-79.231,23827.900718
1 Jan 2020 19:52:22.000,89.207,-79.186,23847.800790
1 Jan 2020 19:52:52.000,86.768,-79.131,23871.989124
1 Jan 2020 19:53:22.000,84.358,-79.068,23900.433393
1 Jan 2020 19:53:52.000,81.981,-78.997,23933.097031
1 Jan 2020 19:54:22.000,79.640,-78.918,23969.939188
1 Jan 2020 19:54:52.000,77.338,-78.831,24010.914878
1 Jan 2020 19:55:22.000,75.076,-78.738,24055.975114
1 Jan 2020 19:55:52.000,72.858,-78.639,24105.067042
1 Jan 2020 19:56:22.000,70.685,-78.534,24158.134084
1 Jan 2020 19:56:52.000,68.557,-78.424,24215.116217
1 Jan 2020 19:57:22.000,66.475,-78.310,24275.949658
1 Jan 2020 19:57:52.000,64.439,-78.192,24340.567719
1 Jan 2020 19:58:22.000,62.451,-78.071,24408.900526
1 Jan 2020 19:58:52.000,60.508,-77.947,24480.875301
1 Jan 2020 19:59:22.000,58.612,-77.822,24556.416537
1 Jan 2020 19:59:52.000,56.761,-77.695,24635.446175
1 Jan 2020 20:00:22.000,54.954,-77.567,24717.883778
1 Jan 2020 20:00:52.000,53.190,-77.439,24803.646714
1 Jan 2020 20:01:22.000,51.469,-77.311,24892.650504
1 Jan 2020 20:01:52.000,49.789,-77.184,24984.808296
1 Jan 2020 20:02:22.000,48.148,-77.058,25080.032084
1 Jan 2020 20:02:52.000,46.546,-76.933,25178.232182
1 Jan 2020 20:03:22.000,44.981,-76.810,25279.317566
1 Jan 2020 20:03:52.000,43.451,-76.690,25383.196035
1 Jan 2020 20:04:22.000,41.956,-76.572,25489.774364
1 Jan 2020 20:04:52.000,40.493,-76.457,25598.958464
1 Jan 2020 20:05:22.000,39.062,-76.345,25710.653523
1 Jan 2020 20:05:52.000,37.661,-76.237,25824.764152
1 Jan 2020 20:06:22.000,36.288,-76.133,25941.194517
1 Jan 2020 20:06:52.000,34.943,-76.033,26059.848475
1 Jan 2020 20:07:04.643,34.384,-75.992,26110.494090
1 Jan 2020 21:43:02.325,134.899,-75.987,26104.745458
1 Jan 2020 21:43:32.000,133.839,-76.105,25961.924520
1 Jan 2020 21:44:02.000,132.744,-76.232,25819.463993
1 Jan 2020 21:44:32.000,131.622,-76.366,25679.065269
1 Jan 2020 21:45:02.000,130.472,-76.507,25540.854537
1 Jan 2020 21:45:32.000,129.293,-76.655,25404.958708
1 Jan 2020 21:46:02.000,128.081,-76.809,25271.505258
1 Jan 2020 21:46:32.000,126.834,-76.969,25140.622058
1 Jan 2020 21:47:02.000,125.550,-77.136,25012.437198
1 Jan 2020 21:47:32.000,124.226,-77.308,24887.078794
1 Jan 2020 21:48:02.000,122.860,-77.485,24764.674785
1 Jan 2020 21:48:32.000,121.447,-77.668,24645.352715
1 Jan 2020 21:49:02.000,119.986,-77.855,24529.239282
1 Jan 2020 21:49:32.000,118.472,-78.046,24416.461021
1 Jan 2020 21:50:02.000,116.902,-78.240,24307.142657
1 Jan 2020 21:50:32.000,115.273,-78.438,24201.407788
1 Jan 2020 21:51:02.000,113.580,-78.638,24099.378376
1 Jan 2020 21:51:32.000,111.820,-78.839,24001.174472
1 Jan 2020 21:52:02.000,109.987,-79.042,23906.913929
1 Jan 2020 21:52:32.000,108.079,-79.244,23816.712111
1 Jan 2020 21:53:02.000,106.092,-79.445,23730.681437
1 Jan 2020 21:53:32.000,104.020,-79.644,23648.931729
1 Jan 2020 21:54:02.000,101.860,-79.841,23571.568917
1 Jan 2020 21:54:32.000,99.609,-80.033,23498.695406
1 Jan 2020 21:55:02.000,97.263,-80.220,23430.409603
1 Jan 2020 21:55:32.000,94.820,-80.401,23366.805614
1 Jan 2020 21:56:02.000,92.279,-80.574,23307.972952
1 Jan 2020 21:56:32.000,89.638,-80.737,23253.996149
1 Jan 2020 21:57:02.000,86.899,-80.891,23204.954871
1 Jan 2020 21:57:32.000,84.063,-81.032,23160.923044
1 Jan 2020 21:58:02.000,81.135,-81.161,23121.969010
1 Jan 2020 21:58:32.000,78.120,-81.275,23088.155180
1 Jan 2020 21:59:02.000,75.025,-81.373,23059.537813
1 Jan 2020 21:59:32.000,71.861,-81.455,23036.166776
1 Jan 2020 22:00:02.000,68.638,-81.519,23018.085488
1 Jan 2020 22:00:32.000,65.370,-81.565,23005.330555
1 Jan 2020 22:01:02.000,62.073,-81.592,22997.931773
1 Jan 2020 22:01:32.000,58.760,-81.599,22995.911977
1 Jan 2020 22:02:02.000,55.449,-81.587,22999.286951
1 Jan 2020 22:02:32.000,52.157,-81.555,23008.065403
1 Jan 2020 22:03:02.000,48.898,-81.504,23022.248789
1 Jan 2020 22:03:32.000,45.687,-81.435,23041.831501
1 Jan 2020 22:04:02.000,42.538,-81.348,23066.800765
1 Jan 2020 22:04:32.000,39.462,-81.245,23097.136715
1 Jan 2020 22:05:02.000,36.470,-81.125,23132.812466
1 Jan 2020 22:05:32.000,33.568,-80.991,23173.794314
1 Jan 2020 22:06:02.000,30.763,-80.844,23220.041462
1 Jan 2020 22:06:32.000,28.058,-80.684,23271.506746
1 Jan 2020 22:07:02.000,25.456,-80.514,23328.136431
1 Jan 2020 22:07:32.000,22.957,-80.335,23389.870488
1 Jan 2020 22:08:02.000,20.562,-80.148,23456.642804
1 Jan 2020 22:08:32.000,18.267,-79.955,23528.381412
1 Jan 2020 22:09:02.000,16.072,-79.756,23605.008913
1 Jan 2020 22:09:32.000,13.972,-79.553,23686.441996
1 Jan 2020 22:10:02.000,11.964,-79.347,23772.592797
1 Jan 2020 22:10:32.000,10.045,-79.139,23863.368451
1 Jan 2020 22:11:02.000,8.210,-78.930,23958.671557
1 Jan 2020 22:11:32.000,6.456,-78.722,24058.400464
1 Jan 2020 22:12:02.000,4.777,-78.514,24162.449560
1 Jan 2020 22:12:32.000,3.171,-78.308,24270.709567
1 Jan 2020 22:13:02.000,1.633,-78.105,24383.068086
1 Jan 2020 22:13:32.000,0.159,-77.905,24499.408882
1 Jan 2020 22:14:02.000,358.745,-77.709,24619.613668
1 Jan 2020 22:14:32.000,357.388,-77.518,24743.561399
1 Jan 2020 22:15:02.000,356.085,-77.331,24871.128796
1 Jan 2020 22:15:32.000,354.832,-77.151,25002.190610
1 Jan 2020 22:16:02.000,353.627,-76.975,25136.619893
1 Jan 2020 22:16:32.000,352.466,-76.807,25274.288243
1 Jan 2020 22:17:02.000,351.348,-76.645,25415.066053
1 Jan 2020 22:17:32.000,350.268,-76.490,25558.822743
1 Jan 2020 22:18:02.000,349.226,-76.342,25705.427279
1 Jan 2020 22:18:32.000,348.218,-76.202,25854.747214
1 Jan 2020 22:19:02.000,347.243,-76.069,26006.650637
1 Jan 2020 22:19:21.066,346.640,-75.989,26104.470467
1 Jan 2020 23:46:16.542,142.328,-75.989,26105.000773
1 Jan 2020 23:46:46.000,142.348,-76.138,25926.854187
1 Jan 2020 23:47:16.000,142.376,-76.302,25747.417641
1 Jan 2020 23:47:46.000,142.412,-76.479,25570.149904
1 Jan 2020 23:48:16.000,142.456,-76.668,25395.215611
1 Jan 2020 23:48:46.000,142.510,-76.870,25222.780936
1 Jan 2020 23:49:16.000,142.573,-77.084,25053.013410
1 Jan 2020 23:49:46.000,142.646,-77.311,24886.081704
1 Jan 2020 23:50:16.000,142.731,-77.551,24722.155405
1 Jan 2020 23:50:46.000,142.827,-77.804,24561.404767
1 Jan 2020 23:51:16.000,142.935,-78.070,24404.000438
1 Jan 2020 23:51:46.000,143.057,-78.348,24250.112863
1 Jan 2020 23:52:16.000,143.194,-78.639,24099.913202
1 Jan 2020 23:52:46.000,143.347,-78.942,23953.571135
1 Jan 2020 23:53:16.000,143.518,-79.258,23811.255752
1 Jan 2020 23:53:46.000,143.708,-79.587,23673.134861
1 Jan 2020 23:54:16.000,143.920,-79.927,23539.374591
1 Jan 2020 23:54:46.000,144.157,-80.279,23410.138972
1 Jan 2020 23:55:16.000,144.422,-80.643,23285.589257
1 Jan 2020 23:55:46.000,144.718,-81.018,23165.884460
1 Jan 2020 23:56:16.000,145.050,-81.404,23051.179389
1 Jan 2020 23:56:46.000,145.425,-81.801,22941.625180
1 Jan 2020 23:57:16.000,145.848,-82.208,22837.368551
1 Jan 2020 23:57:46.000,146.330,-82.624,22738.551314
1 Jan 2020 23:58:16.000,146.880,-83.050,22645.309686
1 Jan 2020 23:58:46.000,147.515,-83.484,22557.774559
1 Jan 2020 23:59:16.000,148.253,-83.926,22476.069845
1 Jan 2020 23:59:46.000,149.120,-84.375,22400.312778
2 Jan 2020 00:00:16.000,150.151,-84.830,22330.613245
2 Jan 2020 00:00:46.000,151.395,-85.291,22267.073213
2 Jan 2020 00:01:16.000,152.924,-85.755,22209.786778
2 Jan 2020 00:01:46.000,154.844,-86.221,22158.839018
2 Jan 2020 00:02:16.000,157.319,-86.687,22114.306117
2 Jan 2020 00:02:46.000,160.618,-87.149,22076.254891
2 Jan 2020 00:03:16.000,165.195,-87.602,22044.742425
2 Jan 2020 00:03:46.000,171.867,-88.036,22019.816051
2 Jan 2020 00:04:16.000,182.116,-88.431,22001.512733
2 Jan 2020 00:04:46.000,198.331,-88.747,21989.859163
2 Jan 2020 00:05:16.000,222.043,-88.910,21984.871564
2 Jan 2020 00:05:46.000,248.073,-88.852,21986.555616
2 Jan 2020 00:06:16.000,268.048,-88.600,21994.906415
2 Jan 2020 00:06:46.000,280.897,-88.237,22009.908495
2 Jan 2020 00:07:16.000,289.098,-87.819,22031.535919
2 Jan 2020 00:07:46.000,294.590,-87.374,22059.752395
2 Jan 2020 00:08:16.000,298.469,-86.916,22094.511524
2 Jan 2020 00:08:46.000,301.338,-86.452,22135.756735
2 Jan 2020 00:09:16.000,303.541,-85.987,22183.421957
2 Jan 2020 00:09:46.000,305.288,-85.522,22237.431665
2 Jan 2020 00:10:16.000,306.708,-85.061,22297.701287
2 Jan 2020 00:10:46.000,307.889,-84.604,22364.137706
2 Jan 2020 00:11:16.000,308.889,-84.152,22436.639161
2 Jan 2020 00:11:46.000,309.749,-83.708,22515.096427
2 Jan 2020 00:12:16.000,310.499,-83.271,22599.392782
2 Jan 2020 00:12:46.000,311.162,-82.842,22689.404596
2 Jan 2020 00:13:16.000,311.755,-82.422,22785.001818
2 Jan 2020 00:13:46.000,312.289,-82.012,22886.048678
2 Jan 2020 00:14:16.000,312.776,-81.611,22992.403357
2 Jan 2020 00:14:46.000,313.223,-81.221,23103.919711
2 Jan 2020 00:15:16.000,313.636,-80.842,23220.446963
2 Jan 2020 00:15:46.000,314.021,-80.473,23341.830389
2 Jan 2020 00:16:16.000,314.382,-80.117,23467.911802
2 Jan 2020 00:16:46.000,314.723,-79.771,23598.530022
2 Jan 2020 00:17:16.000,315.047,-79.438,23733.521592
2 Jan 2020 00:17:46.000,315.355,-79.117,23872.720169
2 Jan 2020 00:18:16.000,315.650,-78.808,24015.958511
2 Jan 2020 00:18:46.000,315.935,-78.512,24163.067841
2 Jan 2020 00:19:16.000,316.210,-78.228,24313.878489
2 Jan 2020 00:19:46.000,316.476,-77.957,24468.220250
2 Jan 2020 00:20:16.000,316.736,-77.698,24625.922726
2 Jan 2020 00:20:46.000,316.990,-77.452,24786.815638
2 Jan 2020 00:21:16.000,317.239,-77.219,24950.729130
2 Jan 2020 00:21:46.000,317.484,-76.998,25117.494035
2 Jan 2020 00:22:16.000,317.725,-76.790,25286.942447
2 Jan 2020 00:22:46.000,317.963,-76.595,25458.906690
2 Jan 2020 00:23:16.000,318.199,-76.412,25633.221417
2 Jan 2020 00:23:46.000,318.434,-76.241,25809.722545
2 Jan 2020 00:24:16.000,318.667,-76.083,25988.247743
2 Jan 2020 00:24:35.491,318.819,-75.986,26105.245984
2 Jan 2020 01:52:55.501,175.683,-75.993,26111.530474
2 Jan 2020 01:53:25.000,176.788,-76.108,25972.809794
2 Jan 2020 01:53:55.000,177.944,-76.230,25834.257540
2 Jan 2020 01:54:25.000,179.133,-76.359,25698.366305
2 Jan 2020 01:54:55.000,180.358,-76.494,25565.253092
2 Jan 2020 01:55:25.000,181.620,-76.634,25435.034077
2 Jan 2020 01:55:55.000,182.922,-76.779,25307.824419
2 Jan 2020 01:56:25.000,184.266,-76.928,25183.738070
2 Jan 2020 01:56:55.000,185.653,-77.082,25062.887569
2 Jan 2020 01:57:25.000,187.087,-77.240,24945.383837
2 Jan 2020 01:57:55.000,188.568,-77.401,24831.335723
2 Jan 2020 01:58:25.000,190.101,-77.565,24720.850737
2 Jan 2020 01:58:55.000,191.687,-77.732,24614.033385
2 Jan 2020 01:59:25.000,193.328,-77.900,24510.985909
2 Jan 2020 01:59:55.000,195.027,-78.069,24411.807809
2 Jan 2020 02:00:25.000,196.786,-78.239,24316.595607
2 Jan 2020 02:00:55.000,198.608,-78.408,24225.442618
2 Jan 2020 02:01:25.000,200.494,-78.576,24138.438709
2 Jan 2020 02:01:55.000,202.447,-78.743,24055.669883
2 Jan 2020 02:02:25.000,204.468,-78.906,23977.218810
2 Jan 2020 02:02:55.000,206.559,-79.067,23903.163440
2 Jan 2020 02:03:25.000,208.721,-79.223,23833.577573
2 Jan 2020 02:03:55.000,210.954,-79.373,23768.530438
2 Jan 2020 02:04:25.000,213.258,-79.517,23708.086500
2 Jan 2020 02:04:55.000,215.633,-79.654,23652.305261
2 Jan 2020 02:05:25.000,218.078,-79.783,23601.240959
2 Jan 2020 02:05:55.000,220.589,-79.902,23554.942886
2 Jan 2020 02:06:25.000,223.164,-80.012,23513.454494
2 Jan 2020 02:06:55.000,225.799,-80.111,23476.813755
2 Jan 2020 02:07:25.000,228.489,-80.198,23445.052916
2 Jan 2020 02:07:55.000,231.228,-80.273,23418.198393
2 Jan 2020 02:08:25.000,234.009,-80.335,23396.270685
2 Jan 2020 02:08:55.000,236.825,-80.384,23379.284259
2 Jan 2020 02:09:25.000,239.668,-80.419,23367.247713
2 Jan 2020 02:09:55.000,242.527,-80.439,23360.163422
2 Jan 2020 02:10:25.000,245.396,-80.445,23358.027763
2 Jan 2020 02:10:55.000,248.263,-80.437,23360.831075
2 Jan 2020 02:11:25.000,251.119,-80.414,23368.557689
2 Jan 2020 02:11:55.000,253.957,-80.378,23381.185994
2 Jan 2020 02:12:25.000,256.767,-80.327,23398.688539
2 Jan 2020 02:12:55.000,259.541,-80.264,23421.032023
2 Jan 2020 02:13:25.000,262.272,-80.188,23448.177561
2 Jan 2020 02:13:55.000,264.954,-80.100,23480.080728
2 Jan 2020 02:14:25.000,267.581,-80.002,23516.691730
2 Jan 2020 02:14:55.000,270.150,-79.892,23557.955569
2 Jan 2020 02:15:25.000,272.656,-79.774,23603.812228
2 Jan 2020 02:15:55.000,275.097,-79.647,23654.196956
2 Jan 2020 02:16:25.000,277.471,-79.512,23709.040099
2 Jan 2020 02:16:55.000,279.778,-79.371,23768.267867
2 Jan 2020 02:17:25.000,282.017,-79.223,23831.802199
2 Jan 2020 02:17:55.000,284.188,-79.071,23899.561085
2 Jan 2020 02:18:25.000,286.293,-78.915,23971.458796
2 Jan 2020 02:18:55.000,288.332,-78.756,24047.406129
2 Jan 2020 02:19:25.000,290.307,-78.594,24127.310653
2 Jan 2020 02:19:55.000,292.220,-78.431,24211.077115
2 Jan 2020 02:20:25.000,294.074,-78.267,24298.607030
2 Jan 2020 02:20:55.000,295.869,-78.103,24389.799900
2 Jan 2020 02:21:25.000,297.610,-77.940,24484.552812
2 Jan 2020 02:21:55.000,299.297,-77.777,24582.760834
2 Jan 2020 02:22:25.000,300.934,-77.617,24684.317250
2 Jan 2020 02:22:55.000,302.523,-77.458,24789.113785
2 Jan 2020 02:23:25.000,304.066,-77.303,24897.040829
2 Jan 2020 02:23:55.000,305.566,-77.150,25007.987651
2 Jan 2020 02:24:25.000,307.024,-77.001,25121.842607
2 Jan 2020 02:24:55.000,308.444,-76.856,25238.493559
2 Jan 2020 02:25:25.000,309.827,-76.716,25357.827184
2 Jan 2020 02:25:55.000,311.175,-76.579,25479.730476
2 Jan 2020 02:26:25.000,312.490,-76.448,25604.090042
2 Jan 2020 02:26:55.000,313.775,-76.322,25730.792486
2 Jan 2020 02:27:25.000,315.030,-76.202,25859.724564
2 Jan 2020 02:27:55.000,316.258,-76.087,25990.773330
2 Jan 2020 02:28:22.301,317.353,-75.987,26111.776094
2 Jan 2020 04:05:02.850,220.239,-75.993,26118.656582
2 Jan 2020 04:05:32.000,221.468,-76.094,25995.322809
2 Jan 2020 04:06:02.000,222.759,-76.204,25870.430632
2 Jan 2020 04:06:32.000,224.078,-76.318,25747.712408
2 Jan 2020 04:07:02.000,225.426,-76.437,25627.273802
2 Jan 2020 04:07:32.000,226.805,-76.560,25509.220504
2 Jan 2020 04:08:02.000,228.217,-76.687,25393.658082
2 Jan 2020 04:08:32.000,229.663,-76.818,25280.691839
2 Jan 2020 04:09:02.000,231.145,-76.952,25170.426651
2 Jan 2020 04:09:32.000,232.665,-77.090,25062.966809
2 Jan 2020 04:10:02.000,234.225,-77.230,24958.415844
2 Jan 2020 04:10:32.000,235.827,-77.373,24856.876354
2 Jan 2020 04:11:02.000,237.472,-77.517,24758.449614
2 Jan 2020 04:11:32.000,239.163,-77.663,24663.236194
2 Jan 2020 04:12:02.000,240.901,-77.810,24571.334545
2 Jan 2020 04:12:32.000,242.688,-77.957,24482.841616
2 Jan 2020 04:13:02.000,244.525,-78.103,24397.852444
2 Jan 2020 04:13:32.000,246.415,-78.249,24316.459942
2 Jan 2020 04:14:02.000,248.359,-78.393,24238.754688
2 Jan 2020 04:14:32.000,250.358,-78.535,24164.824716
2 Jan 2020 04:15:02.000,252.413,-78.674,24094.755169
2 Jan 2020 04:15:32.000,254.524,-78.810,24028.628602
2 Jan 2020 04:16:02.000,256.692,-78.941,23966.523986
2 Jan 2020 04:16:32.000,258.917,-79.067,23908.517030
2 Jan 2020 04:17:02.000,261.199,-79.187,23854.679836
2 Jan 2020 04:17:32.000,263.536,-79.300,23805.080700
2 Jan 2020 04:18:02.000,265.926,-79.406,23759.783915
2 Jan 2020 04:18:32.000,268.367,-79.504,23718.849519
2 Jan 2020 04:19:02.000,270.857,-79.593,23682.333386
2 Jan 2020 04:19:32.000,273.392,-79.672,23650.286638
2 Jan 2020 04:20:02.000,275.967,-79.741,23622.755769
2 Jan 2020 04:20:32.000,278.578,-79.800,23599.782434
2 Jan 2020 04:21:02.000,281.218,-79.847,23581.403308
2 Jan 2020 04:21:32.000,283.883,-79.883,23567.649968
2 Jan 2020 04:22:02.000,286.565,-79.907,23558.548790
2 Jan 2020 04:22:32.000,289.257,-79.918,23554.120878
2 Jan 2020 04:23:02.000,291.953,-79.917,23554.381947
2 Jan 2020 04:23:32.000,294.645,-79.904,23559.342309
2 Jan 2020 04:24:02.000,297.326,-79.879,23569.006823
2 Jan 2020 04:24:32.000,299.990,-79.842,23583.374876
2 Jan 2020 04:25:02.000,302.628,-79.792,23602.440378
2 Jan 2020 04:25:32.000,305.236,-79.732,23626.191850
2 Jan 2020 04:26:02.000,307.808,-79.660,23654.612191
2 Jan 2020 04:26:32.000,310.337,-79.579,23687.679112
2 Jan 2020 04:27:02.000,312.821,-79.487,23725.364955
2 Jan 2020 04:27:32.000,315.254,-79.386,23767.636839
2 Jan 2020 04:28:02.000,317.634,-79.277,23814.456759
2 Jan 2020 04:28:32.000,319.958,-79.160,23865.781696
2 Jan 2020 04:29:02.000,322.225,-79.037,23921.563881
2 Jan 2020 04:29:32.000,324.433,-78.907,23981.750420
2 Jan 2020 04:30:02.000,326.581,-78.771,24046.284199
2 Jan 2020 04:30:32.000,328.669,-78.632,24115.103559
2 Jan 2020 04:31:02.000,330.698,-78.488,24188.142583
2 Jan 2020 04:31:32.000,332.667,-78.341,24265.331282
2 Jan 2020 04:32:02.000,334.578,-78.192,24346.595779
2 Jan 2020 04:32:32.000,336.432,-78.042,24431.858506
2 Jan 2020 04:33:02.000,338.230,-77.890,24521.038600
2 Jan 2020 04:33:32.000,339.974,-77.738,24614.051317
2 Jan 2020 04:34:02.000,341.666,-77.587,24710.809407
2 Jan 2020 04:34:32.000,343.306,-77.437,24811.222546
2 Jan 2020 04:35:02.000,344.897,-77.288,24915.197734
2 Jan 2020 04:35:32.000,346.441,-77.141,25022.639499
2 Jan 2020 04:36:02.000,347.940,-76.996,25133.450101
2 Jan 2020 04:36:32.000,349.395,-76.855,25247.529734
2 Jan 2020 04:37:02.000,350.809,-76.717,25364.776719
2 Jan 2020 04:37:32.000,352.183,-76.583,25485.087702
2 Jan 2020 04:38:02.000,353.519,-76.453,25608.358098
2 Jan 2020 04:38:32.000,354.819,-76.328,25734.481247
2 Jan 2020 04:39:02.000,356.084,-76.207,25863.350126
2 Jan 2020 04:39:32.000,357.316,-76.092,25994.856502
2 Jan 2020 04:39:59.786,358.429,-75.989,26118.916401
2 Jan 2020 06:09:22.357,222.835,-75.991,26120.561041
2 Jan 2020 06:09:52.000,223.210,-76.137,25945.571317
2 Jan 2020 06:10:22.000,223.595,-76.296,25770.345376
2 Jan 2020 06:10:52.000,223.987,-76.468,25597.159853
2 Jan 2020 06:11:22.000,224.386,-76.651,25426.174724
2 Jan 2020 06:11:52.000,224.795,-76.846,25257.551644
2 Jan 2020 06:12:22.000,225.214,-77.054,25091.453772
2 Jan 2020 06:12:52.000,225.644,-77.273,24928.045582
2 Jan 2020 06:13:22.000,226.087,-77.505,24767.492649
2 Jan 2020 06:13:52.000,226.544,-77.749,24609.961420
2 Jan 2020 06:14:22.000,227.018,-78.005,24455.618962
2 Jan 2020 06:14:52.000,227.511,-78.273,24304.632410
2 Jan 2020 06:15:22.000,228.025,-78.553,24157.169808
2 Jan 2020 06:15:52.000,228.564,-78.844,24013.398078
2 Jan 2020 06:16:22.000,229.129,-79.148,23873.483843
2 Jan 2020 06:16:52.000,229.725,-79.463,23737.592773
2 Jan 2020 06:17:22.000,230.357,-79.789,23605.889214
2 Jan 2020 06:17:52.000,231.030,-80.125,23478.535792
2 Jan 2020 06:18:22.000,231.749,-80.473,23355.692770
2 Jan 2020 06:18:52.000,232.522,-80.831,23237.518542
2 Jan 2020 06:19:22.000,233.357,-81.198,23124.167787
2 Jan 2020 06:19:52.000,234.265,-81.574,23015.791956
2 Jan 2020 06:20:22.000,235.259,-81.960,22912.538561
2 Jan 2020 06:20:52.000,236.353,-82.353,22814.550699
2 Jan 2020 06:21:22.000,237.566,-82.753,22721.966396
2 Jan 2020 06:21:52.000,238.924,-83.159,22634.918827
2 Jan 2020 06:22:22.000,240.454,-83.570,22553.534761
2 Jan 2020 06:22:52.000,242.197,-83.985,22477.934804
2 Jan 2020 06:23:22.000,244.200,-84.401,22408.232754
2 Jan 2020 06:23:52.000,246.528,-84.818,22344.535033
2 Jan 2020 06:24:22.000,249.265,-85.231,22286.940692
2 Jan 2020 06:24:52.000,252.523,-85.639,22235.540313
2 Jan 2020 06:25:22.000,256.448,-86.035,22190.416086
2 Jan 2020 06:25:52.000,261.230,-86.414,22151.641324
2 Jan 2020 06:26:22.000,267.106,-86.767,22119.280083
2 Jan 2020 06:26:52.000,274.344,-87.082,22093.387095
2 Jan 2020 06:27:22.000,283.174,-87.344,22074.007162
2 Jan 2020 06:27:52.000,293.645,-87.533,22061.175192
2 Jan 2020 06:28:22.000,305.408,-87.631,22054.915975
2 Jan 2020 06:28:52.000,317.643,-87.626,22055.244074
2 Jan 2020 06:29:22.000,329.311,-87.518,22062.163722
2 Jan 2020 06:29:52.000,339.628,-87.321,22075.668835
2 Jan 2020 06:30:22.000,348.292,-87.053,22095.743036
2 Jan 2020 06:30:52.000,355.374,-86.733,22122.359728
2 Jan 2020 06:31:22.000,1.114,-86.375,22155.482300
2 Jan 2020 06:31:52.000,5.778,-85.993,22195.064001
2 Jan 2020 06:32:22.000,9.599,-85.594,22241.048588
2 Jan 2020 06:32:52.000,12.764,-85.184,22293.370308
2 Jan 2020 06:33:22.000,15.414,-84.769,22351.954266
2 Jan 2020 06:33:52.000,17.659,-84.350,22416.716890
2 Jan 2020 06:34:22.000,19.580,-83.931,22487.565771
2 Jan 2020 06:34:52.000,21.240,-83.515,22564.400831
2 Jan 2020 06:35:22.000,22.687,-83.102,22647.114236
2 Jan 2020 06:35:52.000,23.958,-82.693,22735.590959
2 Jan 2020 06:36:22.000,25.084,-82.291,22829.709235
2 Jan 2020 06:36:52.000,26.086,-81.897,22929.341243
2 Jan 2020 06:37:22.000,26.983,-81.510,23034.352728
2 Jan 2020 06:37:52.000,27.792,-81.131,23144.604743
2 Jan 2020 06:38:22.000,28.523,-80.762,23259.953296
2 Jan 2020 06:38:52.000,29.187,-80.403,23380.250036
2 Jan 2020 06:39:22.000,29.793,-80.054,23505.342720
2 Jan 2020 06:39:52.000,30.347,-79.716,23635.075678
2 Jan 2020 06:40:22.000,30.855,-79.389,23769.290536
2 Jan 2020 06:40:52.000,31.323,-79.073,23907.825564
2 Jan 2020 06:41:22.000,31.754,-78.769,24050.517725
2 Jan 2020 06:41:52.000,32.153,-78.477,24197.201998
2 Jan 2020 06:42:22.000,32.522,-78.196,24347.712040
2 Jan 2020 06:42:52.000,32.864,-77.928,24501.880547
2 Jan 2020 06:43:22.000,33.181,-77.672,24659.539606
2 Jan 2020 06:43:52.000,33.477,-77.428,24820.521020
2 Jan 2020 06:44:22.000,33.751,-77.197,24984.656612
2 Jan 2020 06:44:52.000,34.007,-76.978,25151.778516
2 Jan 2020 06:45:22.000,34.245,-76.772,25321.719769
2 Jan 2020 06:45:52.000,34.466,-76.578,25494.313231
2 Jan 2020 06:46:22.000,34.673,-76.396,25669.393793
2 Jan 2020 06:46:52.000,34.865,-76.227,25846.797266
2 Jan 2020 06:47:22.000,35.043,-76.070,26026.360892
2 Jan 2020 06:47:37.604,35.131,-75.993,26120.559834
2 Jan 2020 08:13:55.401,198.213,-75.988,26115.747998
2 Jan 2020 08:14:25.000,197.389,-76.119,25957.396070
2 Jan 2020 08:14:55.000,196.525,-76.261,25799.319566
2 Jan 2020 08:15:25.000,195.628,-76.412,25643.821462
2 Jan 2020 08:15:55.000,194.697,-76.572,25491.041962
2 Jan 2020 08:16:25.000,193.730,-76.739,25341.121194
2 Jan 2020 08:16:55.000,192.724,-76.915,25194.198997
2 Jan 2020 08:17:25.000,191.676,-77.098,25050.414698
2 Jan 2020 08:17:55.000,190.583,-77.289,24909.906878
2 Jan 2020 08:18:25.000,189.442,-77.488,24772.813123
2 Jan 2020 08:18:55.000,188.250,-77.692,24639.269493
2 Jan 2020 08:19:25.000,187.003,-77.903,24509.411339
2 Jan 2020 08:19:55.000,185.697,-78.120,24383.371376
2 Jan 2020 08:20:25.000,184.328,-78.342,24261.280491
2 Jan 2020 08:20:55.000,182.891,-78.569,24143.267164
2 Jan 2020 08:21:25.000,181.381,-78.799,24029.457157
2 Jan 2020 08:21:55.000,179.793,-79.033,23919.973195
2 Jan 2020 08:22:25.000,178.122,-79.268,23814.934433
2 Jan 2020 08:22:55.000,176.361,-79.505,23714.456984
2 Jan 2020 08:23:25.000,174.506,-79.743,23618.652291
2 Jan 2020 08:23:55.000,172.548,-79.979,23527.627674
2 Jan 2020 08:24:25.000,170.484,-80.214,23441.485782
