STKdata/stk_70fov_6leo/Satellite-MEO_Satellite10004-To-Satellite-LEO_Satellite20000 AER.csv

"Time (UTCG)","Azimuth (deg)","Elevation (deg)","Range (km)"
1 Jan 2020 00:57:15.504,190.527,-75.987,26114.279847
1 Jan 2020 00:57:45.000,189.531,-76.109,25967.364384
1 Jan 2020 00:58:15.000,188.486,-76.240,25820.436865
1 Jan 2020 00:58:45.000,187.408,-76.378,25676.152790
1 Jan 2020 00:59:15.000,186.293,-76.523,25534.639046
1 Jan 2020 00:59:45.000,185.141,-76.674,25396.021964
1 Jan 2020 01:00:15.000,183.948,-76.832,25260.427118
1 Jan 2020 01:00:45.000,182.713,-76.996,25127.979120
1 Jan 2020 01:01:15.000,181.433,-77.165,24998.801399
1 Jan 2020 01:01:45.000,180.105,-77.339,24873.015974
1 Jan 2020 01:02:15.000,178.726,-77.518,24750.742966
1 Jan 2020 01:02:45.000,177.293,-77.701,24632.101371
1 Jan 2020 01:03:15.000,175.804,-77.888,24517.207275
1 Jan 2020 01:03:45.000,174.255,-78.077,24406.174623
1 Jan 2020 01:04:15.000,172.643,-78.269,24299.114703
1 Jan 2020 01:04:45.000,170.964,-78.463,24196.135874
1 Jan 2020 01:05:15.000,169.215,-78.657,24097.343299
1 Jan 2020 01:05:45.000,167.394,-78.852,24002.838485
1 Jan 2020 01:06:15.000,165.495,-79.045,23912.719774
1 Jan 2020 01:06:45.000,163.517,-79.237,23827.080916
1 Jan 2020 01:07:15.000,161.456,-79.426,23746.011582
1 Jan 2020 01:07:45.000,159.309,-79.611,23669.596902
1 Jan 2020 01:08:15.000,157.075,-79.792,23597.917213
1 Jan 2020 01:08:45.000,154.752,-79.966,23531.047811
1 Jan 2020 01:09:15.000,152.338,-80.134,23469.058566
1 Jan 2020 01:09:45.000,149.834,-80.292,23412.014287
1 Jan 2020 01:10:15.000,147.241,-80.442,23359.973613
1 Jan 2020 01:10:45.000,144.561,-80.581,23312.989421
1 Jan 2020 01:11:15.000,141.796,-80.707,23271.108496
1 Jan 2020 01:11:45.000,138.953,-80.821,23234.371370
1 Jan 2020 01:12:15.000,136.038,-80.921,23202.812106
1 Jan 2020 01:12:45.000,133.058,-81.006,23176.458480
1 Jan 2020 01:13:15.000,130.022,-81.075,23155.331418
1 Jan 2020 01:13:45.000,126.942,-81.127,23139.445241
1 Jan 2020 01:14:15.000,123.830,-81.163,23128.807537
1 Jan 2020 01:14:45.000,120.698,-81.181,23123.419131
1 Jan 2020 01:15:15.000,117.558,-81.181,23123.274076
1 Jan 2020 01:15:45.000,114.426,-81.164,23128.359727
1 Jan 2020 01:16:15.000,111.313,-81.130,23138.656702
1 Jan 2020 01:16:45.000,108.232,-81.079,23154.139023
1 Jan 2020 01:17:15.000,105.194,-81.012,23174.774197
1 Jan 2020 01:17:45.000,102.211,-80.929,23200.523332
1 Jan 2020 01:18:15.000,99.290,-80.832,23231.341333
1 Jan 2020 01:18:45.000,96.440,-80.721,23267.176869
1 Jan 2020 01:19:15.000,93.667,-80.598,23307.972835
1 Jan 2020 01:19:45.000,90.974,-80.462,23353.666374
1 Jan 2020 01:20:15.000,88.365,-80.317,23404.189139
1 Jan 2020 01:20:45.000,85.842,-80.163,23459.467519
1 Jan 2020 01:21:15.000,83.406,-80.000,23519.422889
1 Jan 2020 01:21:45.000,81.055,-79.831,23583.971986
1 Jan 2020 01:22:15.000,78.790,-79.656,23653.026678
1 Jan 2020 01:22:45.000,76.607,-79.476,23726.494968
1 Jan 2020 01:23:15.000,74.505,-79.293,23804.280793
1 Jan 2020 01:23:45.000,72.481,-79.107,23886.284418
1 Jan 2020 01:24:15.000,70.533,-78.920,23972.402723
1 Jan 2020 01:24:45.000,68.655,-78.732,24062.529483
1 Jan 2020 01:25:15.000,66.846,-78.543,24156.555647
1 Jan 2020 01:25:45.000,65.102,-78.356,24254.369816
1 Jan 2020 01:26:15.000,63.419,-78.170,24355.857751
1 Jan 2020 01:26:45.000,61.795,-77.987,24460.903774
1 Jan 2020 01:27:15.000,60.225,-77.806,24569.390284
1 Jan 2020 01:27:45.000,58.707,-77.628,24681.198200
1 Jan 2020 01:28:15.000,57.238,-77.455,24796.207208
1 Jan 2020 01:28:45.000,55.814,-77.285,24914.295996
1 Jan 2020 01:29:15.000,54.433,-77.121,25035.342489
1 Jan 2020 01:29:45.000,53.093,-76.961,25159.224064
1 Jan 2020 01:30:15.000,51.790,-76.807,25285.817759
1 Jan 2020 01:30:45.000,50.522,-76.658,25415.000473
1 Jan 2020 01:31:15.000,49.287,-76.515,25546.649404
1 Jan 2020 01:31:45.000,48.084,-76.379,25680.641224
1 Jan 2020 01:32:15.000,46.909,-76.248,25816.853738
1 Jan 2020 01:32:45.000,45.761,-76.124,25955.165051
1 Jan 2020 01:33:15.000,44.638,-76.007,26095.453955
1 Jan 2020 01:33:18.925,44.493,-75.992,26113.947625
1 Jan 2020 03:09:36.454,143.430,-75.986,26106.738603
1 Jan 2020 03:10:06.000,142.134,-76.085,25987.103337
1 Jan 2020 03:10:36.000,140.792,-76.189,25867.754763
1 Jan 2020 03:11:06.000,139.422,-76.298,25750.646078
1 Jan 2020 03:11:36.000,138.023,-76.411,25635.875992
1 Jan 2020 03:12:06.000,136.592,-76.527,25523.542975
1 Jan 2020 03:12:36.000,135.130,-76.646,25413.745112
1 Jan 2020 03:13:06.000,133.633,-76.769,25306.579971
1 Jan 2020 03:13:36.000,132.101,-76.894,25202.144450
1 Jan 2020 03:14:06.000,130.533,-77.022,25100.534622
1 Jan 2020 03:14:36.000,128.926,-77.152,25001.845577
1 Jan 2020 03:15:06.000,127.279,-77.283,24906.171258
1 Jan 2020 03:15:36.000,125.591,-77.415,24813.604094
1 Jan 2020 03:16:06.000,123.860,-77.548,24724.235607
1 Jan 2020 03:16:36.000,122.085,-77.681,24638.155054
1 Jan 2020 03:17:06.000,120.264,-77.814,24555.450038
1 Jan 2020 03:17:36.000,118.397,-77.946,24476.206120
1 Jan 2020 03:18:06.000,116.483,-78.077,24400.506638
1 Jan 2020 03:18:36.000,114.520,-78.205,24328.432514
1 Jan 2020 03:19:06.000,112.509,-78.330,24260.062072
1 Jan 2020 03:19:36.000,110.448,-78.453,24195.470840
1 Jan 2020 03:20:06.000,108.338,-78.571,24134.731253
1 Jan 2020 03:20:36.000,106.180,-78.685,24077.912962
1 Jan 2020 03:21:06.000,103.973,-78.793,24025.081892
1 Jan 2020 03:21:36.000,101.719,-78.896,23976.300584
1 Jan 2020 03:22:06.000,99.419,-78.992,23931.627896
1 Jan 2020 03:22:36.000,97.076,-79.081,23891.118833
1 Jan 2020 03:23:06.000,94.692,-79.162,23854.824398
1 Jan 2020 03:23:36.000,92.271,-79.234,23822.791443
1 Jan 2020 03:24:06.000,89.815,-79.298,23795.062480
1 Jan 2020 03:24:36.000,87.328,-79.353,23771.675758
1 Jan 2020 03:25:06.000,84.815,-79.398,23752.664830
1 Jan 2020 03:25:36.000,82.282,-79.432,23738.058670
1 Jan 2020 03:26:06.000,79.733,-79.457,23727.881526
1 Jan 2020 03:26:36.000,77.173,-79.471,23722.152838
1 Jan 2020 03:27:06.000,74.608,-79.474,23720.887183
1 Jan 2020 03:27:36.000,72.045,-79.466,23724.094240
1 Jan 2020 03:28:06.000,69.488,-79.448,23731.778687
1 Jan 2020 03:28:36.000,66.943,-79.419,23743.940277
1 Jan 2020 03:29:06.000,64.417,-79.380,23760.573780
1 Jan 2020 03:29:36.000,61.914,-79.330,23781.669008
1 Jan 2020 03:30:06.000,59.438,-79.271,23807.210841
1 Jan 2020 03:30:36.000,56.995,-79.203,23837.179267
1 Jan 2020 03:31:06.000,54.589,-79.125,23871.549526
1 Jan 2020 03:31:36.000,52.222,-79.040,23910.291855
1 Jan 2020 03:32:06.000,49.899,-78.946,23953.372042
1 Jan 2020 03:32:36.000,47.621,-78.846,24000.751221
1 Jan 2020 03:33:06.000,45.390,-78.739,24052.386051
1 Jan 2020 03:33:36.000,43.209,-78.626,24108.228842
1 Jan 2020 03:34:06.000,41.079,-78.508,24168.227680
1 Jan 2020 03:34:36.000,38.999,-78.385,24232.326572
1 Jan 2020 03:35:06.000,36.970,-78.258,24300.465751
1 Jan 2020 03:35:36.000,34.993,-78.128,24372.581207
1 Jan 2020 03:36:06.000,33.067,-77.996,24448.605779
1 Jan 2020 03:36:36.000,31.192,-77.862,24528.468710
1 Jan 2020 03:37:06.000,29.366,-77.726,24612.095975
1 Jan 2020 03:37:36.000,27.588,-77.589,24699.410456
1 Jan 2020 03:38:06.000,25.859,-77.453,24790.332120
1 Jan 2020 03:38:36.000,24.175,-77.316,24884.778205
1 Jan 2020 03:39:06.000,22.537,-77.181,24982.663395
1 Jan 2020 03:39:36.000,20.942,-77.047,25083.900223
1 Jan 2020 03:40:06.000,19.389,-76.915,25188.398393
1 Jan 2020 03:40:36.000,17.877,-76.785,25296.066236
1 Jan 2020 03:41:06.000,16.404,-76.658,25406.810038
1 Jan 2020 03:41:36.000,14.968,-76.534,25520.534431
1 Jan 2020 03:42:06.000,13.568,-76.413,25637.142555
1 Jan 2020 03:42:36.000,12.203,-76.296,25756.536231
1 Jan 2020 03:43:06.000,10.871,-76.184,25878.616118
1 Jan 2020 03:43:36.000,9.571,-76.075,26003.281868
1 Jan 2020 03:44:00.425,8.535,-75.991,26106.618392
1 Jan 2020 05:14:47.189,135.717,-75.988,26103.979985
1 Jan 2020 05:15:17.000,135.184,-76.131,25932.272122
1 Jan 2020 05:15:47.000,134.636,-76.287,25761.331789
1 Jan 2020 05:16:17.000,134.076,-76.454,25592.408718
1 Jan 2020 05:16:47.000,133.503,-76.632,25425.658933
1 Jan 2020 05:17:17.000,132.914,-76.821,25261.240074
1 Jan 2020 05:17:47.000,132.307,-77.022,25099.311228
1 Jan 2020 05:18:17.000,131.682,-77.234,24940.032736
1 Jan 2020 05:18:47.000,131.036,-77.457,24783.565992
1 Jan 2020 05:19:17.000,130.365,-77.691,24630.073211
1 Jan 2020 05:19:47.000,129.668,-77.937,24479.717190
1 Jan 2020 05:20:17.000,128.942,-78.193,24332.660769
1 Jan 2020 05:20:47.000,128.183,-78.461,24189.067635
1 Jan 2020 05:21:17.000,127.386,-78.739,24049.100375
1 Jan 2020 05:21:47.000,126.548,-79.027,23912.921253
1 Jan 2020 05:22:17.000,125.664,-79.326,23780.691588
1 Jan 2020 05:22:47.000,124.727,-79.634,23652.571392
1 Jan 2020 05:23:17.000,123.730,-79.952,23528.718986
1 Jan 2020 05:23:47.000,122.667,-80.278,23409.290390
1 Jan 2020 05:24:17.000,121.527,-80.612,23294.439773
1 Jan 2020 05:24:47.000,120.299,-80.955,23184.317713
1 Jan 2020 05:25:17.000,118.972,-81.304,23079.071640
1 Jan 2020 05:25:47.000,117.530,-81.658,22978.845163
1 Jan 2020 05:26:17.000,115.956,-82.018,22883.777609
1 Jan 2020 05:26:47.000,114.229,-82.382,22794.003403
1 Jan 2020 05:27:17.000,112.324,-82.747,22709.652262
1 Jan 2020 05:27:47.000,110.212,-83.114,22630.847724
1 Jan 2020 05:28:17.000,107.858,-83.479,22557.707376
1 Jan 2020 05:28:47.000,105.220,-83.840,22490.342229
1 Jan 2020 05:29:17.000,102.250,-84.194,22428.856286
1 Jan 2020 05:29:47.000,98.892,-84.539,22373.346013
1 Jan 2020 05:30:17.000,95.084,-84.869,22323.900382
1 Jan 2020 05:30:47.000,90.759,-85.181,22280.599815
1 Jan 2020 05:31:17.000,85.854,-85.467,22243.516304
1 Jan 2020 05:31:47.000,80.319,-85.721,22212.712975
1 Jan 2020 05:32:17.000,74.134,-85.935,22188.243774
1 Jan 2020 05:32:47.000,67.334,-86.102,22170.153371
1 Jan 2020 05:33:17.000,60.023,-86.215,22158.476716
1 Jan 2020 05:33:47.000,52.386,-86.266,22153.239051
1 Jan 2020 05:34:17.000,44.667,-86.254,22154.455749
1 Jan 2020 05:34:47.000,37.127,-86.179,22162.132271
1 Jan 2020 05:35:17.000,29.992,-86.045,22176.264036
1 Jan 2020 05:35:47.000,23.419,-85.858,22196.836584
1 Jan 2020 05:36:17.000,17.486,-85.627,22223.825562
1 Jan 2020 05:36:47.000,12.206,-85.358,22257.196856
1 Jan 2020 05:37:17.000,7.545,-85.060,22296.906840
1 Jan 2020 05:37:47.000,3.448,-84.739,22342.902221
1 Jan 2020 05:38:17.000,359.849,-84.400,22395.120792
1 Jan 2020 05:38:47.000,356.682,-84.049,22453.491382
1 Jan 2020 05:39:17.000,353.887,-83.688,22517.934241
1 Jan 2020 05:39:47.000,351.411,-83.322,22588.361391
1 Jan 2020 05:40:17.000,349.208,-82.953,22664.677169
1 Jan 2020 05:40:47.000,347.240,-82.583,22746.777908
1 Jan 2020 05:41:17.000,345.473,-82.214,22834.553408
1 Jan 2020 05:41:47.000,343.879,-81.848,22927.886673
1 Jan 2020 05:42:17.000,342.436,-81.486,23026.654521
1 Jan 2020 05:42:47.000,341.124,-81.129,23130.728034
1 Jan 2020 05:43:17.000,339.926,-80.778,23239.973241
1 Jan 2020 05:43:47.000,338.829,-80.435,23354.250685
1 Jan 2020 05:44:17.000,337.820,-80.099,23473.417194
1 Jan 2020 05:44:47.000,336.889,-79.773,23597.325467
1 Jan 2020 05:45:17.000,336.028,-79.455,23725.824726
1 Jan 2020 05:45:47.000,335.230,-79.147,23858.761155
1 Jan 2020 05:46:17.000,334.487,-78.849,23995.978318
1 Jan 2020 05:46:47.000,333.795,-78.561,24137.317568
1 Jan 2020 05:47:17.000,333.148,-78.284,24282.618744
1 Jan 2020 05:47:47.000,332.543,-78.018,24431.719328
1 Jan 2020 05:48:17.000,331.975,-77.763,24584.456620
1 Jan 2020 05:48:47.000,331.441,-77.520,24740.666873
1 Jan 2020 05:49:17.000,330.938,-77.288,24900.185910
1 Jan 2020 05:49:47.000,330.465,-77.068,25062.849427
1 Jan 2020 05:50:17.000,330.018,-76.860,25228.493271
1 Jan 2020 05:50:47.000,329.596,-76.663,25396.953704
1 Jan 2020 05:51:17.000,329.196,-76.478,25568.067642
1 Jan 2020 05:51:47.000,328.818,-76.305,25741.672881
1 Jan 2020 05:52:17.000,328.459,-76.143,25917.608300
1 Jan 2020 05:52:47.000,328.119,-75.994,26095.714046
1 Jan 2020 05:52:48.390,328.103,-75.987,26104.017540
1 Jan 2020 07:18:43.874,156.997,-75.991,26108.032198
1 Jan 2020 07:19:13.000,157.669,-76.127,25945.474480
1 Jan 2020 07:19:43.000,158.389,-76.276,25780.365843
1 Jan 2020 07:20:13.000,159.138,-76.435,25617.766266
1 Jan 2020 07:20:43.000,159.919,-76.604,25457.824448
1 Jan 2020 07:21:13.000,160.733,-76.782,25300.689386
1 Jan 2020 07:21:43.000,161.585,-76.970,25146.510167
1 Jan 2020 07:22:13.000,162.475,-77.166,24995.435732
1 Jan 2020 07:22:43.000,163.407,-77.372,24847.614641
1 Jan 2020 07:23:13.000,164.385,-77.586,24703.194808
1 Jan 2020 07:23:43.000,165.412,-77.809,24562.322953
1 Jan 2020 07:24:13.000,166.492,-78.040,24425.145433
1 Jan 2020 07:24:43.000,167.629,-78.277,24291.806251
1 Jan 2020 07:25:13.000,168.829,-78.522,24162.447871
1 Jan 2020 07:25:43.000,170.096,-78.774,24037.210611
1 Jan 2020 07:26:13.000,171.437,-79.031,23916.232298
1 Jan 2020 07:26:43.000,172.857,-79.293,23799.647925
1 Jan 2020 07:27:13.000,174.364,-79.559,23687.589062
1 Jan 2020 07:27:43.000,175.966,-79.829,23580.184410
1 Jan 2020 07:28:13.000,177.670,-80.101,23477.558046
1 Jan 2020 07:28:43.000,179.485,-80.375,23379.829979
1 Jan 2020 07:29:13.000,181.421,-80.648,23287.115546
1 Jan 2020 07:29:43.000,183.489,-80.920,23199.525040
1 Jan 2020 07:30:13.000,185.697,-81.189,23117.163175
1 Jan 2020 07:30:43.000,188.058,-81.454,23040.129412
1 Jan 2020 07:31:13.000,190.582,-81.712,22968.516563
1 Jan 2020 07:31:43.000,193.280,-81.962,22902.411162
1 Jan 2020 07:32:13.000,196.159,-82.201,22841.892966
1 Jan 2020 07:32:43.000,199.229,-82.428,22787.034650
1 Jan 2020 07:33:13.000,202.493,-82.640,22737.901412
1 Jan 2020 07:33:43.000,205.953,-82.834,22694.551182
1 Jan 2020 07:34:13.000,209.604,-83.008,22657.033673
1 Jan 2020 07:34:43.000,213.438,-83.159,22625.390666
1 Jan 2020 07:35:13.000,217.438,-83.285,22599.655715
1 Jan 2020 07:35:43.000,221.581,-83.385,22579.854009
1 Jan 2020 07:36:13.000,225.835,-83.456,22566.002221
1 Jan 2020 07:36:43.000,230.164,-83.496,22558.108614
1 Jan 2020 07:37:13.000,234.529,-83.506,22556.172730
1 Jan 2020 07:37:43.000,238.885,-83.485,22560.185585
1 Jan 2020 07:38:13.000,243.191,-83.434,22570.129662
1 Jan 2020 07:38:43.000,247.408,-83.353,22585.978981
1 Jan 2020 07:39:13.000,251.503,-83.245,22607.699249
1 Jan 2020 07:39:43.000,255.447,-83.110,22635.247861
1 Jan 2020 07:40:13.000,259.221,-82.952,22668.574276
1 Jan 2020 07:40:43.000,262.812,-82.773,22707.620108
1 Jan 2020 07:41:13.000,266.214,-82.575,22752.319386
1 Jan 2020 07:41:43.000,269.424,-82.361,22802.598824
1 Jan 2020 07:42:13.000,272.447,-82.133,22858.378218
1 Jan 2020 07:42:43.000,275.287,-81.893,22919.570328
1 Jan 2020 07:43:13.000,277.954,-81.645,22986.081837
1 Jan 2020 07:43:43.000,280.458,-81.389,23057.813286
1 Jan 2020 07:44:13.000,282.808,-81.128,23134.659539
1 Jan 2020 07:44:43.000,285.016,-80.863,23216.510147
1 Jan 2020 07:45:13.000,287.093,-80.597,23303.249727
1 Jan 2020 07:45:43.000,289.048,-80.329,23394.758536
1 Jan 2020 07:46:13.000,290.892,-80.062,23490.912101
1 Jan 2020 07:46:43.000,292.634,-79.797,23591.582716
1 Jan 2020 07:47:13.000,294.282,-79.534,23696.639091
1 Jan 2020 07:47:43.000,295.845,-79.275,23805.946907
1 Jan 2020 07:48:13.000,297.329,-79.021,23919.369185
1 Jan 2020 07:48:43.000,298.742,-78.771,24036.766646
1 Jan 2020 07:49:13.000,300.089,-78.528,24157.998061
1 Jan 2020 07:49:43.000,301.376,-78.290,24282.920824
1 Jan 2020 07:50:13.000,302.609,-78.060,24411.390335
1 Jan 2020 07:50:43.000,303.791,-77.837,24543.261713
1 Jan 2020 07:51:13.000,304.928,-77.621,24678.389166
1 Jan 2020 07:51:43.000,306.022,-77.413,24816.626503
1 Jan 2020 07:52:13.000,307.078,-77.214,24957.827394
1 Jan 2020 07:52:43.000,308.099,-77.022,25101.845626
1 Jan 2020 07:53:13.000,309.087,-76.840,25248.535335
1 Jan 2020 07:53:43.000,310.046,-76.666,25397.751219
1 Jan 2020 07:54:13.000,310.978,-76.501,25549.348750
1 Jan 2020 07:54:43.000,311.884,-76.346,25703.184352
1 Jan 2020 07:55:13.000,312.768,-76.199,25859.115577
1 Jan 2020 07:55:43.000,313.631,-76.061,26017.001263
1 Jan 2020 07:56:00.219,314.118,-75.987,26108.452093
1 Jan 2020 09:29:54.651,203.732,-75.993,26115.920070
1 Jan 2020 09:30:24.000,205.055,-76.088,26000.894238
1 Jan 2020 09:30:54.000,206.436,-76.188,25885.633483
1 Jan 2020 09:31:24.000,207.845,-76.292,25772.805321
1 Jan 2020 09:31:54.000,209.285,-76.399,25662.500955
1 Jan 2020 09:32:24.000,210.756,-76.509,25554.810779
1 Jan 2020 09:32:54.000,212.260,-76.622,25449.824242
1 Jan 2020 09:33:24.000,213.799,-76.737,25347.629712
1 Jan 2020 09:33:54.000,215.372,-76.854,25248.314332
1 Jan 2020 09:34:24.000,216.982,-76.973,25151.963878
1 Jan 2020 09:34:54.000,218.630,-77.093,25058.662604
1 Jan 2020 09:35:24.000,220.316,-77.214,24968.492907
1 Jan 2020 09:35:54.000,222.042,-77.335,24881.535928
1 Jan 2020 09:36:24.000,223.808,-77.456,24797.870252
1 Jan 2020 09:36:54.000,225.616,-77.576,24717.572519
1 Jan 2020 09:37:24.000,227.466,-77.695,24640.717073
1 Jan 2020 09:37:54.000,229.359,-77.813,24567.375804
1 Jan 2020 09:38:24.000,231.295,-77.928,24497.617993
1 Jan 2020 09:38:54.000,233.275,-78.041,24431.510154
1 Jan 2020 09:39:24.000,235.297,-78.150,24369.115882
1 Jan 2020 09:39:54.000,237.363,-78.256,24310.495576
1 Jan 2020 09:40:24.000,239.470,-78.357,24255.706816
1 Jan 2020 09:40:54.000,241.619,-78.454,24204.803422
1 Jan 2020 09:41:24.000,243.808,-78.545,24157.835864
1 Jan 2020 09:41:54.000,246.036,-78.629,24114.850990
1 Jan 2020 09:42:24.000,248.300,-78.708,24075.891908
1 Jan 2020 09:42:54.000,250.598,-78.779,24040.997874
1 Jan 2020 09:43:24.000,252.927,-78.843,24010.204180
1 Jan 2020 09:43:54.000,255.285,-78.899,23983.542012
1 Jan 2020 09:44:24.000,257.667,-78.947,23961.038590
1 Jan 2020 09:44:54.000,260.071,-78.987,23942.716733
1 Jan 2020 09:45:24.000,262.492,-79.017,23928.595046
1 Jan 2020 09:45:54.000,264.925,-79.039,23918.687806
1 Jan 2020 09:46:24.000,267.367,-79.051,23913.004916
1 Jan 2020 09:46:54.000,269.812,-79.054,23911.551882
1 Jan 2020 09:47:24.000,272.257,-79.048,23914.329795
1 Jan 2020 09:47:54.000,274.697,-79.033,23921.335352
1 Jan 2020 09:48:24.000,277.126,-79.008,23932.560791
1 Jan 2020 09:48:54.000,279.542,-78.974,23947.994007
1 Jan 2020 09:49:24.000,281.938,-78.932,23967.618535
1 Jan 2020 09:49:54.000,284.313,-78.881,23991.413609
1 Jan 2020 09:50:24.000,286.661,-78.823,24019.354217
1 Jan 2020 09:50:54.000,288.981,-78.756,24051.411177
1 Jan 2020 09:51:24.000,291.267,-78.682,24087.551211
1 Jan 2020 09:51:54.000,293.519,-78.602,24127.737134
1 Jan 2020 09:52:24.000,295.734,-78.515,24171.927593
1 Jan 2020 09:52:54.000,297.910,-78.422,24220.077703
1 Jan 2020 09:53:24.000,300.045,-78.324,24272.138826
1 Jan 2020 09:53:54.000,302.139,-78.221,24328.058777
1 Jan 2020 09:54:24.000,304.190,-78.114,24387.781959
1 Jan 2020 09:54:54.000,306.199,-78.003,24451.249501
1 Jan 2020 09:55:24.000,308.164,-77.890,24518.399403
1 Jan 2020 09:55:54.000,310.086,-77.774,24589.166683
1 Jan 2020 09:56:24.000,311.965,-77.656,24663.483694
1 Jan 2020 09:56:54.000,313.802,-77.536,24741.279626
1 Jan 2020 09:57:24.000,315.596,-77.415,24822.481631
1 Jan 2020 09:57:54.000,317.350,-77.295,24907.014342
1 Jan 2020 09:58:24.000,319.063,-77.174,24994.800191
1 Jan 2020 09:58:54.000,320.737,-77.053,25085.759561
1 Jan 2020 09:59:24.000,322.373,-76.934,25179.810951
1 Jan 2020 09:59:54.000,323.972,-76.815,25276.871125
1 Jan 2020 10:00:24.000,325.535,-76.699,25376.855266
1 Jan 2020 10:00:54.000,327.063,-76.585,25479.677130
1 Jan 2020 10:01:24.000,328.558,-76.473,25585.249190
1 Jan 2020 10:01:54.000,330.020,-76.363,25693.483009
1 Jan 2020 10:02:24.000,331.451,-76.257,25804.288477
1 Jan 2020 10:02:54.000,332.852,-76.154,25917.575290
1 Jan 2020 10:03:24.000,334.225,-76.055,26033.252194
1 Jan 2020 10:03:45.098,335.174,-75.988,26115.985590
1 Jan 2020 11:37:52.064,225.898,-75.992,26120.580785
1 Jan 2020 11:38:22.000,226.770,-76.123,25963.237934
1 Jan 2020 11:38:52.000,227.665,-76.263,25807.435493
1 Jan 2020 11:39:22.000,228.581,-76.411,25653.649698
1 Jan 2020 11:39:52.000,229.522,-76.569,25502.020767
1 Jan 2020 11:40:22.000,230.489,-76.735,25352.690077
1 Jan 2020 11:40:52.000,231.485,-76.910,25205.800009
1 Jan 2020 11:41:22.000,232.512,-77.094,25061.493769
1 Jan 2020 11:41:52.000,233.573,-77.286,24919.915195
1 Jan 2020 11:42:22.000,234.672,-77.486,24781.208551
1 Jan 2020 11:42:52.000,235.810,-77.693,24645.518306
1 Jan 2020 11:43:22.000,236.993,-77.909,24512.988895
1 Jan 2020 11:43:52.000,238.224,-78.131,24383.764208
1 Jan 2020 11:44:22.000,239.507,-78.360,24257.988367
1 Jan 2020 11:44:52.000,240.848,-78.596,24135.803862
1 Jan 2020 11:45:22.000,242.251,-78.837,24017.352320
1 Jan 2020 11:45:52.000,243.721,-79.083,23902.773919
1 Jan 2020 11:46:22.000,245.266,-79.334,23792.207071
1 Jan 2020 11:46:52.000,246.891,-79.589,23685.788080
1 Jan 2020 11:47:22.000,248.605,-79.846,23583.650801
1 Jan 2020 11:47:52.000,250.414,-80.106,23485.926087
1 Jan 2020 11:48:22.000,252.328,-80.366,23392.742212
1 Jan 2020 11:48:52.000,254.354,-80.626,23304.223308
1 Jan 2020 11:49:22.000,256.503,-80.885,23220.489799
1 Jan 2020 11:49:52.000,258.784,-81.140,23141.657820
1 Jan 2020 11:50:22.000,261.207,-81.391,23067.838845
1 Jan 2020 11:50:52.000,263.781,-81.635,22999.139202
1 Jan 2020 11:51:22.000,266.514,-81.871,22935.660175
1 Jan 2020 11:51:52.000,269.416,-82.097,22877.496930
1 Jan 2020 11:52:22.000,272.492,-82.311,22824.738662
1 Jan 2020 11:52:52.000,275.745,-82.510,22777.468136
1 Jan 2020 11:53:22.000,279.175,-82.692,22735.761376
1 Jan 2020 11:53:52.000,282.777,-82.854,22699.687315
1 Jan 2020 11:54:22.000,286.542,-82.995,22669.307756
1 Jan 2020 11:54:52.000,290.455,-83.112,22644.676760
1 Jan 2020 11:55:22.000,294.492,-83.204,22625.840680
1 Jan 2020 11:55:52.000,298.627,-83.268,22612.837906
1 Jan 2020 11:56:22.000,302.826,-83.303,22605.698706
1 Jan 2020 11:56:52.000,307.053,-83.309,22604.445115
1 Jan 2020 11:57:22.000,311.269,-83.286,22609.090787
1 Jan 2020 11:57:52.000,315.437,-83.234,22619.641002
1 Jan 2020 11:58:22.000,319.520,-83.154,22636.092615
1 Jan 2020 11:58:52.000,323.489,-83.046,22658.434070
1 Jan 2020 11:59:22.000,327.318,-82.914,22686.645449
1 Jan 2020 11:59:52.000,330.988,-82.759,22720.698650
1 Jan 2020 12:00:22.000,334.485,-82.583,22760.557137
1 Jan 2020 12:00:52.000,337.802,-82.388,22806.176617
1 Jan 2020 12:01:22.000,340.937,-82.177,22857.504886
1 Jan 2020 12:01:52.000,343.891,-81.952,22914.482110
1 Jan 2020 12:02:22.000,346.669,-81.716,22977.041070
1 Jan 2020 12:02:52.000,349.278,-81.470,23045.107576
1 Jan 2020 12:03:22.000,351.726,-81.217,23118.600125
1 Jan 2020 12:03:52.000,354.022,-80.958,23197.431126
1 Jan 2020 12:04:22.000,356.176,-80.695,23281.506618
1 Jan 2020 12:04:52.000,358.197,-80.430,23370.726746
1 Jan 2020 12:05:22.000,0.095,-80.163,23464.986111
1 Jan 2020 12:05:52.000,1.880,-79.897,23564.174119
1 Jan 2020 12:06:22.000,3.559,-79.632,23668.175582
1 Jan 2020 12:06:52.000,5.141,-79.370,23776.870133
1 Jan 2020 12:07:22.000,6.633,-79.111,23890.133994
1 Jan 2020 12:07:52.000,8.042,-78.857,24007.839413
1 Jan 2020 12:08:22.000,9.375,-78.607,24129.855251
1 Jan 2020 12:08:52.000,10.638,-78.364,24256.047336
1 Jan 2020 12:09:22.000,11.836,-78.126,24386.278808
1 Jan 2020 12:09:52.000,12.973,-77.896,24520.410456
1 Jan 2020 12:10:22.000,14.055,-77.673,24658.301328
1 Jan 2020 12:10:52.000,15.086,-77.458,24799.807931
1 Jan 2020 12:11:22.000,16.069,-77.251,24944.786194
1 Jan 2020 12:11:52.000,17.008,-77.052,25093.090662
1 Jan 2020 12:12:22.000,17.906,-76.863,25244.575043
1 Jan 2020 12:12:52.000,18.765,-76.682,25399.092471
1 Jan 2020 12:13:22.000,19.589,-76.511,25556.495756
1 Jan 2020 12:13:52.000,20.380,-76.349,25716.637615
1 Jan 2020 12:14:22.000,21.140,-76.196,25879.370894
1 Jan 2020 12:14:52.000,21.871,-76.053,26044.548768
1 Jan 2020 12:15:05.699,22.196,-75.991,26120.749448
1 Jan 2020 13:41:01.985,212.524,-75.989,26118.692483
1 Jan 2020 13:41:31.000,212.226,-76.134,25945.793221
1 Jan 2020 13:42:01.000,211.900,-76.294,25769.127136
1 Jan 2020 13:42:31.000,211.556,-76.467,25594.760214
1 Jan 2020 13:43:01.000,211.192,-76.651,25422.853720
1 Jan 2020 13:43:31.000,210.807,-76.848,25253.570061
1 Jan 2020 13:44:01.000,210.398,-77.056,25087.072587
1 Jan 2020 13:44:31.000,209.965,-77.276,24923.525374
1 Jan 2020 13:45:01.000,209.505,-77.508,24763.092984
1 Jan 2020 13:45:31.000,209.015,-77.751,24605.940209
1 Jan 2020 13:46:01.000,208.493,-78.006,24452.231796
1 Jan 2020 13:46:31.000,207.936,-78.273,24302.131833
1 Jan 2020 13:47:01.000,207.340,-78.551,24155.804698
1 Jan 2020 13:47:31.000,206.701,-78.839,24013.412818
1 Jan 2020 13:48:01.000,206.016,-79.139,23875.117593
1 Jan 2020 13:48:31.000,205.278,-79.449,23741.078701
1 Jan 2020 13:49:01.000,204.481,-79.769,23611.453706
1 Jan 2020 13:49:31.000,203.619,-80.098,23486.397659
1 Jan 2020 13:50:01.000,202.682,-80.436,23366.062427
1 Jan 2020 13:50:31.000,201.663,-80.783,23250.597250
1 Jan 2020 13:51:01.000,200.548,-81.138,23140.146802
1 Jan 2020 13:51:31.000,199.325,-81.499,23034.851744
1 Jan 2020 13:52:01.000,197.978,-81.866,22934.848018
1 Jan 2020 13:52:31.000,196.487,-82.238,22840.266382
1 Jan 2020 13:53:01.000,194.830,-82.614,22751.231767
1 Jan 2020 13:53:31.000,192.978,-82.992,22667.863576
1 Jan 2020 13:54:01.000,190.900,-83.371,22590.274093
1 Jan 2020 13:54:31.000,188.554,-83.747,22518.568815
1 Jan 2020 13:55:01.000,185.892,-84.119,22452.845845
1 Jan 2020 13:55:31.000,182.858,-84.484,22393.195366
1 Jan 2020 13:56:01.000,179.384,-84.838,22339.699738
1 Jan 2020 13:56:31.000,175.395,-85.176,22292.432423
1 Jan 2020 13:57:01.000,170.808,-85.493,22251.458158
1 Jan 2020 13:57:31.000,165.546,-85.782,22216.832534
1 Jan 2020 13:58:01.000,159.549,-86.035,22188.601697
1 Jan 2020 13:58:31.000,152.802,-86.243,22166.802372
1 Jan 2020 13:59:01.000,145.362,-86.397,22151.461314
1 Jan 2020 13:59:31.000,137.390,-86.490,22142.595449
1 Jan 2020 14:00:01.000,129.144,-86.515,22140.211725
1 Jan 2020 14:00:31.000,120.940,-86.472,22144.307083
1 Jan 2020 14:01:01.000,113.085,-86.363,22154.868461
1 Jan 2020 14:01:31.000,105.812,-86.194,22171.872848
1 Jan 2020 14:02:01.000,99.252,-85.975,22195.287409
1 Jan 2020 14:02:31.000,93.440,-85.713,22225.069628
1 Jan 2020 14:03:01.000,88.344,-85.418,22261.167568
1 Jan 2020 14:03:31.000,83.898,-85.096,22303.519847
1 Jan 2020 14:04:01.000,80.021,-84.756,22352.056287
1 Jan 2020 14:04:31.000,76.633,-84.401,22406.697984
1 Jan 2020 14:05:01.000,73.661,-84.037,22467.357710
1 Jan 2020 14:05:31.000,71.038,-83.666,22533.940278
1 Jan 2020 14:06:01.000,68.713,-83.292,22606.343100
1 Jan 2020 14:06:31.000,66.637,-82.917,22684.455988
1 Jan 2020 14:07:01.000,64.774,-82.543,22768.162491
1 Jan 2020 14:07:31.000,63.091,-82.172,22857.339754
1 Jan 2020 14:08:01.000,61.563,-81.804,22951.859121
1 Jan 2020 14:08:31.000,60.168,-81.442,23051.586597
1 Jan 2020 14:09:01.000,58.887,-81.086,23156.383518
1 Jan 2020 14:09:31.000,57.706,-80.738,23266.106225
1 Jan 2020 14:10:01.000,56.610,-80.397,23380.607692
1 Jan 2020 14:10:31.000,55.590,-80.064,23499.737215
1 Jan 2020 14:11:01.000,54.635,-79.741,23623.341045
1 Jan 2020 14:11:31.000,53.739,-79.427,23751.262825
1 Jan 2020 14:12:01.000,52.894,-79.123,23883.344002
1 Jan 2020 14:12:31.000,52.095,-78.830,24019.424237
1 Jan 2020 14:13:01.000,51.335,-78.546,24159.342071
1 Jan 2020 14:13:31.000,50.612,-78.274,24302.934181
1 Jan 2020 14:14:01.000,49.920,-78.013,24450.037386
1 Jan 2020 14:14:31.000,49.257,-77.763,24600.487882
1 Jan 2020 14:15:01.000,48.619,-77.524,24754.121824
1 Jan 2020 14:15:31.000,48.004,-77.297,24910.775616
1 Jan 2020 14:16:01.000,47.409,-77.081,25070.286183
1 Jan 2020 14:16:31.000,46.832,-76.876,25232.491218
1 Jan 2020 14:17:01.000,46.272,-76.683,25397.229416
1 Jan 2020 14:17:31.000,45.727,-76.502,25564.340683
1 Jan 2020 14:18:01.000,45.194,-76.331,25733.666330
1 Jan 2020 14:18:31.000,44.673,-76.173,25905.049250
1 Jan 2020 14:19:01.000,44.163,-76.025,26078.334072
1 Jan 2020 14:19:07.877,44.047,-75.993,26118.306135
1 Jan 2020 15:49:37.242,172.784,-75.986,26111.320847
1 Jan 2020 15:50:07.000,171.532,-76.091,25984.454174
1 Jan 2020 15:50:37.000,170.239,-76.201,25859.053721
1 Jan 2020 15:51:07.000,168.914,-76.316,25736.263788
1 Jan 2020 15:51:37.000,167.555,-76.435,25616.185728
1 Jan 2020 15:52:07.000,166.161,-76.557,25498.919875
1 Jan 2020 15:52:37.000,164.731,-76.684,25384.565387
1 Jan 2020 15:53:07.000,163.263,-76.813,25273.220083
1 Jan 2020 15:53:37.000,161.754,-76.945,25164.980266
1 Jan 2020 15:54:07.000,160.205,-77.080,25059.940562
1 Jan 2020 15:54:37.000,158.613,-77.216,24958.193526
1 Jan 2020 15:55:07.000,156.976,-77.354,24859.830298
1 Jan 2020 15:55:37.000,155.293,-77.493,24764.939165
1 Jan 2020 15:56:07.000,153.564,-77.632,24673.606219
1 Jan 2020 15:56:37.000,151.785,-77.771,24585.914960
1 Jan 2020 15:57:07.000,149.957,-77.909,24501.946108
1 Jan 2020 15:57:37.000,148.078,-78.046,24421.777423
1 Jan 2020 15:58:07.000,146.148,-78.180,24345.483519
1 Jan 2020 15:58:37.000,144.165,-78.313,24273.135529
1 Jan 2020 15:59:07.000,142.130,-78.441,24204.801558
1 Jan 2020 15:59:37.000,140.042,-78.566,24140.545555
1 Jan 2020 16:00:07.000,137.901,-78.687,24080.427793
1 Jan 2020 16:00:37.000,135.709,-78.801,24024.504544
1 Jan 2020 16:01:07.000,133.467,-78.910,23972.827931
1 Jan 2020 16:01:37.000,131.176,-79.013,23925.445782
1 Jan 2020 16:02:07.000,128.837,-79.107,23882.401406
1 Jan 2020 16:02:37.000,126.455,-79.194,23843.733849
1 Jan 2020 16:03:07.000,124.031,-79.273,23809.477204
1 Jan 2020 16:03:37.000,121.571,-79.342,23779.660908
1 Jan 2020 16:04:07.000,119.077,-79.402,23754.309555
1 Jan 2020 16:04:37.000,116.554,-79.452,23733.442827
1 Jan 2020 16:05:07.000,114.008,-79.491,23717.075437
1 Jan 2020 16:05:37.000,111.443,-79.520,23705.217055
1 Jan 2020 16:06:07.000,108.867,-79.538,23697.872415
1 Jan 2020 16:06:37.000,106.283,-79.545,23695.041094
1 Jan 2020 16:07:07.000,103.699,-79.541,23696.717664
1 Jan 2020 16:07:37.000,101.121,-79.526,23702.891676
1 Jan 2020 16:08:07.000,98.553,-79.500,23713.547691
1 Jan 2020 16:08:37.000,96.002,-79.464,23728.665337
1 Jan 2020 16:09:07.000,93.474,-79.417,23748.219407
1 Jan 2020 16:09:37.000,90.972,-79.361,23772.179806
1 Jan 2020 16:10:07.000,88.503,-79.295,23800.511833
1 Jan 2020 16:10:37.000,86.069,-79.220,23833.176172
1 Jan 2020 16:11:07.000,83.674,-79.137,23870.129039
1 Jan 2020 16:11:37.000,81.322,-79.046,23911.322313
1 Jan 2020 16:12:07.000,79.015,-78.948,23956.703680
1 Jan 2020 16:12:37.000,76.754,-78.843,24006.216780
1 Jan 2020 16:13:07.000,74.542,-78.732,24059.801485
1 Jan 2020 16:13:37.000,72.379,-78.615,24117.393621
1 Jan 2020 16:14:07.000,70.267,-78.495,24178.925795
1 Jan 2020 16:14:37.000,68.205,-78.370,24244.327151
1 Jan 2020 16:15:07.000,66.193,-78.242,24313.523655
1 Jan 2020 16:15:37.000,64.231,-78.111,24386.438287
1 Jan 2020 16:16:07.000,62.318,-77.979,24462.991229
1 Jan 2020 16:16:37.000,60.453,-77.845,24543.100058
1 Jan 2020 16:17:07.000,58.636,-77.710,24626.679935
1 Jan 2020 16:17:37.000,56.864,-77.574,24713.643979
1 Jan 2020 16:18:07.000,55.138,-77.440,24803.902749
1 Jan 2020 16:18:37.000,53.454,-77.305,24897.365483
1 Jan 2020 16:19:07.000,51.812,-77.172,24993.939586
1 Jan 2020 16:19:37.000,50.211,-77.041,25093.530989
1 Jan 2020 16:20:07.000,48.648,-76.912,25196.044322
1 Jan 2020 16:20:37.000,47.122,-76.785,25301.383090
1 Jan 2020 16:21:07.000,45.632,-76.661,25409.449839
1 Jan 2020 16:21:37.000,44.175,-76.540,25520.146318
1 Jan 2020 16:22:07.000,42.751,-76.423,25633.373637
1 Jan 2020 16:22:37.000,41.358,-76.309,25749.032413
1 Jan 2020 16:23:07.000,39.995,-76.200,25867.022919
1 Jan 2020 16:23:37.000,38.659,-76.094,25987.245215
1 Jan 2020 16:24:07.000,37.350,-75.993,26109.599534
1 Jan 2020 16:24:07.386,37.333,-75.992,26111.187314
1 Jan 2020 18:00:31.539,135.781,-75.987,26105.031797
1 Jan 2020 18:01:01.000,134.665,-76.100,25968.460016
1 Jan 2020 18:01:31.000,133.504,-76.222,25831.342238
1 Jan 2020 18:02:01.000,132.315,-76.350,25696.311959
1 Jan 2020 18:02:31.000,131.098,-76.484,25563.489401
1 Jan 2020 18:03:01.000,129.851,-76.624,25432.995315
1 Jan 2020 18:03:31.000,128.570,-76.770,25304.950823
1 Jan 2020 18:04:01.000,127.254,-76.921,25179.477262
1 Jan 2020 18:04:31.000,125.901,-77.077,25056.696005
1 Jan 2020 18:05:01.000,124.509,-77.239,24936.728278
1 Jan 2020 18:05:31.000,123.074,-77.405,24819.694968
1 Jan 2020 18:06:01.000,121.593,-77.575,24705.716419
1 Jan 2020 18:06:31.000,120.065,-77.748,24594.911991
1 Jan 2020 18:07:01.000,118.487,-77.925,24487.400729
1 Jan 2020 18:07:31.000,116.854,-78.104,24383.299784
1 Jan 2020 18:08:01.000,115.164,-78.286,24282.725074
1 Jan 2020 18:08:31.000,113.415,-78.468,24185.790805
1 Jan 2020 18:09:01.000,111.602,-78.652,24092.609214
1 Jan 2020 18:09:31.000,109.723,-78.835,24003.290304
1 Jan 2020 18:10:01.000,107.774,-79.018,23917.941577
1 Jan 2020 18:10:31.000,105.752,-79.199,23836.667611
1 Jan 2020 18:11:01.000,103.656,-79.377,23759.570392
1 Jan 2020 18:11:31.000,101.481,-79.552,23686.748110
1 Jan 2020 18:12:01.000,99.227,-79.722,23618.295513
1 Jan 2020 18:12:31.000,96.891,-79.887,23554.303470
1 Jan 2020 18:13:01.000,94.473,-80.044,23494.858703
1 Jan 2020 18:13:31.000,91.973,-80.194,23440.043519
1 Jan 2020 18:14:01.000,89.391,-80.335,23389.935464
1 Jan 2020 18:14:31.000,86.729,-80.466,23344.607433
1 Jan 2020 18:15:01.000,83.991,-80.586,23304.126879
1 Jan 2020 18:15:31.000,81.180,-80.694,23268.555963
1 Jan 2020 18:16:01.000,78.303,-80.788,23237.951245
1 Jan 2020 18:16:31.000,75.366,-80.868,23212.363487
1 Jan 2020 18:17:01.000,72.379,-80.934,23191.837452
1 Jan 2020 18:17:31.000,69.350,-80.983,23176.411840
1 Jan 2020 18:18:01.000,66.292,-81.017,23166.118985
1 Jan 2020 18:18:31.000,63.214,-81.033,23160.984859
1 Jan 2020 18:19:01.000,60.130,-81.033,23161.028936
1 Jan 2020 18:19:31.000,57.052,-81.016,23166.264121
1 Jan 2020 18:20:01.000,53.993,-80.983,23176.696743
1 Jan 2020 18:20:31.000,50.963,-80.932,23192.326372
1 Jan 2020 18:21:01.000,47.975,-80.866,23213.146033
1 Jan 2020 18:21:31.000,45.038,-80.785,23239.142096
1 Jan 2020 18:22:01.000,42.162,-80.689,23270.294353
1 Jan 2020 18:22:31.000,39.353,-80.579,23306.576087
1 Jan 2020 18:23:01.000,36.619,-80.457,23347.954264
1 Jan 2020 18:23:31.000,33.964,-80.323,23394.389261
1 Jan 2020 18:24:01.000,31.392,-80.179,23445.835566
1 Jan 2020 18:24:31.000,28.904,-80.025,23502.241567
1 Jan 2020 18:25:01.000,26.503,-79.863,23563.549814
1 Jan 2020 18:25:31.000,24.188,-79.694,23629.697207
1 Jan 2020 18:26:01.000,21.959,-79.519,23700.615205
1 Jan 2020 18:26:31.000,19.814,-79.339,23776.230219
1 Jan 2020 18:27:01.000,17.751,-79.155,23856.463144
1 Jan 2020 18:27:31.000,15.769,-78.969,23941.230636
1 Jan 2020 18:28:01.000,13.864,-78.780,24030.444676
1 Jan 2020 18:28:31.000,12.034,-78.591,24124.013002
1 Jan 2020 18:29:01.000,10.275,-78.401,24221.839359
1 Jan 2020 18:29:31.000,8.585,-78.212,24323.823770
1 Jan 2020 18:30:01.000,6.959,-78.024,24429.862800
1 Jan 2020 18:30:31.000,5.396,-77.839,24539.850061
1 Jan 2020 18:31:01.000,3.892,-77.657,24653.675520
1 Jan 2020 18:31:31.000,2.443,-77.477,24771.227186
1 Jan 2020 18:32:01.000,1.048,-77.302,24892.390422
1 Jan 2020 18:32:31.000,359.702,-77.131,25017.048437
1 Jan 2020 18:33:01.000,358.404,-76.966,25145.082531
1 Jan 2020 18:33:31.000,357.151,-76.805,25276.372330
1 Jan 2020 18:34:01.000,355.940,-76.650,25410.796027
1 Jan 2020 18:34:31.000,354.769,-76.501,25548.230600
1 Jan 2020 18:35:01.000,353.636,-76.359,25688.552032
1 Jan 2020 18:35:31.000,352.539,-76.223,25831.635514
1 Jan 2020 18:36:01.000,351.475,-76.094,25977.355947
1 Jan 2020 18:36:26.820,350.585,-75.989,26104.788167
1 Jan 2020 20:03:56.864,140.628,-75.989,26104.702912
1 Jan 2020 20:04:26.000,140.535,-76.136,25928.772603
1 Jan 2020 20:04:56.000,140.444,-76.300,25749.558849
1 Jan 2020 20:05:26.000,140.357,-76.476,25572.467299
1 Jan 2020 20:05:56.000,140.273,-76.665,25397.662307
1 Jan 2020 20:06:26.000,140.193,-76.866,25225.309859
1 Jan 2020 20:06:56.000,140.118,-77.080,25055.577396
1 Jan 2020 20:07:26.000,140.046,-77.307,24888.633604
1 Jan 2020 20:07:56.000,139.978,-77.547,24724.648194
1 Jan 2020 20:08:26.000,139.914,-77.800,24563.791658
1 Jan 2020 20:08:56.000,139.854,-78.065,24406.234999
1 Jan 2020 20:09:26.000,139.798,-78.343,24252.149150
1 Jan 2020 20:09:56.000,139.746,-78.635,24101.705869
1 Jan 2020 20:10:26.000,139.698,-78.938,23955.075582
1 Jan 2020 20:10:56.000,139.654,-79.255,23812.428259
1 Jan 2020 20:11:26.000,139.616,-79.584,23673.932725
1 Jan 2020 20:11:56.000,139.581,-79.925,23539.756271
1 Jan 2020 20:12:26.000,139.552,-80.278,23410.064234
1 Jan 2020 20:12:56.000,139.528,-80.644,23285.019324
1 Jan 2020 20:13:26.000,139.510,-81.021,23164.782150
1 Jan 2020 20:13:56.000,139.497,-81.409,23049.509273
1 Jan 2020 20:14:26.000,139.491,-81.808,22939.353725
1 Jan 2020 20:14:56.000,139.492,-82.218,22834.464269
1 Jan 2020 20:15:26.000,139.502,-82.638,22734.984901
1 Jan 2020 20:15:56.000,139.520,-83.069,22641.054164
1 Jan 2020 20:16:26.000,139.549,-83.508,22552.805404
1 Jan 2020 20:16:56.000,139.591,-83.957,22470.365120
1 Jan 2020 20:17:26.000,139.647,-84.413,22393.853252
1 Jan 2020 20:17:56.000,139.723,-84.878,22323.382504
1 Jan 2020 20:18:26.000,139.822,-85.350,22259.057762
1 Jan 2020 20:18:56.000,139.953,-85.829,22200.976133
1 Jan 2020 20:19:26.000,140.127,-86.313,22149.225782
1 Jan 2020 20:19:56.000,140.364,-86.803,22103.886051
1 Jan 2020 20:20:26.000,140.697,-87.297,22065.026967
1 Jan 2020 20:20:56.000,141.190,-87.796,22032.708862
1 Jan 2020 20:21:26.000,141.983,-88.297,22006.982340
1 Jan 2020 20:21:56.000,143.454,-88.800,21987.887646
1 Jan 2020 20:22:26.000,147.067,-89.303,21975.454748
1 Jan 2020 20:22:56.000,168.275,-89.791,21969.703119
1 Jan 2020 20:23:26.000,300.787,-89.658,21970.641655
1 Jan 2020 20:23:56.000,311.383,-89.161,21978.268608
1 Jan 2020 20:24:26.000,314.071,-88.657,21992.571606
1 Jan 2020 20:24:56.000,315.297,-88.154,22013.527720
1 Jan 2020 20:25:26.000,316.003,-87.654,22041.103571
1 Jan 2020 20:25:56.000,316.468,-87.157,22075.255563
1 Jan 2020 20:26:26.000,316.800,-86.664,22115.929804
1 Jan 2020 20:26:56.000,317.052,-86.175,22163.062774
1 Jan 2020 20:27:26.000,317.254,-85.692,22216.581357
1 Jan 2020 20:27:56.000,317.422,-85.216,22276.403239
1 Jan 2020 20:28:26.000,317.565,-84.746,22342.437408
1 Jan 2020 20:28:56.000,317.692,-84.283,22414.584038
1 Jan 2020 20:29:26.000,317.806,-83.829,22492.735681
1 Jan 2020 20:29:56.000,317.912,-83.383,22576.777217
1 Jan 2020 20:30:26.000,318.010,-82.946,22666.586451
1 Jan 2020 20:30:56.000,318.104,-82.519,22762.034591
1 Jan 2020 20:31:26.000,318.194,-82.102,22862.986961
1 Jan 2020 20:31:56.000,318.282,-81.695,22969.302654
1 Jan 2020 20:32:26.000,318.369,-81.299,23080.836284
1 Jan 2020 20:32:56.000,318.454,-80.914,23197.437661
1 Jan 2020 20:33:26.000,318.539,-80.540,23318.952492
1 Jan 2020 20:33:56.000,318.624,-80.178,23445.222868
1 Jan 2020 20:34:26.000,318.710,-79.828,23576.087732
1 Jan 2020 20:34:56.000,318.797,-79.491,23711.383619
1 Jan 2020 20:35:26.000,318.884,-79.165,23850.944022
1 Jan 2020 20:35:56.000,318.973,-78.852,23994.601423
1 Jan 2020 20:36:26.000,319.064,-78.552,24142.186638
1 Jan 2020 20:36:56.000,319.156,-78.265,24293.529478
1 Jan 2020 20:37:26.000,319.250,-77.990,24448.459105
1 Jan 2020 20:37:56.000,319.346,-77.728,24606.804389
1 Jan 2020 20:38:26.000,319.445,-77.479,24768.394224
1 Jan 2020 20:38:56.000,319.546,-77.243,24933.057836
1 Jan 2020 20:39:26.000,319.649,-77.020,25100.625060
1 Jan 2020 20:39:56.000,319.755,-76.809,25270.926924
1 Jan 2020 20:40:26.000,319.863,-76.611,25443.794593
1 Jan 2020 20:40:56.000,319.974,-76.426,25619.061519
1 Jan 2020 20:41:26.000,320.088,-76.253,25796.562355
1 Jan 2020 20:41:56.000,320.206,-76.093,25976.133451
1 Jan 2020 20:42:17.319,320.291,-75.986,26104.912960
1 Jan 2020 22:09:54.999,171.442,-75.993,26110.784547
1 Jan 2020 22:10:24.000,172.459,-76.110,25968.917862
1 Jan 2020 22:10:54.000,173.542,-76.238,25824.649688
1 Jan 2020 22:11:24.000,174.660,-76.373,25683.034531
1 Jan 2020 22:11:54.000,175.813,-76.515,25544.196265
1 Jan 2020 22:12:24.000,177.004,-76.663,25408.258101
1 Jan 2020 22:12:54.000,178.235,-76.816,25275.342397
1 Jan 2020 22:13:24.000,179.509,-76.975,25145.570452
1 Jan 2020 22:13:54.000,180.827,-77.139,25019.062288
1 Jan 2020 22:14:24.000,182.193,-77.308,24895.936434
1 Jan 2020 22:14:54.000,183.609,-77.481,24776.309444
1 Jan 2020 22:15:24.000,185.078,-77.658,24660.296657
1 Jan 2020 22:15:54.000,186.603,-77.837,24548.010448
1 Jan 2020 22:16:24.000,188.186,-78.020,24439.560993
1 Jan 2020 22:16:54.000,189.831,-78.204,24335.055758
1 Jan 2020 22:17:24.000,191.540,-78.389,24234.599243
1 Jan 2020 22:17:54.000,193.317,-78.575,24138.292721
1 Jan 2020 22:18:24.000,195.165,-78.761,24046.233985
1 Jan 2020 22:18:54.000,197.086,-78.945,23958.516879
1 Jan 2020 22:19:24.000,199.082,-79.127,23875.231865
1 Jan 2020 22:19:54.000,201.158,-79.306,23796.464524
1 Jan 2020 22:20:24.000,203.313,-79.481,23722.296148
1 Jan 2020 22:20:54.000,205.551,-79.651,23652.803284
1 Jan 2020 22:21:24.000,207.872,-79.815,23588.057506
1 Jan 2020 22:21:54.000,210.276,-79.972,23528.125187
1 Jan 2020 22:22:24.000,212.763,-80.120,23473.067162
1 Jan 2020 22:22:54.000,215.332,-80.259,23422.939063
1 Jan 2020 22:23:24.000,217.978,-80.387,23377.790324
1 Jan 2020 22:23:54.000,220.700,-80.504,23337.664565
1 Jan 2020 22:24:24.000,223.492,-80.608,23302.599311
1 Jan 2020 22:24:54.000,226.347,-80.699,23272.625859
1 Jan 2020 22:25:24.000,229.259,-80.775,23247.769117
1 Jan 2020 22:25:54.000,232.217,-80.836,23228.047758
1 Jan 2020 22:26:24.000,235.213,-80.882,23213.473782
1 Jan 2020 22:26:54.000,238.236,-80.912,23204.052734
1 Jan 2020 22:27:24.000,241.273,-80.925,23199.783626
1 Jan 2020 22:27:54.000,244.314,-80.923,23200.658936
1 Jan 2020 22:28:24.000,247.347,-80.903,23206.664648
1 Jan 2020 22:28:54.000,250.360,-80.868,23217.780301
1 Jan 2020 22:29:24.000,253.342,-80.817,23233.979053
1 Jan 2020 22:29:54.000,256.284,-80.751,23255.227803
1 Jan 2020 22:30:24.000,259.175,-80.670,23281.487297
1 Jan 2020 22:30:54.000,262.009,-80.576,23312.712278
1 Jan 2020 22:31:24.000,264.778,-80.469,23348.851641
1 Jan 2020 22:31:54.000,267.477,-80.350,23389.848693
1 Jan 2020 22:32:24.000,270.102,-80.221,23435.641036
1 Jan 2020 22:32:54.000,272.651,-80.082,23486.161234
1 Jan 2020 22:33:24.000,275.120,-79.934,23541.336739
1 Jan 2020 22:33:54.000,277.510,-79.779,23601.090202
1 Jan 2020 22:34:24.000,279.821,-79.617,23665.339718
1 Jan 2020 22:34:54.000,282.053,-79.450,23733.999078
1 Jan 2020 22:35:24.000,284.208,-79.279,23806.978168
1 Jan 2020 22:35:54.000,286.288,-79.104,23884.182694
1 Jan 2020 22:36:24.000,288.295,-78.926,23965.515250
1 Jan 2020 22:36:54.000,290.232,-78.747,24050.875062
1 Jan 2020 22:37:24.000,292.102,-78.568,24140.158391
1 Jan 2020 22:37:54.000,293.906,-78.388,24233.258799
1 Jan 2020 22:38:24.000,295.650,-78.209,24330.067418
1 Jan 2020 22:38:54.000,297.335,-78.031,24430.473210
1 Jan 2020 22:39:24.000,298.964,-77.855,24534.363226
1 Jan 2020 22:39:54.000,300.541,-77.682,24641.623072
1 Jan 2020 22:40:24.000,302.069,-77.512,24752.136301
1 Jan 2020 22:40:54.000,303.549,-77.346,24865.785915
1 Jan 2020 22:41:24.000,304.986,-77.184,24982.453761
1 Jan 2020 22:41:54.000,306.380,-77.026,25102.020948
1 Jan 2020 22:42:24.000,307.736,-76.872,25224.368067
1 Jan 2020 22:42:54.000,309.055,-76.724,25349.375383
1 Jan 2020 22:43:24.000,310.340,-76.582,25476.923027
1 Jan 2020 22:43:54.000,311.592,-76.445,25606.891177
1 Jan 2020 22:44:24.000,312.815,-76.314,25739.160224
1 Jan 2020 22:44:54.000,314.008,-76.188,25873.610931
1 Jan 2020 22:45:24.000,315.176,-76.070,26010.124584
1 Jan 2020 22:45:45.916,316.012,-75.987,26111.086380
2 Jan 2020 00:22:13.275,217.874,-75.993,26118.198255
2 Jan 2020 00:22:43.000,219.164,-76.093,25996.257588
2 Jan 2020 00:23:13.000,220.492,-76.199,25875.298730
2 Jan 2020 00:23:43.000,221.848,-76.309,25756.558867
2 Jan 2020 00:24:13.000,223.233,-76.423,25640.138741
2 Jan 2020 00:24:43.000,224.649,-76.541,25526.138920
2 Jan 2020 00:25:13.000,226.098,-76.663,25414.659672
2 Jan 2020 00:25:43.000,227.580,-76.788,25305.800810
2 Jan 2020 00:26:13.000,229.098,-76.916,25199.661550
2 Jan 2020 00:26:43.000,230.654,-77.046,25096.340349
2 Jan 2020 00:27:13.000,232.248,-77.179,24995.934747
2 Jan 2020 00:27:43.000,233.882,-77.313,24898.541191
2 Jan 2020 00:28:13.000,235.559,-77.449,24804.254676
2 Jan 2020 00:28:43.000,237.278,-77.585,24713.169342
2 Jan 2020 00:29:13.000,239.043,-77.722,24625.377108
2 Jan 2020 00:29:43.000,240.855,-77.859,24540.968282
2 Jan 2020 00:30:13.000,242.714,-77.995,24460.031169
2 Jan 2020 00:30:43.000,244.621,-78.129,24382.651879
2 Jan 2020 00:31:13.000,246.579,-78.262,24308.914132
2 Jan 2020 00:31:43.000,248.587,-78.392,24238.899062
2 Jan 2020 00:32:13.000,250.646,-78.519,24172.684906
2 Jan 2020 00:32:43.000,252.757,-78.642,24110.347291
2 Jan 2020 00:33:13.000,254.918,-78.761,24051.958309
2 Jan 2020 00:33:43.000,257.130,-78.874,23997.586821
2 Jan 2020 00:34:13.000,259.392,-78.981,23947.298154
2 Jan 2020 00:34:43.000,261.702,-79.082,23901.153917
2 Jan 2020 00:35:13.000,264.058,-79.175,23859.211832
2 Jan 2020 00:35:43.000,266.457,-79.261,23821.525565
2 Jan 2020 00:36:13.000,268.898,-79.338,23788.144517
2 Jan 2020 00:36:43.000,271.375,-79.406,23759.113920
2 Jan 2020 00:37:13.000,273.886,-79.465,23734.474313
2 Jan 2020 00:37:43.000,276.425,-79.514,23714.261693
2 Jan 2020 00:38:13.000,278.987,-79.552,23698.507327
2 Jan 2020 00:38:43.000,281.568,-79.579,23687.237654
2 Jan 2020 00:39:13.000,284.161,-79.596,23680.474205
2 Jan 2020 00:39:43.000,286.760,-79.601,23678.233537
2 Jan 2020 00:40:13.000,289.359,-79.596,23680.527153
2 Jan 2020 00:40:43.000,291.952,-79.579,23687.361487
2 Jan 2020 00:41:13.000,294.533,-79.551,23698.737878
2 Jan 2020 00:41:43.000,297.096,-79.512,23714.652552
2 Jan 2020 00:42:13.000,299.636,-79.463,23735.096639
2 Jan 2020 00:42:43.000,302.147,-79.403,23760.056191
2 Jan 2020 00:43:13.000,304.624,-79.334,23789.512299
2 Jan 2020 00:43:43.000,307.064,-79.256,23823.440855
2 Jan 2020 00:44:13.000,309.462,-79.168,23861.813045
2 Jan 2020 00:44:43.000,311.815,-79.073,23904.595161
2 Jan 2020 00:45:13.000,314.120,-78.970,23951.748760
2 Jan 2020 00:45:43.000,316.376,-78.860,24003.230781
2 Jan 2020 00:46:13.000,318.580,-78.744,24058.993658
2 Jan 2020 00:46:43.000,320.732,-78.623,24118.985462
2 Jan 2020 00:47:13.000,322.830,-78.497,24183.150193
2 Jan 2020 00:47:43.000,324.875,-78.366,24251.427324
2 Jan 2020 00:48:13.000,326.866,-78.233,24323.752863
2 Jan 2020 00:48:43.000,328.804,-78.096,24400.058931
2 Jan 2020 00:49:13.000,330.689,-77.958,24480.274078
2 Jan 2020 00:49:43.000,332.523,-77.818,24564.323463
2 Jan 2020 00:50:13.000,334.306,-77.677,24652.129036
2 Jan 2020 00:50:43.000,336.039,-77.536,24743.609722
2 Jan 2020 00:51:13.000,337.724,-77.396,24838.681612
2 Jan 2020 00:51:43.000,339.363,-77.256,24937.258367
2 Jan 2020 00:52:13.000,340.957,-77.118,25039.250535
2 Jan 2020 00:52:43.000,342.507,-76.981,25144.567036
2 Jan 2020 00:53:13.000,344.015,-76.847,25253.114489
2 Jan 2020 00:53:43.000,345.483,-76.716,25364.797607
2 Jan 2020 00:54:13.000,346.912,-76.588,25479.519380
2 Jan 2020 00:54:43.000,348.304,-76.464,25597.181247
2 Jan 2020 00:55:13.000,349.660,-76.343,25717.683270
2 Jan 2020 00:55:43.000,350.983,-76.227,25840.924303
2 Jan 2020 00:56:13.000,352.272,-76.115,25966.802149
2 Jan 2020 00:56:43.000,353.531,-76.008,26095.213722
2 Jan 2020 00:56:48.357,353.753,-75.989,26118.401881
2 Jan 2020 02:27:05.504,223.865,-75.991,26120.683638
2 Jan 2020 02:27:35.000,224.344,-76.134,25949.298647
2 Jan 2020 02:28:05.000,224.840,-76.291,25776.833411
2 Jan 2020 02:28:35.000,225.347,-76.459,25606.388585
2 Jan 2020 02:29:05.000,225.866,-76.638,25438.121343
2 Jan 2020 02:29:35.000,226.398,-76.829,25272.190499
2 Jan 2020 02:30:05.000,226.945,-77.032,25108.756330
2 Jan 2020 02:30:35.000,227.508,-77.246,24947.980391
2 Jan 2020 02:31:05.000,228.091,-77.472,24790.025309
2 Jan 2020 02:31:35.000,228.694,-77.709,24635.054552
2 Jan 2020 02:32:05.000,229.321,-77.958,24483.232190
2 Jan 2020 02:32:35.000,229.974,-78.218,24334.722349
2 Jan 2020 02:33:05.000,230.656,-78.490,24189.690030
2 Jan 2020 02:33:35.000,231.372,-78.772,24048.299142
2 Jan 2020 02:34:05.000,232.125,-79.066,23910.713286
2 Jan 2020 02:34:35.000,232.920,-79.369,23777.095132
2 Jan 2020 02:35:05.000,233.762,-79.683,23647.606049
2 Jan 2020 02:35:35.000,234.659,-80.007,23522.405726
2 Jan 2020 02:36:05.000,235.617,-80.341,23401.651545
2 Jan 2020 02:36:35.000,236.645,-80.683,23285.499054
2 Jan 2020 02:37:05.000,237.753,-81.033,23174.100191
2 Jan 2020 02:37:35.000,238.954,-81.392,23067.603739
2 Jan 2020 02:38:05.000,240.262,-81.757,22966.154648
2 Jan 2020 02:38:35.000,241.694,-82.128,22869.893569
2 Jan 2020 02:39:05.000,243.271,-82.504,22778.956219
2 Jan 2020 02:39:35.000,245.019,-82.883,22693.473591
2 Jan 2020 02:40:05.000,246.968,-83.264,22613.570451
2 Jan 2020 02:40:35.000,249.156,-83.646,22539.365574
2 Jan 2020 02:41:05.000,251.627,-84.026,22470.971113
2 Jan 2020 02:41:35.000,254.437,-84.401,22408.492157
2 Jan 2020 02:42:05.000,257.653,-84.768,22352.026192
2 Jan 2020 02:42:35.000,261.352,-85.123,22301.663158
2 Jan 2020 02:43:05.000,265.625,-85.461,22257.484357
2 Jan 2020 02:43:35.000,270.569,-85.775,22219.562587
2 Jan 2020 02:44:05.000,276.274,-86.059,22187.961698
2 Jan 2020 02:44:35.000,282.805,-86.302,22162.736267
2 Jan 2020 02:45:05.000,290.163,-86.496,22143.931510
2 Jan 2020 02:45:35.000,298.247,-86.629,22131.582818
2 Jan 2020 02:46:05.000,306.827,-86.695,22125.715777
2 Jan 2020 02:46:35.000,315.561,-86.688,22126.346002
2 Jan 2020 02:47:05.000,324.070,-86.609,22133.479090
2 Jan 2020 02:47:35.000,332.029,-86.463,22147.110495
2 Jan 2020 02:48:05.000,339.229,-86.258,22167.225683
2 Jan 2020 02:48:35.000,345.592,-86.005,22193.800123
2 Jan 2020 02:49:05.000,351.131,-85.714,22226.799420
2 Jan 2020 02:49:35.000,355.919,-85.393,22266.179565
2 Jan 2020 02:50:05.000,0.049,-85.049,22311.886787
2 Jan 2020 02:50:35.000,3.616,-84.689,22363.858303
2 Jan 2020 02:51:05.000,6.709,-84.318,22422.022276
2 Jan 2020 02:51:35.000,9.404,-83.939,22486.298206
2 Jan 2020 02:52:05.000,11.766,-83.556,22556.597423
2 Jan 2020 02:52:35.000,13.848,-83.171,22632.822902
2 Jan 2020 02:53:05.000,15.693,-82.786,22714.870484
2 Jan 2020 02:53:35.000,17.338,-82.404,22802.628762
2 Jan 2020 02:54:05.000,18.812,-82.026,22895.979643
2 Jan 2020 02:54:35.000,20.139,-81.652,22994.798802
2 Jan 2020 02:55:05.000,21.340,-81.285,23098.956353
2 Jan 2020 02:55:35.000,22.432,-80.924,23208.316448
2 Jan 2020 02:56:05.000,23.428,-80.572,23322.739024
2 Jan 2020 02:56:35.000,24.340,-80.228,23442.079416
2 Jan 2020 02:57:05.000,25.178,-79.893,23566.189027
2 Jan 2020 02:57:35.000,25.951,-79.568,23694.915774
2 Jan 2020 02:58:05.000,26.665,-79.252,23828.104524
2 Jan 2020 02:58:35.000,27.328,-78.948,23965.597800
2 Jan 2020 02:59:05.000,27.943,-78.654,24107.235108
2 Jan 2020 02:59:35.000,28.517,-78.371,24252.854939
2 Jan 2020 03:00:05.000,29.052,-78.099,24402.294092
2 Jan 2020 03:00:35.000,29.553,-77.839,24555.388293
2 Jan 2020 03:01:05.000,30.022,-77.591,24711.972537
2 Jan 2020 03:01:35.000,30.462,-77.354,24871.881416
2 Jan 2020 03:02:05.000,30.875,-77.130,25034.949417
2 Jan 2020 03:02:35.000,31.264,-76.917,25201.011204
2 Jan 2020 03:03:05.000,31.631,-76.716,25369.901888
2 Jan 2020 03:03:35.000,31.976,-76.528,25541.457262
2 Jan 2020 03:04:05.000,32.302,-76.351,25715.514378
2 Jan 2020 03:04:35.000,32.610,-76.186,25891.910369
2 Jan 2020 03:05:05.000,32.900,-76.033,26070.484702
2 Jan 2020 03:05:13.378,32.979,-75.993,26120.722708
2 Jan 2020 04:31:12.696,201.554,-75.988,26116.411371
2 Jan 2020 04:31:42.000,200.834,-76.122,25954.913090
2 Jan 2020 04:32:12.000,200.068,-76.269,25791.937408
2 Jan 2020 04:32:42.000,199.271,-76.426,25631.491935
2 Jan 2020 04:33:12.000,198.442,-76.591,25473.722581
2 Jan 2020 04:33:42.000,197.579,-76.766,25318.775438
2 Jan 2020 04:34:12.000,196.678,-76.950,25166.796570
2 Jan 2020 04:34:42.000,195.737,-77.143,25017.931785
2 Jan 2020 04:35:12.000,194.752,-77.344,24872.326393
2 Jan 2020 04:35:42.000,193.722,-77.553,24730.124956
2 Jan 2020 04:36:12.000,192.641,-77.770,24591.470741
2 Jan 2020 04:36:42.000,191.507,-77.994,24456.506547
2 Jan 2020 04:37:12.000,190.314,-78.225,24325.372738
2 Jan 2020 04:37:42.000,189.059,-78.463,24198.208053
2 Jan 2020 04:38:12.000,187.735,-78.707,24075.149010
2 Jan 2020 04:38:42.000,186.338,-78.955,23956.329574
2 Jan 2020 04:39:12.000,184.862,-79.208,23841.880820
2 Jan 2020 04:39:42.000,183.299,-79.465,23731.930362
2 Jan 2020 04:40:12.000,181.644,-79.724,23626.602904
2 Jan 2020 04:40:42.000,179.888,-79.985,23526.018517
2 Jan 2020 04:41:12.000,178.023,-80.246,23430.293201
2 Jan 2020 04:41:42.000,176.042,-80.507,23339.538298
2 Jan 2020 04:42:12.000,173.934,-80.766,23253.860130
2 Jan 2020 04:42:42.000,171.692,-81.021,23173.359491
2 Jan 2020 04:43:12.000,169.306,-81.271,23098.131969
2 Jan 2020 04:43:42.000,166.768,-81.515,23028.266594
2 Jan 2020 04:44:12.000,164.070,-81.749,22963.846214
2 Jan 2020 04:44:42.000,161.206,-81.973,22904.947006
2 Jan 2020 04:45:12.000,158.171,-82.184,22851.638200
2 Jan 2020 04:45:42.000,154.962,-82.380,22803.981698
2 Jan 2020 04:46:12.000,151.582,-82.559,22762.032286
2 Jan 2020 04:46:42.000,148.036,-82.718,22725.836724
2 Jan 2020 04:47:12.000,144.335,-82.855,22695.434031
2 Jan 2020 04:47:42.000,140.496,-82.969,22670.855207
2 Jan 2020 04:48:12.000,136.539,-83.058,22652.123104
2 Jan 2020 04:48:42.000,132.492,-83.120,22639.252297
2 Jan 2020 04:49:12.000,128.386,-83.154,22632.249182
2 Jan 2020 04:49:42.000,124.256,-83.159,22631.111690
2 Jan 2020 04:50:12.000,120.136,-83.136,22635.829485
2 Jan 2020 04:50:42.000,116.063,-83.086,22646.383954
2 Jan 2020 04:51:12.000,112.068,-83.008,22662.748285
2 Jan 2020 04:51:42.000,108.179,-82.905,22684.887622
2 Jan 2020 04:52:12.000,104.420,-82.778,22712.759056
2 Jan 2020 04:52:42.000,100.807,-82.629,22746.312009
2 Jan 2020 04:53:12.000,97.354,-82.460,22785.488312
2 Jan 2020 04:53:42.000,94.066,-82.273,22830.222466
2 Jan 2020 04:54:12.000,90.947,-82.071,22880.441899
2 Jan 2020 04:54:42.000,87.995,-81.856,22936.067357
2 Jan 2020 04:55:12.000,85.206,-81.630,22997.012781
2 Jan 2020 04:55:42.000,82.575,-81.394,23063.186245
2 Jan 2020 04:56:12.000,80.093,-81.152,23134.489885
2 Jan 2020 04:56:42.000,77.752,-80.904,23210.820349
2 Jan 2020 04:57:12.000,75.543,-80.652,23292.069150
2 Jan 2020 04:57:42.000,73.457,-80.398,23378.123029
2 Jan 2020 04:58:12.000,71.486,-80.143,23468.864509
2 Jan 2020 04:58:42.000,69.621,-79.888,23564.171533
2 Jan 2020 04:59:12.000,67.853,-79.634,23663.918911
2 Jan 2020 04:59:42.000,66.176,-79.383,23767.977982
2 Jan 2020 05:00:12.000,64.581,-79.134,23876.217145
2 Jan 2020 05:00:42.000,63.063,-78.890,23988.502214
2 Jan 2020 05:01:12.000,61.615,-78.651,24104.696766
2 Jan 2020 05:01:42.000,60.231,-78.416,24224.662478
2 Jan 2020 05:02:12.000,58.906,-78.188,24348.259679
2 Jan 2020 05:02:42.000,57.635,-77.966,24475.346749
2 Jan 2020 05:03:12.000,56.414,-77.751,24605.781783
2 Jan 2020 05:03:42.000,55.239,-77.543,24739.421975
2 Jan 2020 05:04:12.000,54.106,-77.342,24876.124112
2 Jan 2020 05:04:42.000,53.011,-77.150,25015.744831
2 Jan 2020 05:05:12.000,51.952,-76.965,25158.140859
2 Jan 2020 05:05:42.000,50.926,-76.789,25303.169244
2 Jan 2020 05:06:12.000,49.930,-76.621,25450.687562
2 Jan 2020 05:06:42.000,48.962,-76.462,25600.554113
2 Jan 2020 05:07:12.000,48.018,-76.311,25752.628109
2 Jan 2020 05:07:42.000,47.099,-76.169,25906.769835
2 Jan 2020 05:08:12.000,46.200,-76.036,26062.840802
2 Jan 2020 05:08:22.144,45.901,-75.993,26116.026658
2 Jan 2020 06:42:40.572,154.300,-75.986,26108.580293
2 Jan 2020 06:43:10.000,152.972,-76.081,25993.604317
2 Jan 2020 06:43:40.000,151.590,-76.181,25878.686036
2 Jan 2020 06:44:10.000,150.180,-76.285,25766.171785
2 Jan 2020 06:44:40.000,148.739,-76.392,25656.152766
2 Jan 2020 06:45:10.000,147.267,-76.502,25548.719445
2 Jan 2020 06:45:40.000,145.763,-76.615,25443.961417
2 Jan 2020 06:46:10.000,144.225,-76.730,25341.967272
2 Jan 2020 06:46:40.000,142.651,-76.847,25242.824449
2 Jan 2020 06:47:10.000,141.042,-76.965,25146.619098
2 Jan 2020 06:47:40.000,139.395,-77.085,25053.435923
2 Jan 2020 06:48:10.000,137.710,-77.206,24963.357855
2 Jan 2020 06:48:40.000,135.985,-77.327,24876.466632
2 Jan 2020 06:49:10.000,134.219,-77.448,24792.841525
2 Jan 2020 06:49:40.000,132.413,-77.569,24712.559932
2 Jan 2020 06:50:10.000,130.564,-77.688,24635.697033
2 Jan 2020 06:50:40.000,128.673,-77.806,24562.325624
2 Jan 2020 06:51:10.000,126.738,-77.921,24492.515965
2 Jan 2020 06:51:40.000,124.761,-78.034,24426.335620
2 Jan 2020 06:52:10.000,122.740,-78.144,24363.849303
2 Jan 2020 06:52:40.000,120.676,-78.250,24305.118596
2 Jan 2020 06:53:10.000,118.570,-78.352,24250.202319
2 Jan 2020 06:53:40.000,116.423,-78.449,24199.155599
2 Jan 2020 06:54:10.000,114.235,-78.540,24152.030261
2 Jan 2020 06:54:40.000,112.009,-78.626,24108.874564
2 Jan 2020 06:55:10.000,109.746,-78.705,24069.733072
2 Jan 2020 06:55:40.000,107.449,-78.777,24034.646536
2 Jan 2020 06:56:10.000,105.120,-78.842,24003.651784
2 Jan 2020 06:56:40.000,102.763,-78.898,23976.781569
2 Jan 2020 06:57:10.000,100.380,-78.947,23954.064700
2 Jan 2020 06:57:40.000,97.976,-78.987,23935.525612
2 Jan 2020 06:58:10.000,95.555,-79.018,23921.184540
2 Jan 2020 06:58:40.000,93.120,-79.041,23911.057399
2 Jan 2020 06:59:10.000,90.677,-79.054,23905.155734
2 Jan 2020 06:59:40.000,88.229,-79.058,23903.486694
2 Jan 2020 07:00:10.000,85.782,-79.052,23906.053002
2 Jan 2020 07:00:40.000,83.340,-79.037,23912.852974
2 Jan 2020 07:01:10.000,80.907,-79.013,23923.880446
2 Jan 2020 07:01:40.000,78.488,-78.980,23939.124888
2 Jan 2020 07:02:10.000,76.088,-78.938,23958.571379
2 Jan 2020 07:02:40.000,73.710,-78.888,23982.200660
2 Jan 2020 07:03:10.000,71.357,-78.830,24009.989187
2 Jan 2020 07:03:40.000,69.034,-78.764,24041.909196
2 Jan 2020 07:04:10.000,66.743,-78.690,24077.928780
2 Jan 2020 07:04:40.000,64.487,-78.610,24118.012070
2 Jan 2020 07:05:10.000,62.268,-78.523,24162.118964
2 Jan 2020 07:05:40.000,60.089,-78.430,24210.205773
2 Jan 2020 07:06:10.000,57.949,-78.332,24262.224985
2 Jan 2020 07:06:40.000,55.852,-78.229,24318.125474
2 Jan 2020 07:07:10.000,53.797,-78.122,24377.852627
2 Jan 2020 07:07:40.000,51.785,-78.012,24441.348488
2 Jan 2020 07:08:10.000,49.817,-77.898,24508.551892
2 Jan 2020 07:08:40.000,47.892,-77.781,24579.398617
2 Jan 2020 07:09:10.000,46.010,-77.663,24653.821700
2 Jan 2020 07:09:40.000,44.172,-77.543,24731.750927
2 Jan 2020 07:10:10.000,42.375,-77.422,24813.113976
2 Jan 2020 07:10:40.000,40.620,-77.301,24897.835924
2 Jan 2020 07:11:10.000,38.905,-77.180,24985.839563
2 Jan 2020 07:11:40.000,37.230,-77.059,25077.045564
2 Jan 2020 07:12:10.000,35.594,-76.939,25171.372630
2 Jan 2020 07:12:40.000,33.994,-76.820,25268.737654
2 Jan 2020 07:13:10.000,32.432,-76.703,25369.055873
2 Jan 2020 07:13:40.000,30.904,-76.588,25472.241022
2 Jan 2020 07:14:10.000,29.410,-76.476,25578.205481
2 Jan 2020 07:14:40.000,27.949,-76.366,25686.860649
2 Jan 2020 07:15:10.000,26.519,-76.260,25798.116177
2 Jan 2020 07:15:40.000,25.119,-76.157,25911.881466
2 Jan 2020 07:16:10.000,23.749,-76.057,26028.064896
2 Jan 2020 07:16:30.418,22.832,-75.991,26108.473515
2 Jan 2020 08:50:14.454,134.147,-75.988,26104.147312
2 Jan 2020 08:50:44.000,133.326,-76.119,25946.566399
2 Jan 2020 08:51:14.000,132.474,-76.261,25788.417980
2 Jan 2020 08:51:44.000,131.600,-76.413,25632.280828
2 Jan 2020 08:52:14.000,130.703,-76.574,25478.297842
2 Jan 2020 08:52:44.000,129.780,-76.744,25326.613180
2 Jan 2020 08:53:14.000,128.830,-76.923,25177.372088
2 Jan 2020 08:53:44.000,127.850,-77.111,25030.720721
2 Jan 2020 08:54:14.000,126.837,-77.308,24886.805953
2 Jan 2020 08:54:44.000,125.787,-77.513,24745.775164
2 Jan 2020 08:55:14.000,124.698,-77.727,24607.776012
2 Jan 2020 08:55:44.000,123.566,-77.948,24472.956193
2 Jan 2020 08:56:14.000,122.387,-78.178,24341.462918
2 Jan 2020 08:56:44.000,121.156,-78.414,24213.443697
2 Jan 2020 08:57:14.000,119.869,-78.658,24089.044449
2 Jan 2020 08:57:44.000,118.520,-78.908,23968.410272
2 Jan 2020 08:58:14.000,117.103,-79.163,23851.684849
2 Jan 2020 08:58:44.000,115.611,-79.424,23739.010113
2 Jan 2020 08:59:14.000,114.039,-79.689,23630.525905
2 Jan 2020 08:59:44.000,112.376,-79.958,23526.369611
2 Jan 2020 09:00:14.000,110.616,-80.229,23426.675594
2 Jan 2020 09:00:44.000,108.749,-80.502,23331.575628
2 Jan 2020 09:01:14.000,106.765,-80.775,23241.197283
2 Jan 2020 09:01:44.000,104.653,-81.048,23155.664369
2 Jan 2020 09:02:14.000,102.402,-81.317,23075.096333
2 Jan 2020 09:02:44.000,100.000,-81.583,22999.607872
2 Jan 2020 09:03:14.000,97.435,-81.843,22929.308425
