STKdata/stk_70fov_6leo/Satellite-MEO_Satellite10106-To-Satellite-LEO_Satellite20000 AER.csv

"Time (UTCG)","Azimuth (deg)","Elevation (deg)","Range (km)"
1 Jan 2020 02:23:25.512,338.560,-75.985,26104.151921
1 Jan 2020 02:23:55.000,340.271,-76.073,25996.068951
1 Jan 2020 02:24:25.000,342.046,-76.166,25889.545451
1 Jan 2020 02:24:55.000,343.858,-76.259,25786.660668
1 Jan 2020 02:25:25.000,345.707,-76.354,25687.586032
1 Jan 2020 02:25:55.000,347.595,-76.450,25592.490321
1 Jan 2020 02:26:25.000,349.521,-76.545,25501.539213
1 Jan 2020 02:26:55.000,351.488,-76.639,25414.894822
1 Jan 2020 02:27:25.000,353.494,-76.732,25332.715134
1 Jan 2020 02:27:55.000,355.540,-76.823,25255.153917
1 Jan 2020 02:28:25.000,357.626,-76.912,25182.359653
1 Jan 2020 02:28:55.000,359.751,-76.997,25114.475457
1 Jan 2020 02:29:25.000,1.914,-77.078,25051.638504
1 Jan 2020 02:29:55.000,4.114,-77.155,24993.979549
1 Jan 2020 02:30:25.000,6.348,-77.226,24941.622434
1 Jan 2020 02:30:55.000,8.616,-77.291,24894.683813
1 Jan 2020 02:31:25.000,10.914,-77.350,24853.272440
1 Jan 2020 02:31:55.000,13.239,-77.401,24817.488952
1 Jan 2020 02:32:25.000,15.588,-77.445,24787.425434
1 Jan 2020 02:32:55.000,17.958,-77.481,24763.165055
1 Jan 2020 02:33:25.000,20.343,-77.508,24744.781752
1 Jan 2020 02:33:55.000,22.741,-77.527,24732.339888
1 Jan 2020 02:34:25.000,25.145,-77.536,24725.894041
1 Jan 2020 02:34:55.000,27.552,-77.537,24725.488757
1 Jan 2020 02:35:25.000,29.956,-77.528,24731.158374
1 Jan 2020 02:35:55.000,32.353,-77.511,24742.926935
1 Jan 2020 02:36:25.000,34.738,-77.484,24760.807872
1 Jan 2020 02:36:55.000,37.106,-77.448,24784.804272
1 Jan 2020 02:37:25.000,39.453,-77.404,24814.908668
1 Jan 2020 02:37:55.000,41.774,-77.352,24851.103124
1 Jan 2020 02:38:25.000,44.066,-77.292,24893.359316
1 Jan 2020 02:38:55.000,46.324,-77.225,24941.638791
1 Jan 2020 02:39:25.000,48.546,-77.151,24995.892606
1 Jan 2020 02:39:55.000,50.729,-77.071,25056.062310
1 Jan 2020 02:40:25.000,52.871,-76.986,25122.079683
1 Jan 2020 02:40:55.000,54.969,-76.896,25193.867136
1 Jan 2020 02:41:25.000,57.021,-76.802,25271.338023
1 Jan 2020 02:41:55.000,59.028,-76.706,25354.397168
1 Jan 2020 02:42:25.000,60.987,-76.606,25442.940498
1 Jan 2020 02:42:55.000,62.899,-76.505,25536.856516
1 Jan 2020 02:43:25.000,64.763,-76.403,25636.025995
1 Jan 2020 02:43:55.000,66.579,-76.301,25740.322579
1 Jan 2020 02:44:25.000,68.348,-76.199,25849.613217
1 Jan 2020 02:44:55.000,70.070,-76.098,25963.758610
1 Jan 2020 02:45:25.000,71.746,-75.999,26082.613901
1 Jan 2020 02:45:30.302,72.038,-75.982,26104.099893
1 Jan 2020 04:02:58.163,287.428,-75.990,26110.198384
1 Jan 2020 04:03:28.000,287.596,-76.164,25903.493028
1 Jan 2020 04:03:58.000,287.761,-76.355,25698.222898
1 Jan 2020 04:04:28.000,287.921,-76.563,25495.774316
1 Jan 2020 04:04:58.000,288.077,-76.787,25296.401464
1 Jan 2020 04:05:28.000,288.229,-77.029,25100.361312
1 Jan 2020 04:05:58.000,288.378,-77.287,24907.913224
1 Jan 2020 04:06:28.000,288.523,-77.562,24719.318518
1 Jan 2020 04:06:58.000,288.666,-77.854,24534.839976
1 Jan 2020 04:07:28.000,288.806,-78.164,24354.740997
1 Jan 2020 04:07:58.000,288.943,-78.490,24179.286236
1 Jan 2020 04:08:28.000,289.079,-78.833,24008.739108
1 Jan 2020 04:08:58.000,289.213,-79.193,23843.362336
1 Jan 2020 04:09:28.000,289.347,-79.570,23683.416893
1 Jan 2020 04:09:58.000,289.481,-79.963,23529.161206
1 Jan 2020 04:10:28.000,289.616,-80.372,23380.850048
1 Jan 2020 04:10:58.000,289.752,-80.797,23238.734728
1 Jan 2020 04:11:28.000,289.892,-81.237,23103.060531
1 Jan 2020 04:11:58.000,290.036,-81.692,22974.066857
1 Jan 2020 04:12:28.000,290.186,-82.161,22851.985952
1 Jan 2020 04:12:58.000,290.345,-82.644,22737.041692
1 Jan 2020 04:13:28.000,290.516,-83.141,22629.449405
1 Jan 2020 04:13:58.000,290.703,-83.649,22529.413555
1 Jan 2020 04:14:28.000,290.913,-84.169,22437.127595
1 Jan 2020 04:14:58.000,291.153,-84.700,22352.772609
1 Jan 2020 04:15:28.000,291.437,-85.241,22276.516899
1 Jan 2020 04:15:58.000,291.783,-85.791,22208.514196
1 Jan 2020 04:16:28.000,292.224,-86.349,22148.903364
1 Jan 2020 04:16:58.000,292.814,-86.913,22097.807361
1 Jan 2020 04:17:28.000,293.660,-87.483,22055.332843
1 Jan 2020 04:17:58.000,294.994,-88.057,22021.568969
1 Jan 2020 04:18:28.000,297.442,-88.634,21996.587229
1 Jan 2020 04:18:58.000,303.435,-89.206,21980.440867
1 Jan 2020 04:19:28.000,335.605,-89.732,21973.164650
1 Jan 2020 04:19:58.000,83.490,-89.556,21974.774464
1 Jan 2020 04:20:28.000,98.210,-88.997,21985.267350
1 Jan 2020 04:20:58.000,102.298,-88.422,22004.621529
1 Jan 2020 04:21:28.000,104.188,-87.846,22032.796380
1 Jan 2020 04:21:58.000,105.269,-87.273,22069.732920
1 Jan 2020 04:22:28.000,105.963,-86.705,22115.354055
1 Jan 2020 04:22:58.000,106.442,-86.143,22169.565195
1 Jan 2020 04:23:28.000,106.787,-85.587,22232.254428
1 Jan 2020 04:23:58.000,107.044,-85.041,22303.293801
1 Jan 2020 04:24:28.000,107.238,-84.503,22382.539698
1 Jan 2020 04:24:58.000,107.387,-83.976,22469.833926
1 Jan 2020 04:25:28.000,107.500,-83.459,22565.003993
1 Jan 2020 04:25:58.000,107.584,-82.955,22667.864959
1 Jan 2020 04:26:28.000,107.647,-82.463,22778.219831
1 Jan 2020 04:26:58.000,107.690,-81.985,22895.860711
1 Jan 2020 04:27:28.000,107.717,-81.521,23020.570066
1 Jan 2020 04:27:58.000,107.730,-81.071,23152.120786
1 Jan 2020 04:28:28.000,107.730,-80.636,23290.278634
1 Jan 2020 04:28:58.000,107.720,-80.216,23434.802311
1 Jan 2020 04:29:28.000,107.699,-79.813,23585.444668
1 Jan 2020 04:29:58.000,107.669,-79.426,23741.953657
1 Jan 2020 04:30:28.000,107.630,-79.055,23904.073549
1 Jan 2020 04:30:58.000,107.582,-78.700,24071.544588
1 Jan 2020 04:31:28.000,107.527,-78.363,24244.105637
1 Jan 2020 04:31:58.000,107.465,-78.043,24421.493751
1 Jan 2020 04:32:28.000,107.395,-77.739,24603.445208
1 Jan 2020 04:32:58.000,107.318,-77.453,24789.696184
1 Jan 2020 04:33:28.000,107.234,-77.184,24979.983376
1 Jan 2020 04:33:58.000,107.143,-76.932,25174.044580
1 Jan 2020 04:34:28.000,107.045,-76.696,25371.619550
1 Jan 2020 04:34:58.000,106.941,-76.478,25572.449125
1 Jan 2020 04:35:28.000,106.830,-76.276,25776.277663
1 Jan 2020 04:35:58.000,106.712,-76.091,25982.852092
1 Jan 2020 04:36:16.385,106.636,-75.985,26110.698090
1 Jan 2020 05:53:27.103,253.406,-75.993,26117.464965
1 Jan 2020 05:53:57.000,251.781,-76.096,25992.761848
1 Jan 2020 05:54:27.000,250.103,-76.201,25872.245551
1 Jan 2020 05:54:57.000,248.376,-76.309,25756.505783
1 Jan 2020 05:55:27.000,246.601,-76.417,25645.691211
1 Jan 2020 05:55:57.000,244.776,-76.526,25539.944641
1 Jan 2020 05:56:27.000,242.900,-76.635,25439.402561
1 Jan 2020 05:56:57.000,240.974,-76.743,25344.194474
1 Jan 2020 05:57:27.000,238.997,-76.849,25254.443254
1 Jan 2020 05:57:57.000,236.970,-76.952,25170.263481
1 Jan 2020 05:58:27.000,234.894,-77.051,25091.761842
1 Jan 2020 05:58:57.000,232.769,-77.147,25019.036515
1 Jan 2020 05:59:27.000,230.598,-77.238,24952.176789
1 Jan 2020 05:59:57.000,228.383,-77.323,24891.262557
1 Jan 2020 06:00:27.000,226.125,-77.401,24836.364596
1 Jan 2020 06:00:57.000,223.829,-77.472,24787.543351
1 Jan 2020 06:01:27.000,221.496,-77.536,24744.849308
1 Jan 2020 06:01:57.000,219.133,-77.592,24708.322612
1 Jan 2020 06:02:27.000,216.741,-77.638,24677.992816
1 Jan 2020 06:02:57.000,214.327,-77.676,24653.879077
1 Jan 2020 06:03:27.000,211.894,-77.704,24635.989556
1 Jan 2020 06:03:57.000,209.449,-77.722,24624.321732
1 Jan 2020 06:04:27.000,206.996,-77.731,24618.862312
1 Jan 2020 06:04:57.000,204.541,-77.730,24619.587255
1 Jan 2020 06:05:27.000,202.089,-77.719,24626.462005
1 Jan 2020 06:05:57.000,199.645,-77.698,24639.441416
1 Jan 2020 06:06:27.000,197.214,-77.668,24658.470097
1 Jan 2020 06:06:57.000,194.801,-77.629,24683.482599
1 Jan 2020 06:07:27.000,192.411,-77.581,24714.403707
1 Jan 2020 06:07:57.000,190.046,-77.525,24751.148682
1 Jan 2020 06:08:27.000,187.712,-77.462,24793.623686
1 Jan 2020 06:08:57.000,185.411,-77.391,24841.726112
1 Jan 2020 06:09:27.000,183.146,-77.315,24895.344993
1 Jan 2020 06:09:57.000,180.918,-77.232,24954.361430
1 Jan 2020 06:10:27.000,178.731,-77.145,25018.649119
1 Jan 2020 06:10:57.000,176.584,-77.053,25088.074510
1 Jan 2020 06:11:27.000,174.480,-76.958,25162.497725
1 Jan 2020 06:11:57.000,172.418,-76.861,25241.772760
1 Jan 2020 06:12:27.000,170.399,-76.761,25325.748050
1 Jan 2020 06:12:57.000,168.423,-76.660,25414.266961
1 Jan 2020 06:13:27.000,166.489,-76.558,25507.168287
1 Jan 2020 06:13:57.000,164.597,-76.456,25604.286871
1 Jan 2020 06:14:27.000,162.745,-76.354,25705.453571
1 Jan 2020 06:14:57.000,160.933,-76.254,25810.496505
1 Jan 2020 06:15:27.000,159.159,-76.155,25919.241007
1 Jan 2020 06:15:57.000,157.422,-76.059,26031.510205
1 Jan 2020 06:16:19.317,156.154,-75.989,26117.206072
1 Jan 2020 10:31:51.660,61.453,-75.991,26116.770074
1 Jan 2020 10:32:21.000,60.720,-76.150,25926.790138
1 Jan 2020 10:32:51.000,59.951,-76.327,25734.983299
1 Jan 2020 10:33:21.000,59.159,-76.518,25545.886920
1 Jan 2020 10:33:51.000,58.342,-76.723,25359.744873
1 Jan 2020 10:34:21.000,57.497,-76.942,25176.803579
1 Jan 2020 10:34:51.000,56.619,-77.175,24997.311610
1 Jan 2020 10:35:21.000,55.705,-77.422,24821.519264
1 Jan 2020 10:35:51.000,54.749,-77.682,24649.678087
1 Jan 2020 10:36:21.000,53.748,-77.956,24482.040093
1 Jan 2020 10:36:51.000,52.694,-78.243,24318.858240
1 Jan 2020 10:37:21.000,51.581,-78.543,24160.384242
1 Jan 2020 10:37:51.000,50.401,-78.854,24006.868965
1 Jan 2020 10:38:21.000,49.146,-79.177,23858.561459
1 Jan 2020 10:38:51.000,47.805,-79.511,23715.708207
1 Jan 2020 10:39:21.000,46.367,-79.855,23578.552118
1 Jan 2020 10:39:51.000,44.818,-80.207,23447.332592
1 Jan 2020 10:40:21.000,43.143,-80.567,23322.283301
1 Jan 2020 10:40:51.000,41.323,-80.933,23203.632216
1 Jan 2020 10:41:21.000,39.337,-81.303,23091.600463
1 Jan 2020 10:41:51.000,37.161,-81.676,22986.401225
1 Jan 2020 10:42:21.000,34.768,-82.049,22888.239482
1 Jan 2020 10:42:51.000,32.125,-82.419,22797.310037
1 Jan 2020 10:43:21.000,29.197,-82.783,22713.797290
1 Jan 2020 10:43:51.000,25.945,-83.138,22637.874043
1 Jan 2020 10:44:21.000,22.328,-83.479,22569.701036
1 Jan 2020 10:44:51.000,18.306,-83.800,22509.425452
1 Jan 2020 10:45:21.000,13.844,-84.097,22457.180566
1 Jan 2020 10:45:51.000,8.917,-84.363,22413.084838
1 Jan 2020 10:46:21.000,3.522,-84.591,22377.241469
1 Jan 2020 10:46:51.000,357.687,-84.774,22349.737445
1 Jan 2020 10:47:21.000,351.478,-84.905,22330.643288
1 Jan 2020 10:47:51.000,345.004,-84.980,22320.012577
1 Jan 2020 10:48:21.000,338.410,-84.996,22317.881625
1 Jan 2020 10:48:51.000,331.856,-84.951,22324.269255
1 Jan 2020 10:49:21.000,325.499,-84.847,22339.176719
1 Jan 2020 10:49:51.000,319.469,-84.688,22362.587751
1 Jan 2020 10:50:21.000,313.855,-84.481,22394.468431
1 Jan 2020 10:50:51.000,308.707,-84.232,22434.767754
1 Jan 2020 10:51:21.000,304.035,-83.948,22483.417723
1 Jan 2020 10:51:51.000,299.828,-83.635,22540.333943
1 Jan 2020 10:52:21.000,296.053,-83.299,22605.415648
1 Jan 2020 10:52:51.000,292.674,-82.947,22678.546990
1 Jan 2020 10:53:21.000,289.650,-82.582,22759.597253
1 Jan 2020 10:53:51.000,286.939,-82.210,22848.421867
1 Jan 2020 10:54:21.000,284.504,-81.833,22944.862537
1 Jan 2020 10:54:51.000,282.313,-81.454,23048.749051
1 Jan 2020 10:55:21.000,280.335,-81.077,23159.899516
1 Jan 2020 10:55:51.000,278.543,-80.703,23278.121421
1 Jan 2020 10:56:21.000,276.915,-80.334,23403.212797
1 Jan 2020 10:56:51.000,275.433,-79.972,23534.962152
1 Jan 2020 10:57:21.000,274.077,-79.618,23673.150864
1 Jan 2020 10:57:51.000,272.836,-79.273,23817.553126
1 Jan 2020 10:58:21.000,271.694,-78.940,23967.937079
1 Jan 2020 10:58:51.000,270.643,-78.617,24124.065689
1 Jan 2020 10:59:21.000,269.672,-78.307,24285.697894
1 Jan 2020 10:59:51.000,268.773,-78.010,24452.588186
1 Jan 2020 11:00:21.000,267.939,-77.725,24624.489216
1 Jan 2020 11:00:51.000,267.165,-77.455,24801.151316
1 Jan 2020 11:01:21.000,266.444,-77.199,24982.323483
1 Jan 2020 11:01:51.000,265.771,-76.957,25167.754026
1 Jan 2020 11:02:21.000,265.143,-76.730,25357.191168
1 Jan 2020 11:02:51.000,264.556,-76.517,25550.383596
1 Jan 2020 11:03:21.000,264.007,-76.319,25747.081313
1 Jan 2020 11:03:51.000,263.492,-76.136,25947.034747
1 Jan 2020 11:04:16.056,263.087,-75.995,26116.351259
1 Jan 2020 12:19:28.904,93.555,-75.987,26109.504760
1 Jan 2020 12:19:58.000,94.625,-76.129,25939.312298
1 Jan 2020 12:20:28.000,95.777,-76.285,25767.571089
1 Jan 2020 12:20:58.000,96.982,-76.451,25599.842804
1 Jan 2020 12:21:28.000,98.244,-76.625,25436.345926
1 Jan 2020 12:21:58.000,99.565,-76.807,25277.297203
1 Jan 2020 12:22:28.000,100.951,-76.997,25122.911092
1 Jan 2020 12:22:58.000,102.406,-77.194,24973.399188
1 Jan 2020 12:23:28.000,103.933,-77.397,24828.969327
1 Jan 2020 12:23:58.000,105.538,-77.605,24689.826129
1 Jan 2020 12:24:28.000,107.225,-77.817,24556.168580
1 Jan 2020 12:24:58.000,108.999,-78.033,24428.190554
1 Jan 2020 12:25:28.000,110.865,-78.250,24306.079835
1 Jan 2020 12:25:58.000,112.827,-78.468,24190.017217
1 Jan 2020 12:26:28.000,114.892,-78.685,24080.176644
1 Jan 2020 12:26:58.000,117.062,-78.900,23976.723260
1 Jan 2020 12:27:28.000,119.342,-79.110,23879.813564
1 Jan 2020 12:27:58.000,121.735,-79.316,23789.594527
1 Jan 2020 12:28:28.000,124.244,-79.514,23706.202766
1 Jan 2020 12:28:58.000,126.869,-79.703,23629.764615
1 Jan 2020 12:29:28.000,129.610,-79.880,23560.394460
1 Jan 2020 12:29:58.000,132.465,-80.046,23498.194907
1 Jan 2020 12:30:28.000,135.430,-80.196,23443.256091
1 Jan 2020 12:30:58.000,138.499,-80.330,23395.655091
1 Jan 2020 12:31:28.000,141.662,-80.446,23355.456023
1 Jan 2020 12:31:58.000,144.907,-80.542,23322.708945
1 Jan 2020 12:32:28.000,148.222,-80.618,23297.450099
1 Jan 2020 12:32:58.000,151.590,-80.672,23279.701527
1 Jan 2020 12:33:28.000,154.993,-80.703,23269.471157
1 Jan 2020 12:33:58.000,158.414,-80.711,23266.752410
1 Jan 2020 12:34:28.000,161.832,-80.697,23271.524458
1 Jan 2020 12:34:58.000,165.229,-80.660,23283.752261
1 Jan 2020 12:35:28.000,168.587,-80.601,23303.386759
1 Jan 2020 12:35:58.000,171.889,-80.520,23330.365071
1 Jan 2020 12:36:28.000,175.120,-80.420,23364.610850
1 Jan 2020 12:36:58.000,178.269,-80.302,23406.034660
1 Jan 2020 12:37:28.000,181.326,-80.166,23454.534475
1 Jan 2020 12:37:58.000,184.282,-80.016,23509.995934
1 Jan 2020 12:38:28.000,187.134,-79.852,23572.293246
1 Jan 2020 12:38:58.000,189.877,-79.676,23641.289557
1 Jan 2020 12:39:28.000,192.513,-79.490,23716.837635
1 Jan 2020 12:39:58.000,195.040,-79.297,23798.780651
1 Jan 2020 12:40:28.000,197.461,-79.097,23886.952402
1 Jan 2020 12:40:58.000,199.779,-78.893,23981.178692
1 Jan 2020 12:41:28.000,201.998,-78.686,24081.277602
1 Jan 2020 12:41:58.000,204.122,-78.477,24187.060324
1 Jan 2020 12:42:28.000,206.156,-78.267,24298.331871
1 Jan 2020 12:42:58.000,208.104,-78.059,24414.891975
1 Jan 2020 12:43:28.000,209.973,-77.853,24536.535065
1 Jan 2020 12:43:58.000,211.766,-77.650,24663.052014
1 Jan 2020 12:44:28.000,213.488,-77.452,24794.230109
1 Jan 2020 12:44:58.000,215.145,-77.258,24929.853855
1 Jan 2020 12:45:28.000,216.740,-77.070,25069.705597
1 Jan 2020 12:45:58.000,218.279,-76.888,25213.566101
1 Jan 2020 12:46:28.000,219.766,-76.713,25361.215111
1 Jan 2020 12:46:58.000,221.203,-76.546,25512.432112
1 Jan 2020 12:47:28.000,222.596,-76.387,25666.995879
1 Jan 2020 12:47:58.000,223.948,-76.236,25824.686339
1 Jan 2020 12:48:28.000,225.262,-76.094,25985.284072
1 Jan 2020 12:48:50.842,226.238,-75.992,26109.375523
1 Jan 2020 17:01:54.500,312.900,-75.987,26105.981729
1 Jan 2020 17:02:24.000,314.141,-76.121,25944.142820
1 Jan 2020 17:02:54.000,315.438,-76.267,25782.254335
1 Jan 2020 17:03:24.000,316.773,-76.422,25623.298949
1 Jan 2020 17:03:54.000,318.150,-76.586,25467.497580
1 Jan 2020 17:04:24.000,319.572,-76.757,25315.072056
1 Jan 2020 17:04:54.000,321.043,-76.937,25166.244679
1 Jan 2020 17:05:24.000,322.567,-77.123,25021.237765
1 Jan 2020 17:05:54.000,324.149,-77.317,24880.273147
1 Jan 2020 17:06:24.000,325.794,-77.516,24743.571444
1 Jan 2020 17:06:54.000,327.505,-77.720,24611.352312
1 Jan 2020 17:07:24.000,329.288,-77.929,24483.832622
1 Jan 2020 17:07:54.000,331.148,-78.141,24361.226664
1 Jan 2020 17:08:24.000,333.091,-78.356,24243.745291
1 Jan 2020 17:08:54.000,335.122,-78.572,24131.595249
1 Jan 2020 17:09:24.000,337.246,-78.787,24024.978333
1 Jan 2020 17:09:54.000,339.468,-79.002,23924.091287
1 Jan 2020 17:10:24.000,341.794,-79.213,23829.124154
1 Jan 2020 17:10:54.000,344.226,-79.419,23740.260182
1 Jan 2020 17:11:24.000,346.770,-79.619,23657.674928
1 Jan 2020 17:11:54.000,349.428,-79.812,23581.535443
1 Jan 2020 17:12:24.000,352.200,-79.994,23511.999950
1 Jan 2020 17:12:54.000,355.085,-80.164,23449.216542
1 Jan 2020 17:13:24.000,358.082,-80.321,23393.322927
1 Jan 2020 17:13:54.000,1.186,-80.462,23344.445678
1 Jan 2020 17:14:24.000,4.388,-80.585,23302.699597
1 Jan 2020 17:14:54.000,7.679,-80.689,23268.187323
1 Jan 2020 17:15:24.000,11.046,-80.773,23240.998556
1 Jan 2020 17:15:54.000,14.473,-80.834,23221.209801
1 Jan 2020 17:16:24.000,17.942,-80.873,23208.883930
1 Jan 2020 17:16:54.000,21.434,-80.888,23204.069899
1 Jan 2020 17:17:24.000,24.928,-80.879,23206.802386
1 Jan 2020 17:17:54.000,28.405,-80.847,23217.101762
1 Jan 2020 17:18:24.000,31.843,-80.791,23234.973913
1 Jan 2020 17:18:54.000,35.224,-80.712,23260.410313
1 Jan 2020 17:19:24.000,38.531,-80.612,23293.387798
1 Jan 2020 17:19:54.000,41.749,-80.492,23333.869106
1 Jan 2020 17:20:24.000,44.866,-80.352,23381.802827
1 Jan 2020 17:20:54.000,47.874,-80.196,23437.123746
1 Jan 2020 17:21:24.000,50.765,-80.025,23499.753354
1 Jan 2020 17:21:54.000,53.536,-79.841,23569.599631
1 Jan 2020 17:22:24.000,56.184,-79.645,23646.558434
1 Jan 2020 17:22:54.000,58.710,-79.441,23730.513422
1 Jan 2020 17:23:24.000,61.116,-79.229,23821.336772
1 Jan 2020 17:23:54.000,63.403,-79.011,23918.889987
1 Jan 2020 17:24:24.000,65.577,-78.789,24023.023731
1 Jan 2020 17:24:54.000,67.641,-78.566,24133.579690
1 Jan 2020 17:25:24.000,69.600,-78.341,24250.390471
1 Jan 2020 17:25:54.000,71.460,-78.118,24373.280494
1 Jan 2020 17:26:24.000,73.226,-77.896,24502.066697
1 Jan 2020 17:26:54.000,74.902,-77.678,24636.559515
1 Jan 2020 17:27:24.000,76.495,-77.464,24776.562479
1 Jan 2020 17:27:54.000,78.009,-77.255,24921.874547
1 Jan 2020 17:28:24.000,79.449,-77.053,25072.289689
1 Jan 2020 17:28:54.000,80.820,-76.858,25227.597820
1 Jan 2020 17:29:24.000,82.125,-76.671,25387.585428
1 Jan 2020 17:29:54.000,83.370,-76.492,25552.036183
1 Jan 2020 17:30:24.000,84.558,-76.323,25720.731824
1 Jan 2020 17:30:54.000,85.693,-76.163,25893.451513
1 Jan 2020 17:31:24.000,86.777,-76.012,26069.974144
1 Jan 2020 17:31:30.086,86.991,-75.983,26106.228269
1 Jan 2020 18:46:39.255,276.427,-75.991,26112.853767
1 Jan 2020 18:47:09.000,275.914,-76.159,25912.894679
1 Jan 2020 18:47:39.000,275.362,-76.343,25714.283607
1 Jan 2020 18:48:09.000,274.774,-76.542,25518.995446
1 Jan 2020 18:48:39.000,274.146,-76.755,25327.278264
1 Jan 2020 18:49:09.000,273.476,-76.983,25139.381380
1 Jan 2020 18:49:39.000,272.759,-77.226,24955.554891
1 Jan 2020 18:50:09.000,271.990,-77.482,24776.049154
1 Jan 2020 18:50:39.000,271.166,-77.752,24601.113922
1 Jan 2020 18:51:09.000,270.280,-78.035,24430.998934
1 Jan 2020 18:51:39.000,269.326,-78.332,24265.951460
1 Jan 2020 18:52:09.000,268.296,-78.640,24106.216812
1 Jan 2020 18:52:39.000,267.182,-78.960,23952.037308
1 Jan 2020 18:53:09.000,265.975,-79.291,23803.651492
1 Jan 2020 18:53:39.000,264.663,-79.632,23661.293047
1 Jan 2020 18:54:09.000,263.233,-79.982,23525.191072
1 Jan 2020 18:54:39.000,261.670,-80.338,23395.567515
1 Jan 2020 18:55:09.000,259.958,-80.701,23272.637425
1 Jan 2020 18:55:39.000,258.078,-81.068,23156.607756
1 Jan 2020 18:56:09.000,256.006,-81.438,23047.676243
1 Jan 2020 18:56:39.000,253.718,-81.807,22946.031357
1 Jan 2020 18:57:09.000,251.184,-82.173,22851.850084
1 Jan 2020 18:57:39.000,248.373,-82.533,22765.297934
1 Jan 2020 18:58:09.000,245.251,-82.884,22686.527726
1 Jan 2020 18:58:39.000,241.782,-83.221,22615.679343
1 Jan 2020 18:59:09.000,237.933,-83.539,22552.878092
1 Jan 2020 18:59:39.000,233.672,-83.833,22498.234596
1 Jan 2020 19:00:09.000,228.982,-84.098,22451.843910
1 Jan 2020 19:00:39.000,223.861,-84.326,22413.785346
1 Jan 2020 19:01:09.000,218.333,-84.512,22384.121402
1 Jan 2020 19:01:39.000,212.454,-84.650,22362.897790
1 Jan 2020 19:02:09.000,206.315,-84.735,22350.143010
1 Jan 2020 19:02:39.000,200.037,-84.763,22345.868319
1 Jan 2020 19:03:09.000,193.758,-84.735,22350.067404
1 Jan 2020 19:03:39.000,187.618,-84.650,22362.716588
1 Jan 2020 19:04:09.000,181.734,-84.513,22383.774950
1 Jan 2020 19:04:39.000,176.197,-84.329,22413.184461
1 Jan 2020 19:05:09.000,171.061,-84.102,22450.870450
1 Jan 2020 19:05:39.000,166.349,-83.840,22496.741968
1 Jan 2020 19:06:09.000,162.058,-83.549,22550.692415
1 Jan 2020 19:06:39.000,158.169,-83.234,22612.599824
1 Jan 2020 19:07:09.000,154.651,-82.901,22682.328001
1 Jan 2020 19:07:39.000,151.470,-82.555,22759.726981
1 Jan 2020 19:08:09.000,148.591,-82.200,22844.634028
1 Jan 2020 19:08:39.000,145.980,-81.839,22936.873979
1 Jan 2020 19:09:09.000,143.604,-81.475,23036.260858
1 Jan 2020 19:09:39.000,141.435,-81.112,23142.598311
1 Jan 2020 19:10:09.000,139.448,-80.750,23255.680641
1 Jan 2020 19:10:39.000,137.620,-80.394,23375.293941
1 Jan 2020 19:11:09.000,135.933,-80.043,23501.216221
1 Jan 2020 19:11:39.000,134.368,-79.699,23633.219505
1 Jan 2020 19:12:09.000,132.912,-79.364,23771.069954
1 Jan 2020 19:12:39.000,131.552,-79.038,23914.528929
1 Jan 2020 19:13:09.000,130.276,-78.723,24063.353839
1 Jan 2020 19:13:39.000,129.074,-78.420,24217.299200
1 Jan 2020 19:14:09.000,127.939,-78.128,24376.116401
1 Jan 2020 19:14:39.000,126.862,-77.848,24539.555935
1 Jan 2020 19:15:09.000,125.837,-77.582,24707.367092
1 Jan 2020 19:15:39.000,124.859,-77.328,24879.298851
1 Jan 2020 19:16:09.000,123.921,-77.088,25055.100475
1 Jan 2020 19:16:39.000,123.020,-76.862,25234.522060
1 Jan 2020 19:17:09.000,122.152,-76.649,25417.315045
1 Jan 2020 19:17:39.000,121.312,-76.450,25603.232670
1 Jan 2020 19:18:09.000,120.498,-76.265,25792.030703
1 Jan 2020 19:18:39.000,119.707,-76.094,25983.466600
1 Jan 2020 19:18:59.126,119.188,-75.986,26113.255410
1 Jan 2020 23:34:15.829,25.333,-75.994,26120.448640
1 Jan 2020 23:34:45.000,23.689,-76.089,26005.855938
1 Jan 2020 23:35:15.000,21.962,-76.189,25891.305053
1 Jan 2020 23:35:45.000,20.197,-76.291,25780.278250
1 Jan 2020 23:36:15.000,18.393,-76.395,25672.955144
1 Jan 2020 23:36:45.000,16.548,-76.501,25569.513239
1 Jan 2020 23:37:15.000,14.661,-76.607,25470.127472
1 Jan 2020 23:37:45.000,12.731,-76.714,25374.969744
1 Jan 2020 23:38:15.000,10.757,-76.820,25284.208328
1 Jan 2020 23:38:45.000,8.738,-76.924,25198.007813
1 Jan 2020 23:39:15.000,6.675,-77.027,25116.527935
1 Jan 2020 23:39:45.000,4.568,-77.127,25039.923526
1 Jan 2020 23:40:15.000,2.415,-77.224,24968.343891
1 Jan 2020 23:40:45.000,0.220,-77.316,24901.932303
1 Jan 2020 23:41:15.000,357.982,-77.403,24840.825443
1 Jan 2020 23:41:45.000,355.704,-77.485,24785.153153
1 Jan 2020 23:42:15.000,353.387,-77.560,24735.037579
1 Jan 2020 23:42:45.000,351.035,-77.629,24690.592967
1 Jan 2020 23:43:15.000,348.650,-77.689,24651.925160
1 Jan 2020 23:43:45.000,346.236,-77.741,24619.131171
1 Jan 2020 23:44:15.000,343.797,-77.784,24592.298801
1 Jan 2020 23:44:45.000,341.338,-77.818,24571.506293
1 Jan 2020 23:45:15.000,338.864,-77.842,24556.821967
1 Jan 2020 23:45:45.000,336.380,-77.856,24548.303974
1 Jan 2020 23:46:15.000,333.891,-77.860,24546.000040
1 Jan 2020 23:46:45.000,331.404,-77.854,24549.947311
1 Jan 2020 23:47:15.000,328.923,-77.837,24560.172019
1 Jan 2020 23:47:45.000,326.454,-77.810,24576.689627
1 Jan 2020 23:48:15.000,324.003,-77.773,24599.504605
1 Jan 2020 23:48:45.000,321.575,-77.727,24628.610457
1 Jan 2020 23:49:15.000,319.175,-77.671,24663.989852
1 Jan 2020 23:49:45.000,316.807,-77.606,24705.614327
1 Jan 2020 23:50:15.000,314.476,-77.534,24753.444969
1 Jan 2020 23:50:45.000,312.185,-77.453,24807.432229
1 Jan 2020 23:51:15.000,309.938,-77.366,24867.516230
1 Jan 2020 23:51:45.000,307.736,-77.273,24933.627019
1 Jan 2020 23:52:15.000,305.583,-77.174,25005.685041
1 Jan 2020 23:52:45.000,303.480,-77.071,25083.600772
1 Jan 2020 23:53:15.000,301.429,-76.964,25167.276113
1 Jan 2020 23:53:45.000,299.429,-76.854,25256.604097
1 Jan 2020 23:54:15.000,297.482,-76.743,25351.469474
1 Jan 2020 23:54:45.000,295.587,-76.629,25451.749141
1 Jan 2020 23:55:15.000,293.745,-76.516,25557.312804
1 Jan 2020 23:55:45.000,291.955,-76.402,25668.022609
1 Jan 2020 23:56:15.000,290.215,-76.290,25783.734851
1 Jan 2020 23:56:45.000,288.526,-76.180,25904.299633
1 Jan 2020 23:57:15.000,286.886,-76.071,26029.561553
1 Jan 2020 23:57:36.108,285.760,-75.997,26120.423059
2 Jan 2020 01:14:37.752,73.878,-75.990,26114.284631
2 Jan 2020 01:15:07.000,73.789,-76.160,25911.176112
2 Jan 2020 01:15:37.000,73.705,-76.352,25705.417684
2 Jan 2020 01:16:07.000,73.630,-76.560,25502.513466
2 Jan 2020 01:16:37.000,73.563,-76.785,25302.717976
2 Jan 2020 01:17:07.000,73.505,-77.027,25106.288472
2 Jan 2020 01:17:37.000,73.456,-77.285,24913.484559
2 Jan 2020 01:18:07.000,73.416,-77.561,24724.567735
2 Jan 2020 01:18:37.000,73.386,-77.854,24539.800904
2 Jan 2020 01:19:07.000,73.366,-78.164,24359.447516
2 Jan 2020 01:19:37.000,73.356,-78.491,24183.772217
2 Jan 2020 01:20:07.000,73.358,-78.835,24013.038327
2 Jan 2020 01:20:37.000,73.372,-79.195,23847.508393
2 Jan 2020 01:21:07.000,73.400,-79.572,23687.443124
2 Jan 2020 01:21:37.000,73.443,-79.966,23533.100592
2 Jan 2020 01:22:07.000,73.502,-80.375,23384.735113
2 Jan 2020 01:22:37.000,73.580,-80.800,23242.597448
2 Jan 2020 01:23:07.000,73.679,-81.241,23106.932216
2 Jan 2020 01:23:37.000,73.802,-81.696,22977.978041
2 Jan 2020 01:24:07.000,73.953,-82.166,22855.966285
2 Jan 2020 01:24:37.000,74.139,-82.649,22741.119819
2 Jan 2020 01:25:07.000,74.366,-83.145,22633.652854
2 Jan 2020 01:25:37.000,74.643,-83.653,22533.768615
2 Jan 2020 01:26:07.000,74.985,-84.173,22441.659199
2 Jan 2020 01:26:37.000,75.411,-84.703,22357.504219
2 Jan 2020 01:27:07.000,75.950,-85.242,22281.470394
2 Jan 2020 01:27:37.000,76.645,-85.790,22213.709761
2 Jan 2020 01:28:07.000,77.568,-86.345,22154.359389
2 Jan 2020 01:28:37.000,78.845,-86.906,22103.540336
2 Jan 2020 01:29:07.000,80.711,-87.471,22061.357281
2 Jan 2020 01:29:37.000,83.676,-88.036,22027.897317
2 Jan 2020 01:30:07.000,89.048,-88.595,22003.229794
2 Jan 2020 01:30:37.000,101.265,-89.128,21987.405760
2 Jan 2020 01:31:07.000,140.180,-89.526,21980.457738
2 Jan 2020 01:31:37.000,204.006,-89.390,21982.399330
2 Jan 2020 01:32:07.000,226.827,-88.903,21993.225267
2 Jan 2020 01:32:37.000,235.095,-88.355,22012.911448
2 Jan 2020 01:33:07.000,239.189,-87.792,22041.414935
2 Jan 2020 01:33:37.000,241.618,-87.227,22078.674437
2 Jan 2020 01:34:07.000,243.229,-86.664,22124.610577
2 Jan 2020 01:34:37.000,244.380,-86.106,22179.126519
2 Jan 2020 01:35:07.000,245.250,-85.554,22242.108158
2 Jan 2020 01:35:37.000,245.934,-85.010,22313.425403
2 Jan 2020 01:36:07.000,246.492,-84.475,22392.932569
2 Jan 2020 01:36:37.000,246.958,-83.949,22480.469468
2 Jan 2020 01:37:07.000,247.359,-83.435,22575.861706
2 Jan 2020 01:37:37.000,247.709,-82.933,22678.922522
2 Jan 2020 01:38:07.000,248.021,-82.443,22789.453203
2 Jan 2020 01:38:37.000,248.304,-81.966,22907.244231
2 Jan 2020 01:39:07.000,248.563,-81.503,23032.076555
2 Jan 2020 01:39:37.000,248.805,-81.055,23163.721657
2 Jan 2020 01:40:07.000,249.032,-80.622,23301.943994
2 Jan 2020 01:40:37.000,249.248,-80.204,23446.501071
2 Jan 2020 01:41:07.000,249.455,-79.802,23597.144648
2 Jan 2020 01:41:37.000,249.656,-79.416,23753.621691
2 Jan 2020 01:42:07.000,249.851,-79.046,23915.675589
2 Jan 2020 01:42:37.000,250.042,-78.694,24083.045811
2 Jan 2020 01:43:07.000,250.231,-78.357,24255.470535
2 Jan 2020 01:43:37.000,250.418,-78.038,24432.686231
2 Jan 2020 01:44:07.000,250.605,-77.736,24614.428681
2 Jan 2020 01:44:37.000,250.791,-77.451,24800.433656
2 Jan 2020 01:45:07.000,250.978,-77.183,24990.437531
2 Jan 2020 01:45:37.000,251.166,-76.932,25184.177862
2 Jan 2020 01:46:07.000,251.356,-76.698,25381.394234
2 Jan 2020 01:46:37.000,251.548,-76.480,25581.827403
2 Jan 2020 01:47:07.000,251.743,-76.279,25785.221704
2 Jan 2020 01:47:37.000,251.940,-76.095,25991.324108
2 Jan 2020 01:47:54.651,252.058,-75.994,26113.750730
2 Jan 2020 03:05:35.200,108.860,-75.986,26107.074414
2 Jan 2020 03:06:05.000,110.541,-76.081,25991.716391
2 Jan 2020 03:06:35.000,112.278,-76.178,25880.289875
2 Jan 2020 03:07:05.000,114.060,-76.276,25773.725948
2 Jan 2020 03:07:35.000,115.889,-76.375,25672.159730
2 Jan 2020 03:08:05.000,117.763,-76.472,25575.719970
2 Jan 2020 03:08:35.000,119.684,-76.569,25484.528613
2 Jan 2020 03:09:05.000,121.651,-76.664,25398.700195
2 Jan 2020 03:09:35.000,123.662,-76.756,25318.342181
2 Jan 2020 03:10:05.000,125.718,-76.844,25243.553438
2 Jan 2020 03:10:35.000,127.817,-76.929,25174.424626
2 Jan 2020 03:11:05.000,129.957,-77.009,25111.037663
2 Jan 2020 03:11:35.000,132.136,-77.084,25053.465395
2 Jan 2020 03:12:05.000,134.351,-77.153,25001.771181
2 Jan 2020 03:12:35.000,136.600,-77.215,24956.009161
2 Jan 2020 03:13:05.000,138.880,-77.270,24916.223224
2 Jan 2020 03:13:35.000,141.187,-77.317,24882.447369
2 Jan 2020 03:14:05.000,143.516,-77.357,24854.705420
2 Jan 2020 03:14:35.000,145.865,-77.388,24833.010858
2 Jan 2020 03:15:05.000,148.228,-77.411,24817.367028
2 Jan 2020 03:15:35.000,150.601,-77.425,24807.766697
2 Jan 2020 03:16:05.000,152.980,-77.431,24804.192372
2 Jan 2020 03:16:35.000,155.359,-77.427,24806.616292
2 Jan 2020 03:17:05.000,157.735,-77.415,24815.000520
2 Jan 2020 03:17:35.000,160.102,-77.394,24829.297182
2 Jan 2020 03:18:05.000,162.457,-77.365,24849.448520
2 Jan 2020 03:18:35.000,164.795,-77.329,24875.387230
2 Jan 2020 03:19:05.000,167.113,-77.284,24907.036701
2 Jan 2020 03:19:35.000,169.407,-77.232,24944.311321
2 Jan 2020 03:20:05.000,171.674,-77.174,24987.116854
2 Jan 2020 03:20:35.000,173.911,-77.110,25035.350647
2 Jan 2020 03:21:05.000,176.117,-77.040,25088.902240
2 Jan 2020 03:21:35.000,178.288,-76.965,25147.653637
2 Jan 2020 03:22:05.000,180.424,-76.886,25211.479774
2 Jan 2020 03:22:35.000,182.522,-76.803,25280.248955
2 Jan 2020 03:23:05.000,184.584,-76.718,25353.823399
2 Jan 2020 03:23:35.000,186.607,-76.630,25432.059372
2 Jan 2020 03:24:05.000,188.592,-76.540,25514.808138
2 Jan 2020 03:24:35.000,190.538,-76.449,25601.916118
2 Jan 2020 03:25:05.000,192.446,-76.358,25693.225435
2 Jan 2020 03:25:35.000,194.317,-76.266,25788.574379
2 Jan 2020 03:26:05.000,196.151,-76.176,25887.797869
2 Jan 2020 03:26:35.000,197.950,-76.086,25990.727901
2 Jan 2020 03:27:05.000,199.713,-75.998,26097.194134
2 Jan 2020 03:27:07.809,199.876,-75.990,26107.337152
2 Jan 2020 06:14:28.047,25.623,-75.982,26102.826787
2 Jan 2020 06:14:58.000,27.646,-75.994,26087.923333
2 Jan 2020 06:15:28.000,29.678,-76.002,26077.766149
2 Jan 2020 06:15:58.000,31.712,-76.006,26072.433487
2 Jan 2020 06:16:28.000,33.748,-76.007,26071.969101
2 Jan 2020 06:16:58.000,35.782,-76.003,26076.409116
2 Jan 2020 06:17:28.000,37.813,-75.995,26085.781900
2 Jan 2020 06:17:58.000,39.838,-75.984,26100.108032
2 Jan 2020 06:18:02.723,40.156,-75.982,26102.815670
2 Jan 2020 07:43:20.677,296.890,-75.988,26108.197562
2 Jan 2020 07:43:50.000,297.548,-76.150,25915.531866
2 Jan 2020 07:44:20.000,298.238,-76.330,25720.856475
2 Jan 2020 07:44:50.000,298.948,-76.524,25528.886157
2 Jan 2020 07:45:20.000,299.679,-76.733,25339.866865
2 Jan 2020 07:45:50.000,300.435,-76.956,25154.047198
2 Jan 2020 07:46:20.000,301.220,-77.195,24971.678015
2 Jan 2020 07:46:50.000,302.036,-77.447,24793.012012
2 Jan 2020 07:47:20.000,302.889,-77.715,24618.303241
2 Jan 2020 07:47:50.000,303.783,-77.996,24447.806328
2 Jan 2020 07:48:20.000,304.724,-78.291,24281.776977
2 Jan 2020 07:48:50.000,305.718,-78.600,24120.469732
2 Jan 2020 07:49:20.000,306.773,-78.922,23964.138408
2 Jan 2020 07:49:50.000,307.896,-79.257,23813.035101
2 Jan 2020 07:50:20.000,309.098,-79.603,23667.409441
2 Jan 2020 07:50:50.000,310.390,-79.961,23527.507560
2 Jan 2020 07:51:20.000,311.786,-80.329,23393.572187
2 Jan 2020 07:51:50.000,313.301,-80.706,23265.840365
2 Jan 2020 07:52:20.000,314.955,-81.091,23144.543501
2 Jan 2020 07:52:50.000,316.768,-81.482,23029.906191
2 Jan 2020 07:53:20.000,318.768,-81.878,22922.145110
2 Jan 2020 07:53:50.000,320.985,-82.276,22821.468754
2 Jan 2020 07:54:20.000,323.456,-82.674,22728.075404
2 Jan 2020 07:54:50.000,326.223,-83.068,22642.152910
2 Jan 2020 07:55:20.000,329.338,-83.456,22563.877457
2 Jan 2020 07:55:50.000,332.856,-83.833,22493.413106
2 Jan 2020 07:56:20.000,336.838,-84.193,22430.910238
2 Jan 2020 07:56:50.000,341.347,-84.530,22376.505198
2 Jan 2020 07:57:20.000,346.439,-84.837,22330.319363
2 Jan 2020 07:57:50.000,352.151,-85.105,22292.458687
2 Jan 2020 07:58:20.000,358.479,-85.327,22263.012697
2 Jan 2020 07:58:50.000,5.367,-85.492,22242.054243
2 Jan 2020 07:59:20.000,12.683,-85.593,22229.638986
2 Jan 2020 07:59:50.000,20.228,-85.624,22225.805088
2 Jan 2020 08:00:20.000,27.758,-85.585,22230.572935
2 Jan 2020 08:00:50.000,35.033,-85.476,22243.945065
2 Jan 2020 08:01:20.000,41.858,-85.304,22265.906213
2 Jan 2020 08:01:50.000,48.109,-85.075,22296.423176
2 Jan 2020 08:02:20.000,53.732,-84.800,22335.445358
2 Jan 2020 08:02:50.000,58.731,-84.487,22382.904884
2 Jan 2020 08:03:20.000,63.143,-84.145,22438.717187
2 Jan 2020 08:03:50.000,67.025,-83.779,22502.781057
2 Jan 2020 08:04:20.000,70.440,-83.397,22574.979921
2 Jan 2020 08:04:50.000,73.449,-83.005,22655.182084
2 Jan 2020 08:05:20.000,76.108,-82.605,22743.241749
2 Jan 2020 08:05:50.000,78.465,-82.202,22838.999171
2 Jan 2020 08:06:20.000,80.564,-81.799,22942.282477
2 Jan 2020 08:06:50.000,82.440,-81.399,23052.907926
2 Jan 2020 08:07:20.000,84.124,-81.003,23170.680988
2 Jan 2020 08:07:50.000,85.641,-80.614,23295.397533
2 Jan 2020 08:08:20.000,87.013,-80.232,23426.843778
2 Jan 2020 08:08:50.000,88.259,-79.860,23564.798710
2 Jan 2020 08:09:20.000,89.394,-79.499,23709.034046
2 Jan 2020 08:09:50.000,90.431,-79.149,23859.315391
2 Jan 2020 08:10:20.000,91.381,-78.811,24015.403128
2 Jan 2020 08:10:50.000,92.254,-78.486,24177.053594
2 Jan 2020 08:11:20.000,93.058,-78.175,24344.018662
2 Jan 2020 08:11:50.000,93.801,-77.878,24516.048383
2 Jan 2020 08:12:20.000,94.487,-77.595,24692.890507
2 Jan 2020 08:12:50.000,95.123,-77.327,24874.291484
2 Jan 2020 08:13:20.000,95.713,-77.074,25059.997129
2 Jan 2020 08:13:50.000,96.262,-76.836,25249.753222
2 Jan 2020 08:14:20.000,96.772,-76.613,25443.306079
2 Jan 2020 08:14:50.000,97.247,-76.405,25640.403407
2 Jan 2020 08:15:20.000,97.690,-76.213,25840.793409
2 Jan 2020 08:15:50.000,98.103,-76.037,26044.227256
2 Jan 2020 08:15:59.420,98.227,-75.984,26108.696633
2 Jan 2020 09:31:19.406,264.934,-75.992,26115.506328
2 Jan 2020 09:31:49.000,263.770,-76.132,25947.638847
2 Jan 2020 09:32:19.000,262.539,-76.283,25781.351983
2 Jan 2020 09:32:49.000,261.254,-76.442,25619.187772
2 Jan 2020 09:33:19.000,259.912,-76.608,25461.357965
2 Jan 2020 09:33:49.000,258.510,-76.782,25308.072021
2 Jan 2020 09:34:19.000,257.043,-76.962,25159.536565
2 Jan 2020 09:34:49.000,255.507,-77.148,25015.954552
2 Jan 2020 09:35:19.000,253.900,-77.339,24877.525688
2 Jan 2020 09:35:49.000,252.217,-77.534,24744.444275
2 Jan 2020 09:36:19.000,250.454,-77.732,24616.899608
2 Jan 2020 09:36:49.000,248.606,-77.931,24495.075070
2 Jan 2020 09:37:19.000,246.671,-78.131,24379.147470
2 Jan 2020 09:37:49.000,244.644,-78.331,24269.286158
2 Jan 2020 09:38:19.000,242.522,-78.528,24165.653300
2 Jan 2020 09:38:49.000,240.301,-78.722,24068.401805
2 Jan 2020 09:39:19.000,237.981,-78.911,23977.675638
2 Jan 2020 09:39:49.000,235.559,-79.094,23893.608964
2 Jan 2020 09:40:19.000,233.035,-79.268,23816.325378
2 Jan 2020 09:40:49.000,230.410,-79.433,23745.938009
2 Jan 2020 09:41:19.000,227.685,-79.586,23682.547967
2 Jan 2020 09:41:49.000,224.866,-79.726,23626.244545
2 Jan 2020 09:42:19.000,221.957,-79.852,23577.104606
2 Jan 2020 09:42:49.000,218.965,-79.961,23535.192078
2 Jan 2020 09:43:19.000,215.902,-80.054,23500.558080
2 Jan 2020 09:43:49.000,212.777,-80.128,23473.239957
2 Jan 2020 09:44:19.000,209.603,-80.183,23453.261557
2 Jan 2020 09:44:49.000,206.395,-80.218,23440.632971
2 Jan 2020 09:45:19.000,203.168,-80.233,23435.350436
2 Jan 2020 09:45:49.000,199.937,-80.227,23437.396509
2 Jan 2020 09:46:19.000,196.718,-80.201,23446.739873
2 Jan 2020 09:46:49.000,193.526,-80.155,23463.335686
2 Jan 2020 09:47:19.000,190.375,-80.089,23487.125746
2 Jan 2020 09:47:49.000,187.278,-80.006,23518.038808
2 Jan 2020 09:48:19.000,184.246,-79.905,23555.990824
2 Jan 2020 09:48:49.000,181.289,-79.789,23600.885495
2 Jan 2020 09:49:19.000,178.413,-79.658,23652.614650
2 Jan 2020 09:49:49.000,175.625,-79.515,23711.058771
2 Jan 2020 09:50:19.000,172.928,-79.359,23776.087643
2 Jan 2020 09:50:49.000,170.325,-79.195,23847.560592
2 Jan 2020 09:51:19.000,167.816,-79.022,23925.327615
2 Jan 2020 09:51:49.000,165.400,-78.842,24009.229698
2 Jan 2020 09:52:19.000,163.077,-78.657,24099.099567
2 Jan 2020 09:52:49.000,160.843,-78.469,24194.762358
2 Jan 2020 09:53:19.000,158.696,-78.278,24296.036469
2 Jan 2020 09:53:49.000,156.633,-78.087,24402.733605
2 Jan 2020 09:54:19.000,154.649,-77.895,24514.660401
2 Jan 2020 09:54:49.000,152.740,-77.705,24631.618479
2 Jan 2020 09:55:19.000,150.904,-77.517,24753.405256
2 Jan 2020 09:55:49.000,149.134,-77.332,24879.814586
2 Jan 2020 09:56:19.000,147.428,-77.152,25010.637384
2 Jan 2020 09:56:49.000,145.781,-76.976,25145.662427
2 Jan 2020 09:57:19.000,144.190,-76.806,25284.676111
2 Jan 2020 09:57:49.000,142.650,-76.641,25427.464208
2 Jan 2020 09:58:19.000,141.158,-76.484,25573.811582
2 Jan 2020 09:58:49.000,139.711,-76.334,25723.502870
2 Jan 2020 09:59:19.000,138.305,-76.191,25876.322942
2 Jan 2020 09:59:49.000,136.937,-76.056,26032.057318
2 Jan 2020 10:00:04.880,136.227,-75.988,26115.599854
2 Jan 2020 14:13:14.848,49.281,-75.993,26118.566035
2 Jan 2020 14:13:44.000,48.116,-76.130,25953.984492
2 Jan 2020 14:14:14.000,46.883,-76.281,25787.238180
2 Jan 2020 14:14:44.000,45.614,-76.441,25623.375118
2 Jan 2020 14:15:14.000,44.304,-76.611,25462.620129
2 Jan 2020 14:15:44.000,42.949,-76.790,25305.199252
2 Jan 2020 14:16:14.000,41.547,-76.978,25151.339310
2 Jan 2020 14:16:44.000,40.092,-77.174,25001.267455
2 Jan 2020 14:17:14.000,38.579,-77.377,24855.210674
2 Jan 2020 14:17:44.000,37.005,-77.588,24713.395048
2 Jan 2020 14:18:14.000,35.363,-77.805,24576.046036
2 Jan 2020 14:18:44.000,33.648,-78.027,24443.386598
2 Jan 2020 14:19:14.000,31.854,-78.254,24315.637421
2 Jan 2020 14:19:44.000,29.974,-78.484,24193.016049
2 Jan 2020 14:20:14.000,28.004,-78.717,24075.736195
2 Jan 2020 14:20:44.000,25.935,-78.951,23964.006868
2 Jan 2020 14:21:14.000,23.762,-79.184,23858.032296
2 Jan 2020 14:21:44.000,21.477,-79.416,23758.010189
2 Jan 2020 14:22:14.000,19.076,-79.644,23664.131650
2 Jan 2020 14:22:44.000,16.551,-79.866,23576.580250
2 Jan 2020 14:23:14.000,13.900,-80.081,23495.531156
2 Jan 2020 14:23:44.000,11.117,-80.287,23421.150815
2 Jan 2020 14:24:14.000,8.202,-80.482,23353.595552
2 Jan 2020 14:24:44.000,5.155,-80.662,23293.011308
2 Jan 2020 14:25:14.000,1.979,-80.827,23239.532840
2 Jan 2020 14:25:44.000,358.680,-80.974,23193.283018
2 Jan 2020 14:26:14.000,355.267,-81.101,23154.372439
2 Jan 2020 14:26:44.000,351.755,-81.205,23122.898529
2 Jan 2020 14:27:14.000,348.160,-81.287,23098.945287
2 Jan 2020 14:27:44.000,344.501,-81.343,23082.582797
2 Jan 2020 14:28:14.000,340.801,-81.373,23073.866852
2 Jan 2020 14:28:44.000,337.086,-81.377,23072.838662
2 Jan 2020 14:29:14.000,333.380,-81.354,23079.524655
2 Jan 2020 14:29:44.000,329.709,-81.304,23093.936395
2 Jan 2020 14:30:14.000,326.097,-81.229,23116.070317
2 Jan 2020 14:30:44.000,322.565,-81.129,23145.908057
2 Jan 2020 14:31:14.000,319.132,-81.007,23183.416378
2 Jan 2020 14:31:44.000,315.813,-80.863,23228.547509
2 Jan 2020 14:32:14.000,312.621,-80.699,23281.239010
2 Jan 2020 14:32:44.000,309.562,-80.519,23341.414701
2 Jan 2020 14:33:14.000,306.641,-80.323,23408.984693
2 Jan 2020 14:33:44.000,303.861,-80.115,23483.845956
2 Jan 2020 14:34:14.000,301.221,-79.896,23565.883035
2 Jan 2020 14:34:44.000,298.719,-79.668,23654.967889
2 Jan 2020 14:35:14.000,296.350,-79.434,23750.961614
2 Jan 2020 14:35:44.000,294.109,-79.196,23853.714388
2 Jan 2020 14:36:14.000,291.992,-78.955,23963.066332
2 Jan 2020 14:36:44.000,289.990,-78.713,24078.848457
2 Jan 2020 14:37:14.000,288.099,-78.471,24200.882489
2 Jan 2020 14:37:44.000,286.311,-78.232,24328.982939
2 Jan 2020 14:38:14.000,284.621,-77.996,24462.956961
2 Jan 2020 14:38:44.000,283.021,-77.764,24602.605305
2 Jan 2020 14:39:14.000,281.506,-77.538,24747.723037
2 Jan 2020 14:39:44.000,280.071,-77.319,24898.100533
2 Jan 2020 14:40:14.000,278.710,-77.107,25053.523048
2 Jan 2020 14:40:44.000,277.417,-76.903,25213.773051
2 Jan 2020 14:41:14.000,276.189,-76.708,25378.629761
2 Jan 2020 14:41:44.000,275.021,-76.522,25547.870037
2 Jan 2020 14:42:14.000,273.909,-76.347,25721.268958
2 Jan 2020 14:42:44.000,272.849,-76.182,25898.600373
2 Jan 2020 14:43:14.000,271.837,-76.027,26079.637419
2 Jan 2020 14:43:20.320,271.630,-75.996,26118.230131
2 Jan 2020 15:58:25.318,84.816,-75.988,26111.611484
2 Jan 2020 15:58:55.000,85.406,-76.154,25914.324341
2 Jan 2020 15:59:25.000,86.038,-76.336,25718.063526
2 Jan 2020 15:59:55.000,86.710,-76.532,25525.204608
2 Jan 2020 16:00:25.000,87.425,-76.742,25335.993387
2 Jan 2020 16:00:55.000,88.186,-76.966,25150.676629
2 Jan 2020 16:01:25.000,88.997,-77.203,24969.501579
2 Jan 2020 16:01:55.000,89.864,-77.454,24792.715432
2 Jan 2020 16:02:25.000,90.791,-77.718,24620.564460
2 Jan 2020 16:02:55.000,91.784,-77.994,24453.294598
2 Jan 2020 16:03:25.000,92.851,-78.282,24291.148972
2 Jan 2020 16:03:55.000,93.997,-78.581,24134.368419
2 Jan 2020 16:04:25.000,95.234,-78.891,23983.190437
2 Jan 2020 16:04:55.000,96.568,-79.210,23837.848416
2 Jan 2020 16:05:25.000,98.013,-79.538,23698.570553
2 Jan 2020 16:05:55.000,99.581,-79.873,23565.580127
2 Jan 2020 16:06:25.000,101.284,-80.213,23439.092956
2 Jan 2020 16:06:55.000,103.141,-80.558,23319.317655
2 Jan 2020 16:07:25.000,105.168,-80.905,23206.454462
2 Jan 2020 16:07:55.000,107.386,-81.253,23100.694139
2 Jan 2020 16:08:25.000,109.816,-81.598,23002.217936
2 Jan 2020 16:08:55.000,112.482,-81.937,22911.195424
2 Jan 2020 16:09:25.000,115.410,-82.269,22827.784524
2 Jan 2020 16:09:55.000,118.624,-82.589,22752.130330
2 Jan 2020 16:10:25.000,122.149,-82.892,22684.364898
2 Jan 2020 16:10:55.000,126.005,-83.176,22624.605661
2 Jan 2020 16:11:25.000,130.204,-83.434,22572.955359
2 Jan 2020 16:11:55.000,134.748,-83.662,22529.501204
2 Jan 2020 16:12:25.000,139.625,-83.854,22494.314735
2 Jan 2020 16:12:55.000,144.798,-84.007,22467.450821
2 Jan 2020 16:13:25.000,150.214,-84.115,22448.947721
2 Jan 2020 16:13:55.000,155.793,-84.175,22438.826707
2 Jan 2020 16:14:25.000,161.445,-84.185,22437.092063
2 Jan 2020 16:14:55.000,167.067,-84.146,22443.730823
2 Jan 2020 16:15:25.000,172.563,-84.058,22458.713003
2 Jan 2020 16:15:55.000,177.851,-83.925,22481.991751
2 Jan 2020 16:16:25.000,182.865,-83.750,22513.503519
2 Jan 2020 16:16:55.000,187.565,-83.538,22553.168554
2 Jan 2020 16:17:25.000,191.931,-83.294,22600.891284
2 Jan 2020 16:17:55.000,195.958,-83.024,22656.560957
2 Jan 2020 16:18:25.000,199.657,-82.732,22720.051937
2 Jan 2020 16:18:55.000,203.046,-82.423,22791.224855
2 Jan 2020 16:19:25.000,206.148,-82.101,22869.927058
2 Jan 2020 16:19:55.000,208.987,-81.770,22955.993480
2 Jan 2020 16:20:25.000,211.590,-81.433,23049.247651
2 Jan 2020 16:20:55.000,213.980,-81.092,23149.501899
2 Jan 2020 16:21:25.000,216.181,-80.751,23256.559222
2 Jan 2020 16:21:55.000,218.212,-80.412,23370.213551
2 Jan 2020 16:22:25.000,220.093,-80.076,23490.250815
2 Jan 2020 16:22:55.000,221.841,-79.745,23616.450047
2 Jan 2020 16:23:25.000,223.470,-79.421,23748.583479
2 Jan 2020 16:23:55.000,224.993,-79.104,23886.418587
2 Jan 2020 16:24:25.000,226.423,-78.797,24029.718170
2 Jan 2020 16:24:55.000,227.770,-78.499,24178.241355
2 Jan 2020 16:25:25.000,229.041,-78.211,24331.744380
2 Jan 2020 16:25:55.000,230.247,-77.935,24489.981336
2 Jan 2020 16:26:25.000,231.393,-77.671,24652.705162
2 Jan 2020 16:26:55.000,232.487,-77.418,24819.667175
2 Jan 2020 16:27:25.000,233.533,-77.178,24990.619367
2 Jan 2020 16:27:55.000,234.537,-76.951,25165.313874
2 Jan 2020 16:28:25.000,235.503,-76.737,25343.503773
2 Jan 2020 16:28:55.000,236.435,-76.536,25524.943578
2 Jan 2020 16:29:25.000,237.337,-76.348,25709.389676
2 Jan 2020 16:29:55.000,238.213,-76.174,25896.600734
2 Jan 2020 16:30:25.000,239.064,-76.013,26086.338056
2 Jan 2020 16:30:28.900,239.174,-75.993,26111.176456
2 Jan 2020 20:45:08.140,331.022,-75.985,26104.459990
2 Jan 2020 20:45:38.000,332.653,-76.088,25979.673690
2 Jan 2020 20:46:08.000,334.328,-76.195,25857.529353
2 Jan 2020 20:46:38.000,336.043,-76.305,25738.805152
2 Jan 2020 20:47:08.000,337.798,-76.418,25623.687855
2 Jan 2020 20:47:38.000,339.597,-76.534,25512.362611
2 Jan 2020 20:48:08.000,341.439,-76.651,25405.012495
2 Jan 2020 20:48:38.000,343.328,-76.769,25301.818032
2 Jan 2020 20:49:08.000,345.263,-76.887,25202.956706
2 Jan 2020 20:49:38.000,347.248,-77.005,25108.602323
2 Jan 2020 20:50:08.000,349.281,-77.122,25018.925031
2 Jan 2020 20:50:38.000,351.364,-77.237,24934.089978
2 Jan 2020 20:51:08.000,353.498,-77.349,24854.257335
2 Jan 2020 20:51:38.000,355.681,-77.458,24779.581621
2 Jan 2020 20:52:08.000,357.914,-77.562,24710.211171
2 Jan 2020 20:52:38.000,0.195,-77.660,24646.287542
2 Jan 2020 20:53:08.000,2.523,-77.753,24587.945269
2 Jan 2020 20:53:38.000,4.895,-77.838,24535.310931
2 Jan 2020 20:54:08.000,7.309,-77.916,24488.502955
2 Jan 2020 20:54:38.000,9.760,-77.985,24447.631075
2 Jan 2020 20:55:08.000,12.246,-78.045,24412.795886
2 Jan 2020 20:55:38.000,14.762,-78.096,24384.088423
2 Jan 2020 20:56:08.000,17.302,-78.135,24361.589826
2 Jan 2020 20:56:38.000,19.860,-78.164,24345.370911
2 Jan 2020 20:57:08.000,22.432,-78.182,24335.491938
2 Jan 2020 20:57:38.000,25.009,-78.188,24332.002330
2 Jan 2020 20:58:08.000,27.587,-78.183,24334.940505
2 Jan 2020 20:58:38.000,30.158,-78.166,24344.333541
2 Jan 2020 20:59:08.000,32.716,-78.137,24360.197302
2 Jan 2020 20:59:38.000,35.255,-78.098,24382.536223
2 Jan 2020 21:00:08.000,37.768,-78.047,24411.343333
2 Jan 2020 21:00:38.000,40.250,-77.987,24446.600395
2 Jan 2020 21:01:08.000,42.695,-77.916,24488.277604
2 Jan 2020 21:01:38.000,45.099,-77.836,24536.334298
2 Jan 2020 21:02:08.000,47.458,-77.747,24590.718774
2 Jan 2020 21:02:38.000,49.768,-77.651,24651.368614
2 Jan 2020 21:03:08.000,52.026,-77.548,24718.211102
2 Jan 2020 21:03:38.000,54.231,-77.439,24791.162978
2 Jan 2020 21:04:08.000,56.379,-77.325,24870.131622
2 Jan 2020 21:04:38.000,58.470,-77.207,24955.014898
2 Jan 2020 21:05:08.000,60.504,-77.085,25045.701699
2 Jan 2020 21:05:38.000,62.479,-76.961,25142.072393
2 Jan 2020 21:06:08.000,64.397,-76.836,25243.999492
2 Jan 2020 21:06:38.000,66.257,-76.710,25351.347287
2 Jan 2020 21:07:08.000,68.060,-76.584,25463.973599
2 Jan 2020 21:07:38.000,69.808,-76.459,25581.729444
2 Jan 2020 21:08:08.000,71.502,-76.336,25704.459748
2 Jan 2020 21:08:38.000,73.143,-76.216,25832.003855
2 Jan 2020 21:09:08.000,74.732,-76.099,25964.196024
2 Jan 2020 21:09:38.000,76.272,-75.985,26100.866200
2 Jan 2020 21:09:38.797,76.313,-75.982,26104.554467
2 Jan 2020 22:26:15.150,284.760,-75.990,26110.715465
2 Jan 2020 22:26:45.000,284.768,-76.164,25903.247887
2 Jan 2020 22:27:15.000,284.765,-76.356,25697.384481
2 Jan 2020 22:27:45.000,284.749,-76.565,25494.426277
2 Jan 2020 22:28:15.000,284.720,-76.790,25294.627937
2 Jan 2020 22:28:45.000,284.678,-77.032,25098.246736
2 Jan 2020 22:29:15.000,284.621,-77.291,24905.542148
2 Jan 2020 22:29:45.000,284.548,-77.567,24716.775399
2 Jan 2020 22:30:15.000,284.459,-77.860,24532.208958
2 Jan 2020 22:30:45.000,284.351,-78.169,24352.105674
2 Jan 2020 22:31:15.000,284.224,-78.496,24176.729438
2 Jan 2020 22:31:45.000,284.075,-78.839,24006.342616
2 Jan 2020 22:32:15.000,283.901,-79.199,23841.206622
2 Jan 2020 22:32:45.000,283.701,-79.576,23681.580845
2 Jan 2020 22:33:15.000,283.469,-79.968,23527.721838
2 Jan 2020 22:33:45.000,283.204,-80.376,23379.882196
2 Jan 2020 22:34:15.000,282.898,-80.800,23238.310768
2 Jan 2020 22:34:45.000,282.545,-81.238,23103.250051
2 Jan 2020 22:35:15.000,282.138,-81.691,22974.936349
2 Jan 2020 22:35:45.000,281.666,-82.157,22853.598501
2 Jan 2020 22:36:15.000,281.116,-82.636,22739.456662
2 Jan 2020 22:36:45.000,280.469,-83.127,22632.722148
2 Jan 2020 22:37:15.000,279.702,-83.629,22533.595097
2 Jan 2020 22:37:45.000,278.781,-84.142,22442.264356
2 Jan 2020 22:38:15.000,277.662,-84.663,22358.906130
2 Jan 2020 22:38:45.000,276.275,-85.191,22283.683594
2 Jan 2020 22:39:15.000,274.521,-85.724,22216.745111
2 Jan 2020 22:39:45.000,272.239,-86.260,22158.223974
2 Jan 2020 22:40:15.000,269.167,-86.795,22108.237378
2 Jan 2020 22:40:45.000,264.844,-87.322,22066.886079
2 Jan 2020 22:41:15.000,258.413,-87.831,22034.253206
2 Jan 2020 22:41:45.000,248.209,-88.301,22010.404130
2 Jan 2020 22:42:15.000,231.238,-88.681,21995.385930
2 Jan 2020 22:42:45.000,205.089,-88.873,21989.227196
2 Jan 2020 22:43:15.000,176.522,-88.784,21991.937656
2 Jan 2020 22:43:45.000,156.031,-88.462,22003.508252
2 Jan 2020 22:44:15.000,143.635,-88.019,22023.911199
2 Jan 2020 22:44:45.000,135.990,-87.522,22053.100011
2 Jan 2020 22:45:15.000,130.957,-87.000,22091.009996
2 Jan 2020 22:45:45.000,127.433,-86.468,22137.558547
2 Jan 2020 22:46:15.000,124.837,-85.933,22192.645784
2 Jan 2020 22:46:45.000,122.847,-85.399,22256.154765
2 Jan 2020 22:47:15.000,121.269,-84.870,22327.952769
2 Jan 2020 22:47:45.000,119.984,-84.347,22407.891710
2 Jan 2020 22:48:15.000,118.912,-83.832,22495.809225
2 Jan 2020 22:48:45.000,118.002,-83.327,22591.528988
2 Jan 2020 22:49:15.000,117.215,-82.833,22694.862542
2 Jan 2020 22:49:45.000,116.525,-82.350,22805.609714
2 Jan 2020 22:50:15.000,115.911,-81.880,22923.559764
2 Jan 2020 22:50:45.000,115.359,-81.424,23048.492647
2 Jan 2020 22:51:15.000,114.857,-80.981,23180.179093
2 Jan 2020 22:51:45.000,114.395,-80.553,23318.383011
2 Jan 2020 22:52:15.000,113.967,-80.140,23462.861576
2 Jan 2020 22:52:45.000,113.567,-79.743,23613.366418
2 Jan 2020 22:53:15.000,113.190,-79.362,23769.644562
2 Jan 2020 22:53:45.000,112.833,-78.996,23931.439634
2 Jan 2020 22:54:15.000,112.491,-78.647,24098.491522
2 Jan 2020 22:54:45.000,112.163,-78.315,24270.538963
2 Jan 2020 22:55:15.000,111.846,-77.999,24447.319137
2 Jan 2020 22:55:45.000,111.538,-77.700,24628.568666
2 Jan 2020 22:56:15.000,111.238,-77.418,24814.024281
2 Jan 2020 22:56:45.000,110.943,-77.153,25003.423430
2 Jan 2020 22:57:15.000,110.653,-76.905,25196.504835
2 Jan 2020 22:57:45.000,110.367,-76.673,25393.009328
2 Jan 2020 22:58:15.000,110.083,-76.458,25592.679014
2 Jan 2020 22:58:45.000,109.800,-76.259,25795.259618
2 Jan 2020 22:59:15.000,109.519,-76.077,26000.499569
2 Jan 2020 22:59:31.051,109.368,-75.986,26111.312170
3 Jan 2020 00:17:45.690,248.517,-75.993,26117.886135
3 Jan 2020 00:18:15.000,246.803,-76.078,26014.399351
3 Jan 2020 00:18:45.000,245.007,-76.165,25913.240109
3 Jan 2020 00:19:15.000,243.170,-76.252,25817.023018
3 Jan 2020 00:19:45.000,241.290,-76.338,25725.867260
3 Jan 2020 00:20:15.000,239.369,-76.423,25639.885120
3 Jan 2020 00:20:45.000,237.407,-76.506,25559.181600
3 Jan 2020 00:21:15.000,235.405,-76.586,25483.853878
3 Jan 2020 00:21:45.000,233.364,-76.663,25413.991645
3 Jan 2020 00:22:15.000,231.286,-76.736,25349.675732
3 Jan 2020 00:22:45.000,229.172,-76.805,25290.978505
3 Jan 2020 00:23:15.000,227.025,-76.868,25237.963414
3 Jan 2020 00:23:45.000,224.847,-76.926,25190.684740
3 Jan 2020 00:24:15.000,222.640,-76.978,25149.187269
3 Jan 2020 00:24:45.000,220.409,-77.023,25113.506565
3 Jan 2020 00:25:15.000,218.156,-77.062,25083.668129
3 Jan 2020 00:25:45.000,215.884,-77.093,25059.687765
3 Jan 2020 00:26:15.000,213.598,-77.117,25041.571391
3 Jan 2020 00:26:45.000,211.301,-77.133,25029.315013
3 Jan 2020 00:27:15.000,208.998,-77.141,25022.904688
3 Jan 2020 00:27:45.000,206.691,-77.142,25022.316781
3 Jan 2020 00:28:15.000,204.387,-77.135,25027.517738
3 Jan 2020 00:28:45.000,202.087,-77.120,25038.464440
3 Jan 2020 00:29:15.000,199.796,-77.098,25055.104322
3 Jan 2020 00:29:45.000,197.518,-77.069,25077.375572
3 Jan 2020 00:30:15.000,195.256,-77.033,25105.207394
3 Jan 2020 00:30:45.000,193.014,-76.990,25138.520239
3 Jan 2020 00:31:15.000,190.793,-76.941,25177.226155
3 Jan 2020 00:31:45.000,188.597,-76.887,25221.229103
3 Jan 2020 00:32:15.000,186.429,-76.827,25270.425314
3 Jan 2020 00:32:45.000,184.289,-76.763,25324.703669
3 Jan 2020 00:33:15.000,182.180,-76.695,25383.946162
3 Jan 2020 00:33:45.000,180.103,-76.623,25448.028064
3 Jan 2020 00:34:15.000,178.059,-76.548,25516.818710
3 Jan 2020 00:34:45.000,176.048,-76.471,25590.181697
3 Jan 2020 00:35:15.000,174.072,-76.392,25667.975388
3 Jan 2020 00:35:45.000,172.129,-76.312,25750.053349
3 Jan 2020 00:36:15.000,170.221,-76.231,25836.264800
3 Jan 2020 00:36:45.000,168.347,-76.150,25926.455051
3 Jan 2020 00:37:15.000,166.507,-76.069,26020.466072
3 Jan 2020 00:37:44.842,164.709,-75.989,26117.612573
3 Jan 2020 03:22:38.102,348.630,-75.997,26121.771481
3 Jan 2020 03:23:08.000,346.646,-76.033,26076.772321
3 Jan 2020 03:23:38.000,344.639,-76.067,26036.061310
3 Jan 2020 03:24:08.000,342.616,-76.098,25999.895237
3 Jan 2020 03:24:38.000,340.579,-76.125,25968.364290
3 Jan 2020 03:25:08.000,338.530,-76.148,25941.552082
3 Jan 2020 03:25:38.000,336.470,-76.167,25919.535368
3 Jan 2020 03:26:08.000,334.403,-76.183,25902.383801
3 Jan 2020 03:26:38.000,332.328,-76.194,25890.159636
3 Jan 2020 03:27:08.000,330.250,-76.200,25882.917583
3 Jan 2020 03:27:38.000,328.170,-76.202,25880.704571
3 Jan 2020 03:28:08.000,326.091,-76.200,25883.559593
3 Jan 2020 03:28:38.000,324.014,-76.193,25891.513565
3 Jan 2020 03:29:08.000,321.943,-76.181,25904.589271
3 Jan 2020 03:29:38.000,319.879,-76.165,25922.801051
3 Jan 2020 03:30:08.000,317.825,-76.144,25946.155084
3 Jan 2020 03:30:38.000,315.783,-76.120,25974.649153
3 Jan 2020 03:31:08.000,313.755,-76.091,26008.272699
3 Jan 2020 03:31:38.000,311.743,-76.059,26047.006863
3 Jan 2020 03:32:08.000,309.750,-76.023,26090.824657
3 Jan 2020 03:32:27.353,308.475,-75.998,26121.772143
3 Jan 2020 04:54:54.139,64.637,-75.991,26116.316000
3 Jan 2020 04:55:24.000,64.040,-76.158,25917.740635
3 Jan 2020 04:55:54.000,63.426,-76.341,25720.704599
3 Jan 2020 04:56:24.000,62.796,-76.538,25526.379562
3 Jan 2020 04:56:54.000,62.147,-76.751,25335.013419
3 Jan 2020 04:57:24.000,61.477,-76.979,25146.856817
3 Jan 2020 04:57:54.000,60.783,-77.222,24962.162764
3 Jan 2020 04:58:24.000,60.061,-77.481,24781.186206
3 Jan 2020 04:58:54.000,59.308,-77.754,24604.183546
3 Jan 2020 04:59:24.000,58.518,-78.042,24431.411852
3 Jan 2020 04:59:54.000,57.688,-78.345,24263.129385
3 Jan 2020 05:00:24.000,56.811,-78.662,24099.593320
3 Jan 2020 05:00:54.000,55.880,-78.994,23941.060192
3 Jan 2020 05:01:24.000,54.888,-79.339,23787.784898
3 Jan 2020 05:01:54.000,53.824,-79.696,23640.019934
3 Jan 2020 05:02:24.000,52.679,-80.067,23498.014355
3 Jan 2020 05:02:54.000,51.440,-80.448,23362.013877
3 Jan 2020 05:03:24.000,50.090,-80.841,23232.258545
3 Jan 2020 05:03:54.000,48.612,-81.242,23108.982791
3 Jan 2020 05:04:24.000,46.983,-81.652,22992.414239
3 Jan 2020 05:04:54.000,45.176,-82.068,22882.772566
3 Jan 2020 05:05:24.000,43.158,-82.489,22780.269256
3 Jan 2020 05:05:54.000,40.889,-82.912,22685.105501
3 Jan 2020 05:06:24.000,38.320,-83.335,22597.471987
3 Jan 2020 05:06:54.000,35.391,-83.753,22517.547632
3 Jan 2020 05:07:24.000,32.031,-84.163,22445.499121
3 Jan 2020 05:07:54.000,28.155,-84.560,22381.479298
3 Jan 2020 05:08:24.000,23.668,-84.937,22325.626809
3 Jan 2020 05:08:54.000,18.470,-85.285,22278.065135
3 Jan 2020 05:09:24.000,12.472,-85.596,22238.902142
3 Jan 2020 05:09:54.000,5.623,-85.858,22208.229025
3 Jan 2020 05:10:24.000,357.949,-86.059,22186.120057
3 Jan 2020 05:10:54.000,349.595,-86.187,22172.632063
3 Jan 2020 05:11:24.000,340.843,-86.234,22167.804104
3 Jan 2020 05:11:54.000,332.068,-86.197,22171.657169
3 Jan 2020 05:12:24.000,323.653,-86.077,22184.194118
3 Jan 2020 05:12:54.000,315.895,-85.884,22205.399706
3 Jan 2020 05:13:24.000,308.958,-85.628,22235.240464
3 Jan 2020 05:13:54.000,302.882,-85.320,22273.665231
3 Jan 2020 05:14:24.000,297.623,-84.974,22320.605281
3 Jan 2020 05:14:54.000,293.097,-84.597,22375.974918
3 Jan 2020 05:15:24.000,289.202,-84.200,22439.671535
3 Jan 2020 05:15:54.000,285.844,-83.788,22511.576907
3 Jan 2020 05:16:24.000,282.935,-83.366,22591.557447
3 Jan 2020 05:16:54.000,280.403,-82.940,22679.465244
3 Jan 2020 05:17:24.000,278.186,-82.513,22775.138243
3 Jan 2020 05:17:54.000,276.235,-82.088,22878.402073
3 Jan 2020 05:18:24.000,274.508,-81.666,22989.070337
3 Jan 2020 05:18:54.000,272.971,-81.251,23106.945711
3 Jan 2020 05:19:24.000,271.596,-80.844,23231.821156
3 Jan 2020 05:19:54.000,270.362,-80.446,23363.479880
3 Jan 2020 05:20:24.000,269.248,-80.059,23501.697796
3 Jan 2020 05:20:54.000,268.240,-79.683,23646.243489
3 Jan 2020 05:21:24.000,267.323,-79.320,23796.879402
3 Jan 2020 05:21:54.000,266.488,-78.970,23953.362742
3 Jan 2020 05:22:24.000,265.724,-78.633,24115.446680
3 Jan 2020 05:22:54.000,265.025,-78.311,24282.879933
3 Jan 2020 05:23:24.000,264.382,-78.004,24455.409442
3 Jan 2020 05:23:54.000,263.790,-77.711,24632.779892
3 Jan 2020 05:24:24.000,263.245,-77.434,24814.734732
3 Jan 2020 05:24:54.000,262.742,-77.172,25001.016847
3 Jan 2020 05:25:24.000,262.277,-76.926,25191.369170
3 Jan 2020 05:25:54.000,261.846,-76.696,25385.535259
3 Jan 2020 05:26:24.000,261.448,-76.482,25583.260163
3 Jan 2020 05:26:54.000,261.079,-76.283,25784.289522
3 Jan 2020 05:27:24.000,260.738,-76.100,25988.372057
3 Jan 2020 05:27:42.514,260.540,-75.995,26115.735267
3 Jan 2020 06:43:13.578,96.555,-75.987,26108.998380
3 Jan 2020 06:43:43.000,97.782,-76.122,25947.435465
3 Jan 2020 06:44:13.000,99.085,-76.267,25786.677438
3 Jan 2020 06:44:43.000,100.441,-76.419,25630.141869
3 Jan 2020 06:45:13.000,101.856,-76.579,25478.033588
3 Jan 2020 06:45:43.000,103.330,-76.744,25330.554645
3 Jan 2020 06:46:13.000,104.869,-76.915,25187.903762
3 Jan 2020 06:46:43.000,106.475,-77.091,25050.275511
3 Jan 2020 06:47:13.000,108.151,-77.270,24917.860719
3 Jan 2020 06:47:43.000,109.901,-77.452,24790.844353
3 Jan 2020 06:48:13.000,111.729,-77.636,24669.405919
3 Jan 2020 06:48:43.000,113.637,-77.821,24553.718572
3 Jan 2020 06:49:13.000,115.629,-78.005,24443.948490
3 Jan 2020 06:49:43.000,117.707,-78.187,24340.254020
3 Jan 2020 06:50:13.000,119.872,-78.367,24242.785959
3 Jan 2020 06:50:43.000,122.128,-78.542,24151.685562
3 Jan 2020 06:51:13.000,124.474,-78.711,24067.084879
3 Jan 2020 06:51:43.000,126.912,-78.873,23989.105944
3 Jan 2020 06:52:13.000,129.438,-79.026,23917.860072
3 Jan 2020 06:52:43.000,132.053,-79.169,23853.447975
3 Jan 2020 06:53:13.000,134.751,-79.300,23795.958334
3 Jan 2020 06:53:43.000,137.528,-79.419,23745.468018
3 Jan 2020 06:54:13.000,140.378,-79.523,23702.041538
3 Jan 2020 06:54:43.000,143.293,-79.612,23665.730630
3 Jan 2020 06:55:13.000,146.263,-79.685,23636.574387
3 Jan 2020 06:55:43.000,149.277,-79.741,23614.598433
3 Jan 2020 06:56:13.000,152.325,-79.778,23599.815211
3 Jan 2020 06:56:43.000,155.394,-79.798,23592.223799
3 Jan 2020 06:57:13.000,158.470,-79.799,23591.809872
3 Jan 2020 06:57:43.000,161.541,-79.782,23598.545899
3 Jan 2020 06:58:13.000,164.593,-79.747,23612.391048
3 Jan 2020 06:58:43.000,167.616,-79.694,23633.291543
3 Jan 2020 06:59:13.000,170.596,-79.625,23661.180876
3 Jan 2020 06:59:43.000,173.525,-79.539,23695.980161
3 Jan 2020 07:00:13.000,176.393,-79.439,23737.598379
3 Jan 2020 07:00:43.000,179.194,-79.325,23785.932981
3 Jan 2020 07:01:13.000,181.921,-79.199,23840.870259
3 Jan 2020 07:01:43.000,184.571,-79.062,23902.285887
3 Jan 2020 07:02:13.000,187.139,-78.915,23970.045567
3 Jan 2020 07:02:43.000,189.626,-78.761,24044.005262
3 Jan 2020 07:03:13.000,192.030,-78.599,24124.012322
3 Jan 2020 07:03:43.000,194.351,-78.432,24209.905782
3 Jan 2020 07:04:13.000,196.591,-78.261,24301.517090
3 Jan 2020 07:04:43.000,198.752,-78.086,24398.670763
3 Jan 2020 07:05:13.000,200.836,-77.911,24501.185193
3 Jan 2020 07:05:43.000,202.846,-77.735,24608.872697
3 Jan 2020 07:06:13.000,204.785,-77.559,24721.541065
3 Jan 2020 07:06:43.000,206.657,-77.385,24838.993605
3 Jan 2020 07:07:13.000,208.465,-77.214,24961.029915
3 Jan 2020 07:07:43.000,210.212,-77.046,25087.446484
3 Jan 2020 07:08:13.000,211.902,-76.882,25218.037279
