STKdata/stk_70fov_6leo/Satellite-MEO_Satellite10100-To-Satellite-LEO_Satellite20000 AER.csv

"Time (UTCG)","Azimuth (deg)","Elevation (deg)","Range (km)"
1 Jan 2020 00:22:12.014,290.362,-75.989,26109.546638
1 Jan 2020 00:22:42.000,290.700,-76.163,25903.915438
1 Jan 2020 00:23:12.000,291.041,-76.352,25700.698113
1 Jan 2020 00:23:42.000,291.385,-76.557,25500.239872
1 Jan 2020 00:24:12.000,291.735,-76.779,25302.793295
1 Jan 2020 00:24:42.000,292.090,-77.017,25108.613819
1 Jan 2020 00:25:12.000,292.454,-77.272,24917.959354
1 Jan 2020 00:25:42.000,292.827,-77.543,24731.089848
1 Jan 2020 00:26:12.000,293.211,-77.831,24548.266808
1 Jan 2020 00:26:42.000,293.609,-78.136,24369.752477
1 Jan 2020 00:27:12.000,294.023,-78.457,24195.810435
1 Jan 2020 00:27:42.000,294.455,-78.794,24026.703180
1 Jan 2020 00:28:12.000,294.910,-79.148,23862.692646
1 Jan 2020 00:28:42.000,295.391,-79.518,23704.039168
1 Jan 2020 00:29:12.000,295.903,-79.904,23551.000695
1 Jan 2020 00:29:42.000,296.453,-80.304,23403.831705
1 Jan 2020 00:30:12.000,297.046,-80.720,23262.783369
1 Jan 2020 00:30:42.000,297.691,-81.151,23128.101060
1 Jan 2020 00:31:12.000,298.401,-81.595,23000.024464
1 Jan 2020 00:31:42.000,299.187,-82.052,22878.786336
1 Jan 2020 00:32:12.000,300.069,-82.521,22764.611294
1 Jan 2020 00:32:42.000,301.068,-83.002,22657.715622
1 Jan 2020 00:33:12.000,302.216,-83.493,22558.305009
1 Jan 2020 00:33:42.000,303.552,-83.993,22466.574377
1 Jan 2020 00:34:12.000,305.134,-84.500,22382.706540
1 Jan 2020 00:34:42.000,307.042,-85.013,22306.871763
1 Jan 2020 00:35:12.000,309.391,-85.528,22239.226019
1 Jan 2020 00:35:42.000,312.358,-86.041,22179.910660
1 Jan 2020 00:36:12.000,316.212,-86.549,22129.051382
1 Jan 2020 00:36:42.000,321.383,-87.042,22086.757806
1 Jan 2020 00:37:12.000,328.564,-87.506,22053.122300
1 Jan 2020 00:37:42.000,338.819,-87.919,22028.219773
1 Jan 2020 00:38:12.000,353.432,-88.238,22012.107094
1 Jan 2020 00:38:42.000,12.645,-88.403,22004.822824
1 Jan 2020 00:39:12.000,33.431,-88.365,22006.386819
1 Jan 2020 00:39:42.000,51.138,-88.138,22016.800228
1 Jan 2020 00:40:12.000,64.051,-87.779,22036.045501
1 Jan 2020 00:40:42.000,73.038,-87.343,22064.086324
1 Jan 2020 00:41:12.000,79.369,-86.866,22100.868106
1 Jan 2020 00:41:42.000,83.967,-86.366,22146.318178
1 Jan 2020 00:42:12.000,87.417,-85.854,22200.346395
1 Jan 2020 00:42:42.000,90.083,-85.338,22262.845270
1 Jan 2020 00:43:12.000,92.195,-84.822,22333.691249
1 Jan 2020 00:43:42.000,93.904,-84.310,22412.745050
1 Jan 2020 00:44:12.000,95.311,-83.803,22499.852735
1 Jan 2020 00:44:42.000,96.487,-83.305,22594.845951
1 Jan 2020 00:45:12.000,97.481,-82.815,22697.543783
1 Jan 2020 00:45:42.000,98.332,-82.336,22807.753116
1 Jan 2020 00:46:12.000,99.065,-81.869,22925.269771
1 Jan 2020 00:46:42.000,99.702,-81.415,23049.879766
1 Jan 2020 00:47:12.000,100.258,-80.973,23181.359344
1 Jan 2020 00:47:42.000,100.746,-80.546,23319.477440
1 Jan 2020 00:48:12.000,101.176,-80.134,23463.995721
1 Jan 2020 00:48:42.000,101.556,-79.736,23614.669797
1 Jan 2020 00:49:12.000,101.893,-79.355,23771.250427
1 Jan 2020 00:49:42.000,102.191,-78.989,23933.483399
1 Jan 2020 00:50:12.000,102.456,-78.639,24101.111938
1 Jan 2020 00:50:42.000,102.690,-78.306,24273.876520
1 Jan 2020 00:51:12.000,102.896,-77.990,24451.515902
1 Jan 2020 00:51:42.000,103.079,-77.690,24633.767859
1 Jan 2020 00:52:12.000,103.238,-77.407,24820.369864
1 Jan 2020 00:52:42.000,103.377,-77.141,25011.060037
1 Jan 2020 00:53:12.000,103.497,-76.892,25205.576452
1 Jan 2020 00:53:42.000,103.599,-76.659,25403.659570
1 Jan 2020 00:54:12.000,103.685,-76.443,25605.051456
1 Jan 2020 00:54:42.000,103.755,-76.244,25809.496525
1 Jan 2020 00:55:12.000,103.811,-76.061,26016.741932
1 Jan 2020 00:55:25.384,103.831,-75.985,26110.040481
1 Jan 2020 02:11:46.772,257.696,-75.993,26116.880476
1 Jan 2020 02:12:16.000,256.244,-76.108,25978.154357
1 Jan 2020 02:12:46.000,254.704,-76.230,25840.099363
1 Jan 2020 02:13:16.000,253.111,-76.356,25706.613805
1 Jan 2020 02:13:46.000,251.465,-76.486,25577.871745
1 Jan 2020 02:14:16.000,249.762,-76.618,25454.042584
1 Jan 2020 02:14:46.000,248.001,-76.752,25335.290541
1 Jan 2020 02:15:16.000,246.181,-76.887,25221.773906
1 Jan 2020 02:15:46.000,244.301,-77.023,25113.645410
1 Jan 2020 02:16:16.000,242.360,-77.157,25011.050342
1 Jan 2020 02:16:46.000,240.356,-77.290,24914.126939
1 Jan 2020 02:17:16.000,238.289,-77.420,24823.005645
1 Jan 2020 02:17:46.000,236.161,-77.546,24737.808614
1 Jan 2020 02:18:16.000,233.971,-77.668,24658.649045
1 Jan 2020 02:18:46.000,231.720,-77.784,24585.631463
1 Jan 2020 02:19:16.000,229.411,-77.894,24518.850160
1 Jan 2020 02:19:46.000,227.046,-77.996,24458.389561
1 Jan 2020 02:20:16.000,224.627,-78.089,24404.323655
1 Jan 2020 02:20:46.000,222.160,-78.174,24356.715561
1 Jan 2020 02:21:16.000,219.648,-78.248,24315.617697
1 Jan 2020 02:21:46.000,217.098,-78.311,24281.070837
1 Jan 2020 02:22:16.000,214.513,-78.363,24253.104403
1 Jan 2020 02:22:46.000,211.902,-78.403,24231.736192
1 Jan 2020 02:23:16.000,209.271,-78.431,24216.972237
1 Jan 2020 02:23:46.000,206.626,-78.447,24208.807008
1 Jan 2020 02:24:16.000,203.976,-78.450,24207.223054
1 Jan 2020 02:24:46.000,201.328,-78.440,24212.191338
1 Jan 2020 02:25:16.000,198.689,-78.418,24223.671295
1 Jan 2020 02:25:46.000,196.065,-78.384,24241.611009
1 Jan 2020 02:26:16.000,193.464,-78.338,24265.947454
1 Jan 2020 02:26:46.000,190.891,-78.281,24296.606738
1 Jan 2020 02:27:16.000,188.353,-78.214,24333.504455
1 Jan 2020 02:27:46.000,185.853,-78.137,24376.546039
1 Jan 2020 02:28:16.000,183.397,-78.050,24425.627219
1 Jan 2020 02:28:46.000,180.988,-77.956,24480.634259
1 Jan 2020 02:29:16.000,178.629,-77.854,24541.444701
1 Jan 2020 02:29:46.000,176.321,-77.746,24607.927682
1 Jan 2020 02:30:16.000,174.066,-77.632,24679.944489
1 Jan 2020 02:30:46.000,171.866,-77.514,24757.349086
1 Jan 2020 02:31:16.000,169.720,-77.392,24839.988775
1 Jan 2020 02:31:46.000,167.628,-77.268,24927.704298
1 Jan 2020 02:32:16.000,165.591,-77.141,25020.331043
1 Jan 2020 02:32:46.000,163.606,-77.014,25117.699173
1 Jan 2020 02:33:16.000,161.673,-76.886,25219.634281
1 Jan 2020 02:33:46.000,159.791,-76.759,25325.957931
1 Jan 2020 02:34:16.000,157.957,-76.634,25436.488194
1 Jan 2020 02:34:46.000,156.170,-76.510,25551.040321
1 Jan 2020 02:35:16.000,154.428,-76.389,25669.426629
1 Jan 2020 02:35:46.000,152.729,-76.271,25791.457908
1 Jan 2020 02:36:16.000,151.070,-76.156,25916.943282
1 Jan 2020 02:36:46.000,149.451,-76.046,26045.690809
1 Jan 2020 02:37:02.248,148.589,-75.988,26116.713049
1 Jan 2020 06:51:22.670,57.825,-75.991,26117.347323
1 Jan 2020 06:51:52.000,56.942,-76.145,25934.124824
1 Jan 2020 06:52:22.000,56.014,-76.314,25749.191738
1 Jan 2020 06:52:52.000,55.058,-76.497,25566.998712
1 Jan 2020 06:53:22.000,54.070,-76.692,25387.784472
1 Jan 2020 06:53:52.000,53.047,-76.900,25211.789957
1 Jan 2020 06:54:22.000,51.985,-77.120,25039.257926
1 Jan 2020 06:54:52.000,50.878,-77.353,24870.432517
1 Jan 2020 06:55:22.000,49.722,-77.597,24705.558768
1 Jan 2020 06:55:52.000,48.512,-77.853,24544.881847
1 Jan 2020 06:56:22.000,47.241,-78.119,24388.647476
1 Jan 2020 06:56:52.000,45.902,-78.396,24237.099827
1 Jan 2020 06:57:22.000,44.487,-78.683,24090.481875
1 Jan 2020 06:57:52.000,42.988,-78.979,23949.034452
1 Jan 2020 06:58:22.000,41.395,-79.283,23812.995517
1 Jan 2020 06:58:52.000,39.696,-79.594,23682.599181
1 Jan 2020 06:59:22.000,37.879,-79.910,23558.075735
1 Jan 2020 06:59:52.000,35.932,-80.230,23439.649563
1 Jan 2020 07:00:22.000,33.838,-80.553,23327.539138
1 Jan 2020 07:00:52.000,31.581,-80.877,23221.955931
1 Jan 2020 07:01:22.000,29.143,-81.199,23123.103382
1 Jan 2020 07:01:52.000,26.505,-81.517,23031.176620
1 Jan 2020 07:02:22.000,23.647,-81.828,22946.360643
1 Jan 2020 07:02:52.000,20.550,-82.128,22868.830089
1 Jan 2020 07:03:22.000,17.195,-82.416,22798.748211
1 Jan 2020 07:03:52.000,13.566,-82.686,22736.265974
1 Jan 2020 07:04:22.000,9.653,-82.934,22681.521660
1 Jan 2020 07:04:52.000,5.454,-83.157,22634.639524
1 Jan 2020 07:05:22.000,0.977,-83.350,22595.729551
1 Jan 2020 07:05:52.000,356.244,-83.508,22564.886708
1 Jan 2020 07:06:22.000,351.294,-83.627,22542.190529
1 Jan 2020 07:06:52.000,346.180,-83.705,22527.704476
1 Jan 2020 07:07:22.000,340.970,-83.739,22521.475715
1 Jan 2020 07:07:52.000,335.741,-83.728,22523.534845
1 Jan 2020 07:08:22.000,330.570,-83.672,22533.895616
1 Jan 2020 07:08:52.000,325.531,-83.573,22552.555001
1 Jan 2020 07:09:22.000,320.687,-83.433,22579.493141
1 Jan 2020 07:09:52.000,316.085,-83.256,22614.673587
1 Jan 2020 07:10:22.000,311.758,-83.046,22658.043174
1 Jan 2020 07:10:52.000,307.721,-82.807,22709.532844
1 Jan 2020 07:11:22.000,303.979,-82.544,22769.057733
1 Jan 2020 07:11:52.000,300.525,-82.261,22836.517883
1 Jan 2020 07:12:22.000,297.347,-81.961,22911.798268
1 Jan 2020 07:12:52.000,294.428,-81.650,22994.770229
1 Jan 2020 07:13:22.000,291.748,-81.329,23085.291652
1 Jan 2020 07:13:52.000,289.289,-81.003,23183.207848
1 Jan 2020 07:14:22.000,287.030,-80.673,23288.352573
1 Jan 2020 07:14:52.000,284.952,-80.343,23400.547944
1 Jan 2020 07:15:22.000,283.039,-80.014,23519.606633
1 Jan 2020 07:15:52.000,281.275,-79.689,23645.331846
1 Jan 2020 07:16:22.000,279.644,-79.368,23777.518408
1 Jan 2020 07:16:52.000,278.135,-79.054,23915.953888
1 Jan 2020 07:17:22.000,276.735,-78.747,24060.418449
1 Jan 2020 07:17:52.000,275.434,-78.450,24210.687182
1 Jan 2020 07:18:22.000,274.223,-78.162,24366.529944
1 Jan 2020 07:18:52.000,273.094,-77.884,24527.712396
1 Jan 2020 07:19:22.000,272.038,-77.618,24693.996762
1 Jan 2020 07:19:52.000,271.051,-77.363,24865.142851
1 Jan 2020 07:20:22.000,270.125,-77.121,25040.907590
1 Jan 2020 07:20:52.000,269.255,-76.892,25221.047401
1 Jan 2020 07:21:22.000,268.438,-76.676,25405.317666
1 Jan 2020 07:21:52.000,267.668,-76.473,25593.473585
1 Jan 2020 07:22:22.000,266.943,-76.284,25785.270698
1 Jan 2020 07:22:52.000,266.258,-76.108,25980.465371
1 Jan 2020 07:23:12.698,265.807,-75.996,26116.988947
1 Jan 2020 08:38:14.701,90.573,-75.987,26110.133926
1 Jan 2020 08:38:44.000,91.492,-76.139,25929.399930
1 Jan 2020 08:39:14.000,92.479,-76.305,25747.874875
1 Jan 2020 08:39:44.000,93.517,-76.482,25570.150389
1 Jan 2020 08:40:14.000,94.608,-76.670,25396.456457
1 Jan 2020 08:40:44.000,95.756,-76.869,25227.022327
1 Jan 2020 08:41:14.000,96.967,-77.077,25062.075978
1 Jan 2020 08:41:44.000,98.245,-77.294,24901.843546
1 Jan 2020 08:42:14.000,99.595,-77.520,24746.548426
1 Jan 2020 08:42:44.000,101.023,-77.753,24596.411837
1 Jan 2020 08:43:14.000,102.534,-77.993,24451.650347
1 Jan 2020 08:43:44.000,104.135,-78.240,24312.476393
1 Jan 2020 08:44:14.000,105.833,-78.490,24179.097270
1 Jan 2020 08:44:44.000,107.634,-78.744,24051.714386
1 Jan 2020 08:45:14.000,109.547,-79.000,23930.522269
1 Jan 2020 08:45:44.000,111.579,-79.257,23815.708831
1 Jan 2020 08:46:14.000,113.738,-79.512,23707.453049
1 Jan 2020 08:46:44.000,116.030,-79.764,23605.925258
1 Jan 2020 08:47:14.000,118.464,-80.012,23511.286132
1 Jan 2020 08:47:44.000,121.046,-80.252,23423.685771
1 Jan 2020 08:48:14.000,123.780,-80.483,23343.263735
1 Jan 2020 08:48:44.000,126.670,-80.702,23270.147231
1 Jan 2020 08:49:14.000,129.718,-80.907,23204.451245
1 Jan 2020 08:49:44.000,132.921,-81.095,23146.277641
1 Jan 2020 08:50:14.000,136.274,-81.265,23095.715087
1 Jan 2020 08:50:44.000,139.768,-81.413,23052.837866
1 Jan 2020 08:51:14.000,143.389,-81.537,23017.705954
1 Jan 2020 08:51:44.000,147.118,-81.636,22990.364494
1 Jan 2020 08:52:14.000,150.933,-81.707,22970.843803
1 Jan 2020 08:52:44.000,154.807,-81.751,22959.158772
1 Jan 2020 08:53:14.000,158.712,-81.765,22955.309062
1 Jan 2020 08:53:44.000,162.617,-81.751,22959.279010
1 Jan 2020 08:54:14.000,166.492,-81.707,22971.037760
1 Jan 2020 08:54:44.000,170.308,-81.636,22990.539308
1 Jan 2020 08:55:14.000,174.041,-81.538,23017.722840
1 Jan 2020 08:55:44.000,177.668,-81.415,23052.513055
1 Jan 2020 08:56:14.000,181.172,-81.269,23094.820429
1 Jan 2020 08:56:44.000,184.541,-81.103,23144.541869
1 Jan 2020 08:57:14.000,187.766,-80.918,23201.561127
1 Jan 2020 08:57:44.000,190.843,-80.718,23265.749420
1 Jan 2020 08:58:14.000,193.770,-80.504,23336.966173
1 Jan 2020 08:58:44.000,196.550,-80.279,23415.059270
1 Jan 2020 08:59:14.000,199.186,-80.045,23499.866407
1 Jan 2020 08:59:44.000,201.684,-79.805,23591.215426
1 Jan 2020 09:00:14.000,204.050,-79.560,23688.925181
1 Jan 2020 09:00:44.000,206.293,-79.313,23792.806472
1 Jan 2020 09:01:14.000,208.419,-79.064,23902.662216
1 Jan 2020 09:01:44.000,210.436,-78.817,24018.289136
1 Jan 2020 09:02:14.000,212.352,-78.571,24139.477941
1 Jan 2020 09:02:44.000,214.175,-78.329,24266.014238
1 Jan 2020 09:03:14.000,215.912,-78.091,24397.679275
1 Jan 2020 09:03:44.000,217.569,-77.858,24534.250870
1 Jan 2020 09:04:14.000,219.152,-77.632,24675.503284
1 Jan 2020 09:04:44.000,220.669,-77.413,24821.209112
1 Jan 2020 09:05:14.000,222.123,-77.202,24971.139106
1 Jan 2020 09:05:44.000,223.521,-77.000,25125.062977
1 Jan 2020 09:06:14.000,224.868,-76.806,25282.749962
1 Jan 2020 09:06:44.000,226.167,-76.622,25443.969348
1 Jan 2020 09:07:14.000,227.424,-76.447,25608.490967
1 Jan 2020 09:07:44.000,228.640,-76.283,25776.085650
1 Jan 2020 09:08:14.000,229.822,-76.128,25946.525908
1 Jan 2020 09:08:42.341,230.908,-75.992,26109.949973
1 Jan 2020 13:21:54.588,318.032,-75.986,26105.504211
1 Jan 2020 13:22:24.000,319.397,-76.111,25955.244630
1 Jan 2020 13:22:54.000,320.827,-76.245,25804.800130
1 Jan 2020 13:23:24.000,322.296,-76.387,25657.413359
1 Jan 2020 13:23:54.000,323.808,-76.535,25513.295959
1 Jan 2020 13:24:24.000,325.367,-76.690,25372.659777
1 Jan 2020 13:24:54.000,326.975,-76.850,25235.716428
1 Jan 2020 13:25:24.000,328.636,-77.016,25102.676818
1 Jan 2020 13:25:54.000,330.354,-77.186,24973.750644
1 Jan 2020 13:26:24.000,332.131,-77.360,24849.145686
1 Jan 2020 13:26:54.000,333.973,-77.536,24729.067985
1 Jan 2020 13:27:24.000,335.882,-77.715,24613.720150
1 Jan 2020 13:27:54.000,337.862,-77.895,24503.301508
1 Jan 2020 13:28:24.000,339.916,-78.075,24398.007292
1 Jan 2020 13:28:54.000,342.047,-78.254,24298.028004
1 Jan 2020 13:29:24.000,344.259,-78.430,24203.548641
1 Jan 2020 13:29:54.000,346.554,-78.603,24114.748541
1 Jan 2020 13:30:24.000,348.933,-78.772,24031.799946
1 Jan 2020 13:30:54.000,351.398,-78.933,23954.867869
1 Jan 2020 13:31:24.000,353.948,-79.087,23884.109297
1 Jan 2020 13:31:54.000,356.582,-79.232,23819.672484
1 Jan 2020 13:32:24.000,359.298,-79.367,23761.696609
1 Jan 2020 13:32:54.000,2.093,-79.489,23710.310725
1 Jan 2020 13:33:24.000,4.961,-79.598,23665.633491
1 Jan 2020 13:33:54.000,7.895,-79.692,23627.772558
1 Jan 2020 13:34:24.000,10.887,-79.770,23596.824052
1 Jan 2020 13:34:54.000,13.928,-79.832,23572.872195
1 Jan 2020 13:35:24.000,17.005,-79.875,23555.988780
1 Jan 2020 13:35:54.000,20.106,-79.901,23546.232920
1 Jan 2020 13:36:24.000,23.219,-79.908,23543.650736
1 Jan 2020 13:36:54.000,26.330,-79.895,23548.275190
1 Jan 2020 13:37:24.000,29.425,-79.864,23560.125736
1 Jan 2020 13:37:54.000,32.490,-79.815,23579.208498
1 Jan 2020 13:38:24.000,35.514,-79.747,23605.516085
1 Jan 2020 13:38:54.000,38.485,-79.663,23639.027680
1 Jan 2020 13:39:24.000,41.392,-79.562,23679.709272
1 Jan 2020 13:39:54.000,44.226,-79.447,23727.513382
1 Jan 2020 13:40:24.000,46.981,-79.317,23782.379974
1 Jan 2020 13:40:54.000,49.651,-79.175,23844.236330
1 Jan 2020 13:41:24.000,52.232,-79.022,23912.997520
1 Jan 2020 13:41:54.000,54.721,-78.860,23988.566987
1 Jan 2020 13:42:24.000,57.116,-78.690,24070.836330
1 Jan 2020 13:42:54.000,59.418,-78.513,24159.686811
1 Jan 2020 13:43:24.000,61.628,-78.331,24254.989239
1 Jan 2020 13:43:54.000,63.746,-78.146,24356.604699
1 Jan 2020 13:44:24.000,65.775,-77.958,24464.385357
1 Jan 2020 13:44:54.000,67.718,-77.770,24578.174260
1 Jan 2020 13:45:24.000,69.577,-77.582,24697.807165
1 Jan 2020 13:45:54.000,71.356,-77.395,24823.112389
1 Jan 2020 13:46:24.000,73.059,-77.210,24953.911632
1 Jan 2020 13:46:54.000,74.688,-77.029,25090.020621
1 Jan 2020 13:47:24.000,76.248,-76.853,25231.249995
1 Jan 2020 13:47:54.000,77.742,-76.682,25377.404887
1 Jan 2020 13:48:24.000,79.173,-76.517,25528.287071
1 Jan 2020 13:48:54.000,80.544,-76.358,25683.694525
1 Jan 2020 13:49:24.000,81.860,-76.207,25843.422250
1 Jan 2020 13:49:54.000,83.123,-76.063,26007.262812
1 Jan 2020 13:50:11.679,83.843,-75.983,26105.655526
1 Jan 2020 15:05:38.771,279.131,-75.991,26112.188493
1 Jan 2020 15:06:08.000,278.794,-76.159,25911.973751
1 Jan 2020 15:06:38.000,278.421,-76.347,25709.348536
1 Jan 2020 15:07:08.000,278.020,-76.551,25509.881927
1 Jan 2020 15:07:38.000,277.587,-76.770,25313.825684
1 Jan 2020 15:08:08.000,277.119,-77.005,25121.433405
1 Jan 2020 15:08:38.000,276.615,-77.256,24932.960079
1 Jan 2020 15:09:08.000,276.070,-77.522,24748.661586
1 Jan 2020 15:09:38.000,275.480,-77.803,24568.794162
1 Jan 2020 15:10:08.000,274.840,-78.099,24393.613475
1 Jan 2020 15:10:38.000,274.146,-78.410,24223.375327
1 Jan 2020 15:11:08.000,273.390,-78.736,24058.332950
1 Jan 2020 15:11:38.000,272.565,-79.075,23898.737635
1 Jan 2020 15:12:08.000,271.664,-79.427,23744.837613
1 Jan 2020 15:12:38.000,270.675,-79.793,23596.877245
1 Jan 2020 15:13:08.000,269.587,-80.169,23455.095882
1 Jan 2020 15:13:38.000,268.385,-80.557,23319.728114
1 Jan 2020 15:14:08.000,267.053,-80.955,23191.001135
1 Jan 2020 15:14:38.000,265.570,-81.360,23069.134967
1 Jan 2020 15:15:08.000,263.913,-81.773,22954.341207
1 Jan 2020 15:15:38.000,262.050,-82.191,22846.821858
1 Jan 2020 15:16:08.000,259.947,-82.611,22746.769237
1 Jan 2020 15:16:38.000,257.560,-83.031,22654.363708
1 Jan 2020 15:17:08.000,254.837,-83.448,22569.773650
1 Jan 2020 15:17:38.000,251.716,-83.858,22493.154205
1 Jan 2020 15:18:08.000,248.124,-84.256,22424.646980
1 Jan 2020 15:18:38.000,243.978,-84.636,22364.378401
1 Jan 2020 15:19:08.000,239.192,-84.992,22312.459563
1 Jan 2020 15:19:38.000,233.683,-85.313,22268.985337
1 Jan 2020 15:20:08.000,227.395,-85.591,22234.034154
1 Jan 2020 15:20:38.000,220.327,-85.815,22207.666968
1 Jan 2020 15:21:08.000,212.568,-85.973,22189.927257
1 Jan 2020 15:21:38.000,204.319,-86.056,22180.840627
1 Jan 2020 15:22:08.000,195.883,-86.060,22180.414746
1 Jan 2020 15:22:38.000,187.602,-85.984,22188.639110
1 Jan 2020 15:23:08.000,179.784,-85.833,22205.485235
1 Jan 2020 15:23:38.000,172.638,-85.616,22230.906830
1 Jan 2020 15:24:08.000,166.262,-85.344,22264.839932
1 Jan 2020 15:24:38.000,160.659,-85.027,22307.203486
1 Jan 2020 15:25:08.000,155.777,-84.677,22357.899715
1 Jan 2020 15:25:38.000,151.534,-84.302,22416.814825
1 Jan 2020 15:26:08.000,147.842,-83.908,22483.819284
1 Jan 2020 15:26:38.000,144.619,-83.503,22558.769111
1 Jan 2020 15:27:08.000,141.792,-83.090,22641.506328
1 Jan 2020 15:27:38.000,139.297,-82.674,22731.860043
1 Jan 2020 15:28:08.000,137.080,-82.258,22829.646801
1 Jan 2020 15:28:38.000,135.099,-81.844,22934.672328
1 Jan 2020 15:29:08.000,133.317,-81.436,23046.731963
1 Jan 2020 15:29:38.000,131.704,-81.034,23165.611756
1 Jan 2020 15:30:08.000,130.235,-80.640,23291.089660
1 Jan 2020 15:30:38.000,128.889,-80.256,23422.935628
1 Jan 2020 15:31:08.000,127.648,-79.882,23560.913853
1 Jan 2020 15:31:38.000,126.500,-79.520,23704.782846
1 Jan 2020 15:32:08.000,125.430,-79.171,23854.296550
1 Jan 2020 15:32:38.000,124.430,-78.834,24009.205201
1 Jan 2020 15:33:08.000,123.490,-78.511,24169.256432
1 Jan 2020 15:33:38.000,122.602,-78.202,24334.194979
1 Jan 2020 15:34:08.000,121.760,-77.907,24503.765022
1 Jan 2020 15:34:38.000,120.958,-77.626,24677.709822
1 Jan 2020 15:35:08.000,120.192,-77.361,24855.772627
1 Jan 2020 15:35:38.000,119.458,-77.110,25037.697270
1 Jan 2020 15:36:08.000,118.750,-76.874,25223.228717
1 Jan 2020 15:36:38.000,118.066,-76.654,25412.113569
1 Jan 2020 15:37:08.000,117.404,-76.448,25604.100515
1 Jan 2020 15:37:38.000,116.760,-76.257,25798.941057
1 Jan 2020 15:38:08.000,116.132,-76.082,25996.388626
1 Jan 2020 15:38:25.493,115.772,-75.986,26112.625958
1 Jan 2020 17:01:22.882,229.448,-75.993,26118.952410
1 Jan 2020 17:01:52.000,227.515,-76.025,26079.235958
1 Jan 2020 17:02:22.000,225.506,-76.054,26043.294837
1 Jan 2020 17:02:52.000,223.483,-76.080,26012.428020
1 Jan 2020 17:03:22.000,221.447,-76.102,25986.649725
1 Jan 2020 17:03:52.000,219.400,-76.119,25965.965944
1 Jan 2020 17:04:22.000,217.345,-76.133,25950.374429
1 Jan 2020 17:04:52.000,215.283,-76.142,25939.864641
1 Jan 2020 17:05:22.000,213.218,-76.146,25934.418019
1 Jan 2020 17:05:52.000,211.151,-76.147,25934.007693
1 Jan 2020 17:06:22.000,209.084,-76.143,25938.598820
1 Jan 2020 17:06:52.000,207.021,-76.134,25948.148654
1 Jan 2020 17:07:22.000,204.962,-76.121,25962.606693
1 Jan 2020 17:07:52.000,202.911,-76.105,25981.914852
1 Jan 2020 17:08:22.000,200.868,-76.084,26006.007695
1 Jan 2020 17:08:52.000,198.837,-76.060,26034.812608
1 Jan 2020 17:09:22.000,196.818,-76.032,26068.250092
1 Jan 2020 17:09:52.000,194.813,-76.001,26106.234012
1 Jan 2020 17:10:01.161,194.204,-75.991,26118.725657
1 Jan 2020 19:55:19.527,16.535,-75.995,26120.868988
1 Jan 2020 19:55:49.000,14.770,-76.076,26022.494738
1 Jan 2020 19:56:19.000,12.941,-76.159,25925.950211
1 Jan 2020 19:56:49.000,11.078,-76.243,25833.190585
1 Jan 2020 19:57:19.000,9.180,-76.326,25744.376938
1 Jan 2020 19:57:49.000,7.247,-76.410,25659.667041
1 Jan 2020 19:58:19.000,5.278,-76.492,25579.214914
1 Jan 2020 19:58:49.000,3.274,-76.572,25503.170378
1 Jan 2020 19:59:19.000,1.235,-76.651,25431.678530
1 Jan 2020 19:59:49.000,359.162,-76.726,25364.879601
1 Jan 2020 20:00:19.000,357.056,-76.799,25302.908025
1 Jan 2020 20:00:49.000,354.916,-76.867,25245.892324
1 Jan 2020 20:01:19.000,352.747,-76.931,25193.954586
1 Jan 2020 20:01:49.000,350.548,-76.989,25147.210038
1 Jan 2020 20:02:19.000,348.322,-77.042,25105.766609
1 Jan 2020 20:02:49.000,346.072,-77.089,25069.724647
1 Jan 2020 20:03:19.000,343.801,-77.129,25039.176365
1 Jan 2020 20:03:49.000,341.512,-77.163,25014.205623
1 Jan 2020 20:04:19.000,339.208,-77.189,24994.887567
1 Jan 2020 20:04:49.000,336.893,-77.208,24981.288338
1 Jan 2020 20:05:19.000,334.570,-77.218,24973.464844
1 Jan 2020 20:05:49.000,332.245,-77.221,24971.464413
1 Jan 2020 20:06:19.000,329.920,-77.216,24975.324771
1 Jan 2020 20:06:49.000,327.601,-77.203,24985.073789
1 Jan 2020 20:07:19.000,325.290,-77.181,25000.729396
1 Jan 2020 20:07:49.000,322.993,-77.153,25022.299509
1 Jan 2020 20:08:19.000,320.714,-77.116,25049.782101
1 Jan 2020 20:08:49.000,318.455,-77.072,25083.164837
1 Jan 2020 20:09:19.000,316.221,-77.022,25122.425678
1 Jan 2020 20:09:49.000,314.015,-76.965,25167.532619
1 Jan 2020 20:10:19.000,311.840,-76.901,25218.443907
1 Jan 2020 20:10:49.000,309.698,-76.833,25275.108218
1 Jan 2020 20:11:19.000,307.592,-76.759,25337.465012
1 Jan 2020 20:11:49.000,305.524,-76.682,25405.444179
1 Jan 2020 20:12:19.000,303.495,-76.600,25478.967193
1 Jan 2020 20:12:49.000,301.507,-76.516,25557.946836
1 Jan 2020 20:13:19.000,299.561,-76.429,25642.287671
1 Jan 2020 20:13:49.000,297.657,-76.340,25731.886387
1 Jan 2020 20:14:19.000,295.796,-76.251,25826.632364
1 Jan 2020 20:14:49.000,293.978,-76.161,25926.407314
1 Jan 2020 20:15:19.000,292.203,-76.071,26031.086784
1 Jan 2020 20:15:43.709,290.773,-75.997,26120.894274
1 Jan 2020 21:33:49.798,70.997,-75.990,26114.921987
1 Jan 2020 21:34:19.000,70.743,-76.159,25913.546553
1 Jan 2020 21:34:49.000,70.483,-76.349,25709.166909
1 Jan 2020 21:35:19.000,70.222,-76.556,25507.565624
1 Jan 2020 21:35:49.000,69.961,-76.779,25308.996093
1 Jan 2020 21:36:19.000,69.698,-77.018,25113.714582
1 Jan 2020 21:36:49.000,69.432,-77.275,24921.979834
1 Jan 2020 21:37:19.000,69.163,-77.548,24734.052641
1 Jan 2020 21:37:49.000,68.889,-77.838,24550.195354
1 Jan 2020 21:38:19.000,68.609,-78.145,24370.671059
1 Jan 2020 21:38:49.000,68.321,-78.469,24195.744185
1 Jan 2020 21:39:19.000,68.023,-78.810,24025.678064
1 Jan 2020 21:39:49.000,67.714,-79.167,23860.735456
1 Jan 2020 21:40:19.000,67.390,-79.541,23701.177502
1 Jan 2020 21:40:49.000,67.049,-79.930,23547.262938
1 Jan 2020 21:41:19.000,66.688,-80.336,23399.246996
1 Jan 2020 21:41:49.000,66.301,-80.757,23257.381581
1 Jan 2020 21:42:19.000,65.884,-81.193,23121.912743
1 Jan 2020 21:42:49.000,65.429,-81.643,22993.080804
1 Jan 2020 21:43:19.000,64.928,-82.108,22871.119097
1 Jan 2020 21:43:49.000,64.369,-82.586,22756.252750
1 Jan 2020 21:44:19.000,63.739,-83.076,22648.698502
1 Jan 2020 21:44:49.000,63.016,-83.577,22548.662404
1 Jan 2020 21:45:19.000,62.174,-84.090,22456.339657
1 Jan 2020 21:45:49.000,61.176,-84.612,22371.913258
1 Jan 2020 21:46:19.000,59.964,-85.142,22295.553568
1 Jan 2020 21:46:49.000,58.456,-85.679,22227.416537
1 Jan 2020 21:47:19.000,56.518,-86.220,22167.643385
1 Jan 2020 21:47:49.000,53.932,-86.763,22116.359560
1 Jan 2020 21:48:19.000,50.303,-87.302,22073.674323
1 Jan 2020 21:48:49.000,44.876,-87.831,22039.679548
1 Jan 2020 21:49:19.000,36.065,-88.332,22014.449533
1 Jan 2020 21:49:49.000,20.443,-88.765,21998.040407
1 Jan 2020 21:50:19.000,352.900,-89.028,21990.489876
1 Jan 2020 21:50:49.000,318.933,-88.977,21991.816814
1 Jan 2020 21:51:19.000,295.248,-88.649,22002.021271
1 Jan 2020 21:51:49.000,282.163,-88.189,22021.084483
1 Jan 2020 21:52:19.000,274.620,-87.676,22048.968827
1 Jan 2020 21:52:49.000,269.868,-87.143,22085.618292
1 Jan 2020 21:53:19.000,266.643,-86.601,22130.958703
1 Jan 2020 21:53:49.000,264.326,-86.058,22184.898325
1 Jan 2020 21:54:19.000,262.588,-85.517,22247.328013
1 Jan 2020 21:54:49.000,261.242,-84.981,22318.122488
1 Jan 2020 21:55:19.000,260.171,-84.452,22397.140694
1 Jan 2020 21:55:49.000,259.303,-83.932,22484.226875
1 Jan 2020 21:56:19.000,258.587,-83.422,22579.210838
1 Jan 2020 21:56:49.000,257.989,-82.922,22681.909801
1 Jan 2020 21:57:19.000,257.485,-82.434,22792.128777
1 Jan 2020 21:57:49.000,257.057,-81.959,22909.661716
1 Jan 2020 21:58:19.000,256.691,-81.498,23034.292777
1 Jan 2020 21:58:49.000,256.377,-81.051,23165.796367
1 Jan 2020 21:59:19.000,256.106,-80.618,23303.939612
1 Jan 2020 21:59:49.000,255.873,-80.200,23448.482407
1 Jan 2020 22:00:19.000,255.673,-79.798,23599.178636
1 Jan 2020 22:00:49.000,255.502,-79.413,23755.777380
1 Jan 2020 22:01:19.000,255.355,-79.043,23918.022812
1 Jan 2020 22:01:49.000,255.231,-78.690,24085.656596
1 Jan 2020 22:02:19.000,255.128,-78.353,24258.417715
1 Jan 2020 22:02:49.000,255.043,-78.034,24436.043505
1 Jan 2020 22:03:19.000,254.975,-77.731,24618.270386
1 Jan 2020 22:03:49.000,254.923,-77.446,24804.834553
1 Jan 2020 22:04:19.000,254.885,-77.177,24995.472922
1 Jan 2020 22:04:49.000,254.860,-76.926,25189.922443
1 Jan 2020 22:05:19.000,254.849,-76.691,25387.922524
1 Jan 2020 22:05:49.000,254.849,-76.474,25589.214257
1 Jan 2020 22:06:19.000,254.862,-76.272,25793.541162
1 Jan 2020 22:06:49.000,254.885,-76.088,26000.649572
1 Jan 2020 22:07:05.321,254.902,-75.994,26114.400884
1 Jan 2020 23:23:48.570,104.195,-75.986,26107.643700
1 Jan 2020 23:24:18.000,105.721,-76.096,25975.414996
1 Jan 2020 23:24:48.000,107.326,-76.211,25845.083321
1 Jan 2020 23:25:18.000,108.981,-76.329,25719.418320
1 Jan 2020 23:25:48.000,110.689,-76.449,25598.583152
1 Jan 2020 23:26:18.000,112.450,-76.572,25482.735774
1 Jan 2020 23:26:48.000,114.266,-76.694,25372.028447
1 Jan 2020 23:27:18.000,116.137,-76.817,25266.607015
1 Jan 2020 23:27:48.000,118.065,-76.939,25166.611272
1 Jan 2020 23:28:18.000,120.049,-77.060,25072.173164
1 Jan 2020 23:28:48.000,122.090,-77.178,24983.417187
1 Jan 2020 23:29:18.000,124.187,-77.292,24900.459695
1 Jan 2020 23:29:48.000,126.340,-77.402,24823.408454
1 Jan 2020 23:30:18.000,128.546,-77.507,24752.362041
1 Jan 2020 23:30:48.000,130.804,-77.606,24687.410122
1 Jan 2020 23:31:18.000,133.112,-77.698,24628.632049
1 Jan 2020 23:31:48.000,135.467,-77.782,24576.097221
1 Jan 2020 23:32:18.000,137.864,-77.858,24529.864600
1 Jan 2020 23:32:48.000,140.301,-77.925,24489.982357
1 Jan 2020 23:33:18.000,142.771,-77.981,24456.488052
1 Jan 2020 23:33:48.000,145.270,-78.028,24429.407847
1 Jan 2020 23:34:18.000,147.793,-78.064,24408.756804
1 Jan 2020 23:34:48.000,150.333,-78.089,24394.538699
1 Jan 2020 23:35:18.000,152.884,-78.103,24386.745955
1 Jan 2020 23:35:48.000,155.440,-78.105,24385.359858
1 Jan 2020 23:36:18.000,157.995,-78.097,24390.350333
1 Jan 2020 23:36:48.000,160.541,-78.077,24401.676278
1 Jan 2020 23:37:18.000,163.075,-78.046,24419.285693
1 Jan 2020 23:37:48.000,165.589,-78.005,24443.115902
1 Jan 2020 23:38:18.000,168.078,-77.954,24473.093801
1 Jan 2020 23:38:48.000,170.537,-77.894,24509.136189
1 Jan 2020 23:39:18.000,172.963,-77.825,24551.150111
1 Jan 2020 23:39:48.000,175.351,-77.747,24599.033240
1 Jan 2020 23:40:18.000,177.698,-77.662,24652.674298
1 Jan 2020 23:40:48.000,180.002,-77.571,24711.953568
1 Jan 2020 23:41:18.000,182.260,-77.473,24776.743081
1 Jan 2020 23:41:48.000,184.471,-77.371,24846.907515
1 Jan 2020 23:42:18.000,186.634,-77.264,24922.304436
1 Jan 2020 23:42:48.000,188.748,-77.155,25002.784875
1 Jan 2020 23:43:18.000,190.814,-77.042,25088.193853
1 Jan 2020 23:43:48.000,192.831,-76.928,25178.370910
1 Jan 2020 23:44:18.000,194.800,-76.813,25273.150765
1 Jan 2020 23:44:48.000,196.722,-76.698,25372.363300
1 Jan 2020 23:45:18.000,198.598,-76.583,25475.834881
1 Jan 2020 23:45:48.000,200.430,-76.469,25583.388338
1 Jan 2020 23:46:18.000,202.219,-76.357,25694.843595
1 Jan 2020 23:46:48.000,203.966,-76.247,25810.018147
1 Jan 2020 23:47:18.000,205.674,-76.140,25928.727531
1 Jan 2020 23:47:48.000,207.343,-76.037,26050.785774
1 Jan 2020 23:48:01.757,208.097,-75.991,26107.825910
2 Jan 2020 04:02:48.902,300.390,-75.988,26107.605756
2 Jan 2020 04:03:18.000,301.195,-76.143,25922.445222
2 Jan 2020 04:03:48.000,302.047,-76.316,25733.994044
2 Jan 2020 04:04:18.000,302.924,-76.502,25548.263022
2 Jan 2020 04:04:48.000,303.830,-76.702,25365.493405
2 Jan 2020 04:05:18.000,304.769,-76.916,25185.928818
2 Jan 2020 04:05:48.000,305.743,-77.142,25009.814868
2 Jan 2020 04:06:18.000,306.758,-77.381,24837.398709
2 Jan 2020 04:06:48.000,307.819,-77.634,24668.928569
2 Jan 2020 04:07:18.000,308.930,-77.898,24504.652974
2 Jan 2020 04:07:48.000,310.099,-78.175,24344.821195
2 Jan 2020 04:08:18.000,311.331,-78.463,24189.681110
2 Jan 2020 04:08:48.000,312.636,-78.762,24039.479578
2 Jan 2020 04:09:18.000,314.021,-79.072,23894.461480
2 Jan 2020 04:09:48.000,315.497,-79.390,23754.868986
2 Jan 2020 04:10:18.000,317.075,-79.717,23620.940559
2 Jan 2020 04:10:48.000,318.769,-80.051,23492.911008
2 Jan 2020 04:11:18.000,320.593,-80.391,23371.009335
2 Jan 2020 04:11:48.000,322.564,-80.735,23255.458750
2 Jan 2020 04:12:18.000,324.701,-81.082,23146.475551
2 Jan 2020 04:12:48.000,327.025,-81.429,23044.268065
2 Jan 2020 04:13:18.000,329.560,-81.773,22949.036382
2 Jan 2020 04:13:48.000,332.331,-82.113,22860.970456
2 Jan 2020 04:14:18.000,335.365,-82.445,22780.249879
2 Jan 2020 04:14:48.000,338.690,-82.764,22707.042824
2 Jan 2020 04:15:18.000,342.332,-83.068,22641.505099
2 Jan 2020 04:15:48.000,346.314,-83.351,22583.779757
2 Jan 2020 04:16:18.000,350.651,-83.609,22533.995668
2 Jan 2020 04:16:48.000,355.346,-83.835,22492.267273
2 Jan 2020 04:17:18.000,0.384,-84.025,22458.693797
2 Jan 2020 04:17:48.000,5.729,-84.174,22433.358827
2 Jan 2020 04:18:18.000,11.318,-84.276,22416.329601
2 Jan 2020 04:18:48.000,17.068,-84.329,22407.656787
2 Jan 2020 04:19:18.000,22.875,-84.331,22407.374175
2 Jan 2020 04:19:48.000,28.631,-84.281,22415.498392
2 Jan 2020 04:20:18.000,34.232,-84.181,22432.028926
2 Jan 2020 04:20:48.000,39.589,-84.034,22456.948079
2 Jan 2020 04:21:18.000,44.638,-83.845,22490.221181
2 Jan 2020 04:21:48.000,49.340,-83.619,22531.796486
2 Jan 2020 04:22:18.000,53.677,-83.361,22581.605954
2 Jan 2020 04:22:48.000,57.650,-83.076,22639.565362
2 Jan 2020 04:23:18.000,61.272,-82.769,22705.575018
2 Jan 2020 04:23:48.000,64.567,-82.446,22779.519797
2 Jan 2020 04:24:18.000,67.559,-82.110,22861.270578
2 Jan 2020 04:24:48.000,70.276,-81.765,22950.684449
2 Jan 2020 04:25:18.000,72.746,-81.415,23047.605596
2 Jan 2020 04:25:48.000,74.994,-81.062,23151.866352
2 Jan 2020 04:26:18.000,77.044,-80.709,23263.287128
2 Jan 2020 04:26:48.000,78.917,-80.358,23381.678634
2 Jan 2020 04:27:18.000,80.632,-80.011,23506.841884
2 Jan 2020 04:27:48.000,82.206,-79.670,23638.569305
2 Jan 2020 04:28:18.000,83.654,-79.336,23776.645888
2 Jan 2020 04:28:48.000,84.990,-79.011,23920.849063
2 Jan 2020 04:29:18.000,86.225,-78.695,24070.951061
2 Jan 2020 04:29:48.000,87.369,-78.390,24226.718778
2 Jan 2020 04:30:18.000,88.431,-78.096,24387.914830
2 Jan 2020 04:30:48.000,89.418,-77.813,24554.298342
2 Jan 2020 04:31:18.000,90.339,-77.544,24725.625992
2 Jan 2020 04:31:48.000,91.198,-77.287,24901.651546
2 Jan 2020 04:32:18.000,92.002,-77.044,25082.128280
2 Jan 2020 04:32:48.000,92.755,-76.814,25266.808444
2 Jan 2020 04:33:18.000,93.461,-76.599,25455.444139
2 Jan 2020 04:33:48.000,94.124,-76.397,25647.787853
2 Jan 2020 04:34:18.000,94.747,-76.210,25843.592959
2 Jan 2020 04:34:48.000,95.334,-76.037,26042.614171
2 Jan 2020 04:34:57.767,95.518,-75.984,26108.060718
2 Jan 2020 05:50:02.826,268.005,-75.992,26114.858451
2 Jan 2020 05:50:32.000,267.013,-76.139,25939.176538
2 Jan 2020 05:51:02.000,265.945,-76.300,25762.146154
2 Jan 2020 05:51:32.000,264.825,-76.472,25589.018261
2 Jan 2020 05:52:02.000,263.650,-76.653,25420.017578
2 Jan 2020 05:52:32.000,262.416,-76.844,25255.367598
2 Jan 2020 05:53:02.000,261.118,-77.043,25095.290043
2 Jan 2020 05:53:32.000,259.753,-77.251,24940.004293
2 Jan 2020 05:54:02.000,258.314,-77.465,24789.726482
2 Jan 2020 05:54:32.000,256.798,-77.687,24644.670058
2 Jan 2020 05:55:02.000,255.198,-77.913,24505.043329
2 Jan 2020 05:55:32.000,253.509,-78.145,24371.049986
2 Jan 2020 05:56:02.000,251.725,-78.379,24242.888104
2 Jan 2020 05:56:32.000,249.841,-78.616,24120.749216
2 Jan 2020 05:57:02.000,247.849,-78.853,24004.818446
2 Jan 2020 05:57:32.000,245.743,-79.089,23895.272480
2 Jan 2020 05:58:02.000,243.519,-79.322,23792.279722
2 Jan 2020 05:58:32.000,241.170,-79.552,23695.999348
2 Jan 2020 05:59:02.000,238.693,-79.775,23606.580422
2 Jan 2020 05:59:32.000,236.082,-79.990,23524.161960
2 Jan 2020 06:00:02.000,233.337,-80.194,23448.871137
2 Jan 2020 06:00:32.000,230.457,-80.386,23380.823441
2 Jan 2020 06:01:02.000,227.444,-80.564,23320.121899
2 Jan 2020 06:01:32.000,224.302,-80.725,23266.856421
2 Jan 2020 06:02:02.000,221.039,-80.867,23221.103865
2 Jan 2020 06:02:32.000,217.666,-80.989,23182.926804
2 Jan 2020 06:03:02.000,214.198,-81.088,23152.373747
2 Jan 2020 06:03:32.000,210.651,-81.164,23129.478669
2 Jan 2020 06:04:02.000,207.046,-81.215,23114.261055
2 Jan 2020 06:04:32.000,203.406,-81.240,23106.725405
2 Jan 2020 06:05:02.000,199.754,-81.239,23106.861463
2 Jan 2020 06:05:32.000,196.114,-81.213,23114.644182
2 Jan 2020 06:06:02.000,192.510,-81.161,23130.033897
2 Jan 2020 06:06:32.000,188.963,-81.085,23152.976437
2 Jan 2020 06:07:02.000,185.493,-80.986,23183.403479
2 Jan 2020 06:07:32.000,182.117,-80.865,23221.232876
2 Jan 2020 06:08:02.000,178.846,-80.725,23266.369146
2 Jan 2020 06:08:32.000,175.692,-80.566,23318.703709
2 Jan 2020 06:09:02.000,172.660,-80.392,23378.115770
2 Jan 2020 06:09:32.000,169.754,-80.204,23444.472703
2 Jan 2020 06:10:02.000,166.976,-80.005,23517.630728
2 Jan 2020 06:10:32.000,164.324,-79.796,23597.435716
2 Jan 2020 06:11:02.000,161.795,-79.579,23683.723407
2 Jan 2020 06:11:32.000,159.386,-79.357,23776.320837
2 Jan 2020 06:12:02.000,157.092,-79.131,23875.046624
2 Jan 2020 06:12:32.000,154.906,-78.903,23979.711827
2 Jan 2020 06:13:02.000,152.823,-78.674,24090.120700
2 Jan 2020 06:13:32.000,150.837,-78.446,24206.071631
2 Jan 2020 06:14:02.000,148.941,-78.220,24327.357119
2 Jan 2020 06:14:32.000,147.130,-77.997,24453.765623
2 Jan 2020 06:15:02.000,145.397,-77.778,24585.081527
2 Jan 2020 06:15:32.000,143.737,-77.565,24721.086002
2 Jan 2020 06:16:02.000,142.145,-77.357,24861.557663
2 Jan 2020 06:16:32.000,140.614,-77.156,25006.273193
2 Jan 2020 06:17:02.000,139.141,-76.963,25155.008165
2 Jan 2020 06:17:32.000,137.720,-76.778,25307.536711
2 Jan 2020 06:18:02.000,136.348,-76.601,25463.633377
2 Jan 2020 06:18:32.000,135.021,-76.432,25623.072739
2 Jan 2020 06:19:02.000,133.734,-76.273,25785.630082
2 Jan 2020 06:19:32.000,132.485,-76.124,25951.081820
2 Jan 2020 06:20:01.260,131.299,-75.987,26115.029150
2 Jan 2020 10:33:09.892,44.424,-75.993,26119.051315
2 Jan 2020 10:33:39.000,43.131,-76.121,25965.102357
2 Jan 2020 10:34:09.000,41.762,-76.261,25809.176991
2 Jan 2020 10:34:39.000,40.354,-76.409,25656.246610
2 Jan 2020 10:35:09.000,38.903,-76.564,25506.527439
2 Jan 2020 10:35:39.000,37.406,-76.727,25360.236267
2 Jan 2020 10:36:09.000,35.860,-76.897,25217.590004
2 Jan 2020 10:36:39.000,34.260,-77.072,25078.805215
2 Jan 2020 10:37:09.000,32.603,-77.253,24944.097619
2 Jan 2020 10:37:39.000,30.885,-77.439,24813.681372
2 Jan 2020 10:38:09.000,29.101,-77.629,24687.769270
2 Jan 2020 10:38:39.000,27.247,-77.822,24566.571004
2 Jan 2020 10:39:09.000,25.318,-78.017,24450.293326
2 Jan 2020 10:39:39.000,23.312,-78.213,24339.139218
2 Jan 2020 10:40:09.000,21.222,-78.409,24233.307236
2 Jan 2020 10:40:39.000,19.046,-78.604,24132.990703
2 Jan 2020 10:41:09.000,16.779,-78.796,24038.377575
2 Jan 2020 10:41:39.000,14.419,-78.984,23949.648905
2 Jan 2020 10:42:09.000,11.963,-79.166,23866.978719
2 Jan 2020 10:42:39.000,9.410,-79.341,23790.533181
2 Jan 2020 10:43:09.000,6.760,-79.508,23720.469823
2 Jan 2020 10:43:39.000,4.012,-79.664,23656.937213
2 Jan 2020 10:44:09.000,1.170,-79.808,23600.073783
2 Jan 2020 10:44:39.000,358.239,-79.938,23550.007567
2 Jan 2020 10:45:09.000,355.224,-80.053,23506.855518
2 Jan 2020 10:45:39.000,352.133,-80.151,23470.722933
2 Jan 2020 10:46:09.000,348.977,-80.232,23441.703069
2 Jan 2020 10:46:39.000,345.769,-80.293,23419.876490
2 Jan 2020 10:47:09.000,342.521,-80.335,23405.310820
2 Jan 2020 10:47:39.000,339.249,-80.355,23398.060369
2 Jan 2020 10:48:09.000,335.970,-80.355,23398.165905
2 Jan 2020 10:48:39.000,332.699,-80.334,23405.654300
2 Jan 2020 10:49:09.000,329.454,-80.292,23420.538614
2 Jan 2020 10:49:39.000,326.249,-80.229,23442.817905
2 Jan 2020 10:50:09.000,323.099,-80.147,23472.477280
2 Jan 2020 10:50:39.000,320.018,-80.047,23509.488093
2 Jan 2020 10:51:09.000,317.015,-79.929,23553.807670
2 Jan 2020 10:51:39.000,314.101,-79.795,23605.380166
2 Jan 2020 10:52:09.000,311.282,-79.647,23664.136456
2 Jan 2020 10:52:39.000,308.564,-79.486,23729.994591
2 Jan 2020 10:53:09.000,305.949,-79.314,23802.860376
2 Jan 2020 10:53:39.000,303.440,-79.132,23882.627172
2 Jan 2020 10:54:09.000,301.037,-78.943,23969.177392
2 Jan 2020 10:54:39.000,298.738,-78.748,24062.382414
2 Jan 2020 10:55:09.000,296.542,-78.548,24162.103324
2 Jan 2020 10:55:39.000,294.445,-78.345,24268.191745
2 Jan 2020 10:56:09.000,292.445,-78.141,24380.489646
2 Jan 2020 10:56:39.000,290.537,-77.936,24498.831228
2 Jan 2020 10:57:09.000,288.718,-77.733,24623.042781
2 Jan 2020 10:57:39.000,286.984,-77.532,24752.943550
2 Jan 2020 10:58:09.000,285.330,-77.334,24888.346411
2 Jan 2020 10:58:39.000,283.751,-77.140,25029.058794
2 Jan 2020 10:59:09.000,282.245,-76.952,25174.882275
2 Jan 2020 10:59:39.000,280.806,-76.770,25325.614801
2 Jan 2020 11:00:09.000,279.432,-76.595,25481.050258
2 Jan 2020 11:00:39.000,278.117,-76.427,25640.979331
2 Jan 2020 11:01:09.000,276.860,-76.268,25805.190081
2 Jan 2020 11:01:39.000,275.655,-76.117,25973.468490
2 Jan 2020 11:02:04.377,274.676,-75.996,26118.828675
2 Jan 2020 12:17:23.235,82.105,-75.989,26112.268271
2 Jan 2020 12:17:53.000,82.526,-76.159,25909.952901
2 Jan 2020 12:18:23.000,82.981,-76.346,25709.015966
2 Jan 2020 12:18:53.000,83.469,-76.548,25511.312408
2 Jan 2020 12:19:23.000,83.991,-76.765,25317.092560
2 Jan 2020 12:19:53.000,84.552,-76.997,25126.608355
2 Jan 2020 12:20:23.000,85.155,-77.245,24940.112867
2 Jan 2020 12:20:53.000,85.804,-77.507,24757.859807
2 Jan 2020 12:21:23.000,86.502,-77.784,24580.102674
2 Jan 2020 12:21:53.000,87.257,-78.075,24407.095340
2 Jan 2020 12:22:23.000,88.072,-78.380,24239.089621
2 Jan 2020 12:22:53.000,88.957,-78.699,24076.335785
2 Jan 2020 12:23:23.000,89.917,-79.031,23919.081511
2 Jan 2020 12:23:53.000,90.964,-79.374,23767.571120
2 Jan 2020 12:24:23.000,92.106,-79.730,23622.044474
2 Jan 2020 12:24:53.000,93.358,-80.095,23482.737249
2 Jan 2020 12:25:23.000,94.734,-80.470,23349.878352
2 Jan 2020 12:25:53.000,96.251,-80.853,23223.690156
2 Jan 2020 12:26:23.000,97.930,-81.242,23104.387286
2 Jan 2020 12:26:53.000,99.796,-81.636,22992.175460
2 Jan 2020 12:27:23.000,101.875,-82.033,22887.251430
2 Jan 2020 12:27:53.000,104.203,-82.430,22789.800705
2 Jan 2020 12:28:23.000,106.818,-82.824,22699.997530
2 Jan 2020 12:28:53.000,109.765,-83.211,22618.003625
2 Jan 2020 12:29:23.000,113.094,-83.588,22543.967904
2 Jan 2020 12:29:53.000,116.861,-83.949,22478.024761
2 Jan 2020 12:30:23.000,121.121,-84.290,22420.293925
2 Jan 2020 12:30:53.000,125.926,-84.601,22370.879514
2 Jan 2020 12:31:23.000,131.310,-84.878,22329.869816
2 Jan 2020 12:31:53.000,137.279,-85.110,22297.336139
2 Jan 2020 12:32:23.000,143.791,-85.290,22273.332795
2 Jan 2020 12:32:53.000,150.744,-85.410,22257.896620
2 Jan 2020 12:33:23.000,157.975,-85.464,22251.046888
2 Jan 2020 12:33:53.000,165.272,-85.451,22252.784929
2 Jan 2020 12:34:23.000,172.416,-85.370,22263.094293
2 Jan 2020 12:34:53.000,179.213,-85.225,22281.940825
2 Jan 2020 12:35:23.000,185.525,-85.024,22309.272771
2 Jan 2020 12:35:53.000,191.276,-84.775,22345.021197
2 Jan 2020 12:36:23.000,196.447,-84.486,22389.100345
2 Jan 2020 12:36:53.000,201.059,-84.164,22441.408228
2 Jan 2020 12:37:23.000,205.156,-83.818,22501.826902
2 Jan 2020 12:37:53.000,208.791,-83.453,22570.223605
2 Jan 2020 12:38:23.000,212.021,-83.076,22646.451204
2 Jan 2020 12:38:53.000,214.898,-82.690,22730.349205
2 Jan 2020 12:39:23.000,217.472,-82.299,22821.744096
2 Jan 2020 12:39:53.000,219.785,-81.907,22920.450992
2 Jan 2020 12:40:23.000,221.872,-81.516,23026.274076
2 Jan 2020 12:40:53.000,223.766,-81.129,23139.007661
2 Jan 2020 12:41:23.000,225.494,-80.748,23258.437357
2 Jan 2020 12:41:53.000,227.077,-80.373,23384.340195
2 Jan 2020 12:42:23.000,228.535,-80.007,23516.486802
2 Jan 2020 12:42:53.000,229.885,-79.651,23654.641523
2 Jan 2020 12:43:23.000,231.140,-79.305,23798.563527
2 Jan 2020 12:43:53.000,232.312,-78.971,23948.007688
2 Jan 2020 12:44:23.000,233.412,-78.649,24102.725691
2 Jan 2020 12:44:53.000,234.448,-78.340,24262.465780
2 Jan 2020 12:45:23.000,235.428,-78.044,24426.975097
2 Jan 2020 12:45:53.000,236.358,-77.762,24595.999354
2 Jan 2020 12:46:23.000,237.245,-77.494,24769.283771
2 Jan 2020 12:46:53.000,238.094,-77.239,24946.573696
2 Jan 2020 12:47:23.000,238.908,-77.000,25127.615183
2 Jan 2020 12:47:53.000,239.693,-76.774,25312.155527
2 Jan 2020 12:48:23.000,240.450,-76.564,25499.943743
2 Jan 2020 12:48:53.000,241.185,-76.367,25690.731330
2 Jan 2020 12:49:23.000,241.899,-76.186,25884.271389
2 Jan 2020 12:49:53.000,242.595,-76.018,26080.320880
2 Jan 2020 12:49:57.788,242.704,-75.993,26111.823725
2 Jan 2020 17:05:59.154,339.065,-75.984,26104.032304
2 Jan 2020 17:06:29.000,340.802,-76.073,25995.668742
2 Jan 2020 17:06:59.000,342.583,-76.165,25890.219039
2 Jan 2020 17:07:29.000,344.401,-76.257,25788.424807
2 Jan 2020 17:07:59.000,346.256,-76.351,25690.456382
2 Jan 2020 17:08:29.000,348.149,-76.445,25596.481375
2 Jan 2020 17:08:59.000,350.081,-76.539,25506.664224
2 Jan 2020 17:09:29.000,352.052,-76.632,25421.165733
2 Jan 2020 17:09:59.000,354.062,-76.723,25340.142510
2 Jan 2020 17:10:29.000,356.112,-76.813,25263.746874
2 Jan 2020 17:10:59.000,358.200,-76.899,25192.125797
2 Jan 2020 17:11:29.000,0.328,-76.983,25125.420825
2 Jan 2020 17:11:59.000,2.492,-77.062,25063.767503
2 Jan 2020 17:12:29.000,4.692,-77.136,25007.294910
2 Jan 2020 17:12:59.000,6.927,-77.205,24956.125162
2 Jan 2020 17:13:29.000,9.193,-77.269,24910.373143
2 Jan 2020 17:13:59.000,11.488,-77.325,24870.145806
2 Jan 2020 17:14:29.000,13.810,-77.375,24835.541961
2 Jan 2020 17:14:59.000,16.155,-77.416,24806.651842
2 Jan 2020 17:15:29.000,18.519,-77.450,24783.556754
2 Jan 2020 17:15:59.000,20.898,-77.476,24766.328766
2 Jan 2020 17:16:29.000,23.288,-77.492,24755.030371
2 Jan 2020 17:16:59.000,25.683,-77.500,24749.714290
2 Jan 2020 17:17:29.000,28.081,-77.499,24750.423233
2 Jan 2020 17:17:59.000,30.475,-77.489,24757.189724
2 Jan 2020 17:18:29.000,32.861,-77.470,24770.035970
2 Jan 2020 17:18:59.000,35.234,-77.442,24788.973856
2 Jan 2020 17:19:29.000,37.590,-77.405,24814.004582
2 Jan 2020 17:19:59.000,39.924,-77.360,24845.119123
2 Jan 2020 17:20:29.000,42.232,-77.307,24882.297974
2 Jan 2020 17:20:59.000,44.510,-77.247,24925.511315
2 Jan 2020 17:21:29.000,46.755,-77.179,24974.719137
2 Jan 2020 17:21:59.000,48.964,-77.105,25029.871558
2 Jan 2020 17:22:29.000,51.134,-77.026,25090.908464
2 Jan 2020 17:22:59.000,53.262,-76.941,25157.760600
2 Jan 2020 17:23:29.000,55.347,-76.851,25230.349294
2 Jan 2020 17:23:59.000,57.388,-76.758,25308.586915
2 Jan 2020 17:24:29.000,59.382,-76.662,25392.377207
2 Jan 2020 17:24:59.000,61.330,-76.564,25481.615849
2 Jan 2020 17:25:29.000,63.231,-76.464,25576.190092
2 Jan 2020 17:25:59.000,65.084,-76.363,25675.980282
2 Jan 2020 17:26:29.000,66.891,-76.262,25780.859545
2 Jan 2020 17:26:59.000,68.651,-76.162,25890.694406
2 Jan 2020 17:27:29.000,70.364,-76.063,26005.345229
2 Jan 2020 17:27:53.900,71.752,-75.982,26104.058470
2 Jan 2020 18:45:25.383,287.593,-75.990,26110.052366
2 Jan 2020 18:45:55.000,287.770,-76.162,25904.948491
2 Jan 2020 18:46:25.000,287.945,-76.353,25699.740560
2 Jan 2020 18:46:55.000,288.116,-76.561,25497.347823
2 Jan 2020 18:47:25.000,288.283,-76.785,25298.024356
2 Jan 2020 18:47:55.000,288.447,-77.026,25102.027033
2 Jan 2020 18:48:25.000,288.608,-77.284,24909.615135
2 Jan 2020 18:48:55.000,288.767,-77.559,24721.049905
2 Jan 2020 18:49:25.000,288.923,-77.851,24536.594065
2 Jan 2020 18:49:55.000,289.078,-78.160,24356.510972
2 Jan 2020 18:50:25.000,289.232,-78.486,24181.065250
2 Jan 2020 18:50:55.000,289.385,-78.829,24010.520301
2 Jan 2020 18:51:25.000,289.538,-79.189,23845.138854
2 Jan 2020 18:51:55.000,289.692,-79.565,23685.181907
2 Jan 2020 18:52:25.000,289.848,-79.958,23530.907932
2 Jan 2020 18:52:55.000,290.007,-80.366,23382.571770
2 Jan 2020 18:53:25.000,290.170,-80.791,23240.424819
2 Jan 2020 18:53:55.000,290.339,-81.231,23104.712476
2 Jan 2020 18:54:25.000,290.516,-81.685,22975.674279
2 Jan 2020 18:54:55.000,290.704,-82.154,22853.542638
2 Jan 2020 18:55:25.000,290.906,-82.637,22738.541615
2 Jan 2020 18:55:55.000,291.127,-83.133,22630.886752
2 Jan 2020 18:56:25.000,291.372,-83.641,22530.782752
2 Jan 2020 18:56:55.000,291.650,-84.160,22438.423335
2 Jan 2020 18:57:25.000,291.973,-84.691,22353.989876
2 Jan 2020 18:57:55.000,292.358,-85.231,22277.650991
2 Jan 2020 18:58:25.000,292.833,-85.780,22209.560751
2 Jan 2020 18:58:55.000,293.442,-86.337,22149.858383
2 Jan 2020 18:59:25.000,294.261,-86.900,22098.667225
2 Jan 2020 18:59:55.000,295.438,-87.469,22056.094339
2 Jan 2020 19:00:25.000,297.292,-88.041,22022.229303
2 Jan 2020 19:00:55.000,300.669,-88.613,21997.144040
2 Jan 2020 19:01:25.000,308.720,-89.176,21980.892244
2 Jan 2020 19:01:55.000,344.220,-89.665,21973.509138
2 Jan 2020 19:02:25.000,74.438,-89.522,21975.011075
2 Jan 2020 19:02:55.000,93.691,-88.986,21985.395564
2 Jan 2020 19:03:25.000,99.398,-88.418,22004.641300
2 Jan 2020 19:03:55.000,102.066,-87.845,22032.708129
2 Jan 2020 19:04:25.000,103.600,-87.274,22069.537537
2 Jan 2020 19:04:55.000,104.591,-86.706,22115.052889
2 Jan 2020 19:05:25.000,105.279,-86.145,22169.160045
2 Jan 2020 19:05:55.000,105.780,-85.590,22231.747531
2 Jan 2020 19:06:25.000,106.156,-85.044,22302.687818
2 Jan 2020 19:06:55.000,106.446,-84.507,22381.837698
2 Jan 2020 19:07:25.000,106.673,-83.979,22469.039366
2 Jan 2020 19:07:55.000,106.851,-83.463,22564.120700
2 Jan 2020 19:08:25.000,106.991,-82.959,22666.897109
2 Jan 2020 19:08:55.000,107.101,-82.467,22777.171924
2 Jan 2020 19:09:25.000,107.185,-81.989,22894.737549
2 Jan 2020 19:09:55.000,107.249,-81.524,23019.376731
2 Jan 2020 19:10:25.000,107.294,-81.074,23150.862613
2 Jan 2020 19:10:55.000,107.323,-80.639,23288.961188
2 Jan 2020 19:11:25.000,107.339,-80.220,23433.431363
2 Jan 2020 19:11:55.000,107.341,-79.816,23584.026170
2 Jan 2020 19:12:25.000,107.333,-79.429,23740.493718
2 Jan 2020 19:12:55.000,107.313,-79.058,23902.578415
2 Jan 2020 19:13:25.000,107.284,-78.703,24070.020615
2 Jan 2020 19:13:55.000,107.246,-78.366,24242.559273
2 Jan 2020 19:14:25.000,107.199,-78.045,24419.931515
2 Jan 2020 19:14:55.000,107.144,-77.742,24601.873669
2 Jan 2020 19:15:25.000,107.081,-77.455,24788.121941
2 Jan 2020 19:15:55.000,107.010,-77.186,24978.413046
2 Jan 2020 19:16:25.000,106.931,-76.933,25172.484776
2 Jan 2020 19:16:55.000,106.845,-76.698,25370.076866
2 Jan 2020 19:17:25.000,106.752,-76.479,25570.930124
2 Jan 2020 19:17:55.000,106.651,-76.277,25774.788862
2 Jan 2020 19:18:25.000,106.544,-76.092,25981.399949
2 Jan 2020 19:18:43.582,106.473,-75.985,26110.643738
2 Jan 2020 20:35:50.966,253.673,-75.993,26117.331162
2 Jan 2020 20:36:20.000,252.103,-76.094,25995.132708
2 Jan 2020 20:36:50.000,250.434,-76.200,25873.403330
2 Jan 2020 20:37:20.000,248.716,-76.309,25756.434777
2 Jan 2020 20:37:50.000,246.949,-76.418,25644.377465
2 Jan 2020 20:38:20.000,245.132,-76.529,25537.376035
2 Jan 2020 20:38:50.000,243.264,-76.639,25435.568885
2 Jan 2020 20:39:20.000,241.344,-76.748,25339.087500
2 Jan 2020 20:39:50.000,239.374,-76.856,25248.056803
2 Jan 2020 20:40:20.000,237.352,-76.961,25162.593485
2 Jan 2020 20:40:50.000,235.281,-77.063,25082.806399
2 Jan 2020 20:41:20.000,233.160,-77.160,25008.795933
2 Jan 2020 20:41:50.000,230.992,-77.253,24940.653629
2 Jan 2020 20:42:20.000,228.779,-77.340,24878.461658
2 Jan 2020 20:42:50.000,226.522,-77.421,24822.293103
2 Jan 2020 20:43:20.000,224.225,-77.495,24772.210724
2 Jan 2020 20:43:50.000,221.891,-77.561,24728.267320
2 Jan 2020 20:44:20.000,219.524,-77.618,24690.505347
2 Jan 2020 20:44:50.000,217.128,-77.667,24658.956645
2 Jan 2020 20:45:20.000,214.708,-77.707,24633.642636
2 Jan 2020 20:45:50.000,212.269,-77.737,24614.573705
2 Jan 2020 20:46:20.000,209.816,-77.758,24601.749504
2 Jan 2020 20:46:50.000,207.355,-77.768,24595.158859
2 Jan 2020 20:47:20.000,204.889,-77.769,24594.779779
2 Jan 2020 20:47:50.000,202.426,-77.759,24600.579683
2 Jan 2020 20:48:20.000,199.971,-77.740,24612.515316
2 Jan 2020 20:48:50.000,197.528,-77.711,24630.533088
2 Jan 2020 20:49:20.000,195.102,-77.673,24654.569253
2 Jan 2020 20:49:50.000,192.698,-77.626,24684.550192
2 Jan 2020 20:50:20.000,190.321,-77.571,24720.392661
2 Jan 2020 20:50:50.000,187.973,-77.508,24762.004198
2 Jan 2020 20:51:20.000,185.658,-77.438,24809.283457
2 Jan 2020 20:51:50.000,183.379,-77.361,24862.120616
2 Jan 2020 20:52:20.000,181.139,-77.279,24920.397800
2 Jan 2020 20:52:50.000,178.938,-77.191,24983.989608
2 Jan 2020 20:53:20.000,176.780,-77.099,25052.763274
2 Jan 2020 20:53:50.000,174.663,-77.004,25126.579585
2 Jan 2020 20:54:20.000,172.590,-76.905,25205.293084
2 Jan 2020 20:54:50.000,170.561,-76.804,25288.752638
2 Jan 2020 20:55:20.000,168.574,-76.702,25376.801931
2 Jan 2020 20:55:50.000,166.631,-76.598,25469.279970
2 Jan 2020 20:56:20.000,164.729,-76.495,25566.021702
2 Jan 2020 20:56:50.000,162.869,-76.392,25666.857994
2 Jan 2020 20:57:20.000,161.049,-76.290,25771.616872
2 Jan 2020 20:57:50.000,159.269,-76.190,25880.123490
2 Jan 2020 20:58:20.000,157.526,-76.092,25992.200710
2 Jan 2020 20:58:50.000,155.819,-75.996,26107.669543
2 Jan 2020 20:58:52.421,155.683,-75.989,26117.129922
3 Jan 2020 01:14:19.820,61.252,-75.991,26116.902316
3 Jan 2020 01:14:49.000,60.514,-76.149,25928.298243
3 Jan 2020 01:15:19.000,59.736,-76.326,25736.833522
3 Jan 2020 01:15:49.000,58.935,-76.516,25548.079111
3 Jan 2020 01:16:19.000,58.108,-76.721,25362.278620
3 Jan 2020 01:16:49.000,57.252,-76.939,25179.678191
3 Jan 2020 01:17:19.000,56.364,-77.171,25000.526103
3 Jan 2020 01:17:49.000,55.438,-77.417,24825.072348
3 Jan 2020 01:18:19.000,54.471,-77.677,24653.568150
3 Jan 2020 01:18:49.000,53.457,-77.950,24486.265187
3 Jan 2020 01:19:19.000,52.390,-78.235,24323.416066
3 Jan 2020 01:19:49.000,51.264,-78.534,24165.272136
3 Jan 2020 01:20:19.000,50.070,-78.844,24012.083887
3 Jan 2020 01:20:49.000,48.800,-79.165,23864.099978
3 Jan 2020 01:21:19.000,47.444,-79.497,23721.566490
3 Jan 2020 01:21:49.000,45.990,-79.839,23584.725922
3 Jan 2020 01:22:19.000,44.425,-80.190,23453.817250
3 Jan 2020 01:22:49.000,42.732,-80.547,23329.073720
3 Jan 2020 01:23:19.000,40.894,-80.911,23210.722869
3 Jan 2020 01:23:49.000,38.890,-81.279,23098.985385
3 Jan 2020 01:24:19.000,36.697,-81.649,22994.074016
3 Jan 2020 01:24:49.000,34.286,-82.018,22896.193302
3 Jan 2020 01:25:19.000,31.627,-82.385,22805.537619
3 Jan 2020 01:25:49.000,28.686,-82.746,22722.290939
3 Jan 2020 01:26:19.000,25.423,-83.097,22646.625653
3 Jan 2020 01:26:49.000,21.802,-83.433,22578.702096
3 Jan 2020 01:27:19.000,17.782,-83.751,22518.667070
3 Jan 2020 01:27:49.000,13.332,-84.043,22466.653483
3 Jan 2020 01:28:19.000,8.430,-84.305,22422.779455
3 Jan 2020 01:28:49.000,3.076,-84.528,22387.147865
3 Jan 2020 01:29:19.000,357.299,-84.707,22359.845414
3 Jan 2020 01:29:49.000,351.166,-84.835,22340.942363
3 Jan 2020 01:30:19.000,344.781,-84.908,22330.492066
3 Jan 2020 01:30:49.000,338.284,-84.922,22328.530645
3 Jan 2020 01:31:19.000,331.829,-84.876,22335.076768
3 Jan 2020 01:31:49.000,325.565,-84.773,22350.131570
3 Jan 2020 01:32:19.000,319.616,-84.616,22373.678708
3 Jan 2020 01:32:49.000,314.069,-84.411,22405.684221
3 Jan 2020 01:33:19.000,308.971,-84.165,22446.097104
3 Jan 2020 01:33:49.000,304.337,-83.884,22494.849400
3 Jan 2020 01:34:19.000,300.153,-83.574,22551.856788
3 Jan 2020 01:34:49.000,296.393,-83.242,22617.018616
3 Jan 2020 01:35:19.000,293.020,-82.893,22690.219184
3 Jan 2020 01:35:49.000,289.995,-82.532,22771.327958
3 Jan 2020 01:36:19.000,287.280,-82.163,22860.200580
3 Jan 2020 01:36:49.000,284.839,-81.789,22956.678998
3 Jan 2020 01:37:19.000,282.638,-81.413,23060.593266
3 Jan 2020 01:37:49.000,280.650,-81.038,23171.761785
3 Jan 2020 01:38:19.000,278.847,-80.667,23289.992356
3 Jan 2020 01:38:49.000,277.207,-80.300,23415.083342
3 Jan 2020 01:39:19.000,275.713,-79.940,23546.823597
3 Jan 2020 01:39:49.000,274.346,-79.589,23684.994857
3 Jan 2020 01:40:19.000,273.092,-79.247,23829.371685
3 Jan 2020 01:40:49.000,271.939,-78.915,23979.722599
3 Jan 2020 01:41:19.000,270.876,-78.594,24135.810943
3 Jan 2020 01:41:49.000,269.894,-78.286,24297.396040
3 Jan 2020 01:42:19.000,268.985,-77.990,24464.232764
3 Jan 2020 01:42:49.000,268.140,-77.707,24636.074148
3 Jan 2020 01:43:19.000,267.356,-77.438,24812.670901
3 Jan 2020 01:43:49.000,266.625,-77.183,24993.772390
3 Jan 2020 01:44:19.000,265.943,-76.943,25179.127292
3 Jan 2020 01:44:49.000,265.306,-76.717,25368.484184
3 Jan 2020 01:45:19.000,264.710,-76.505,25561.592100
3 Jan 2020 01:45:49.000,264.152,-76.309,25758.201380
3 Jan 2020 01:46:19.000,263.629,-76.127,25958.062778
3 Jan 2020 01:46:42.449,263.242,-75.995,26116.383284
3 Jan 2020 03:01:54.502,93.379,-75.987,26109.638877
3 Jan 2020 03:02:24.000,94.455,-76.132,25936.528067
3 Jan 2020 03:02:54.000,95.598,-76.289,25764.223300
3 Jan 2020 03:03:24.000,96.794,-76.455,25595.922071
3 Jan 2020 03:03:54.000,98.047,-76.630,25431.843604
3 Jan 2020 03:04:24.000,99.360,-76.814,25272.205435
3 Jan 2020 03:04:54.000,100.738,-77.005,25117.222869
3 Jan 2020 03:05:24.000,102.183,-77.203,24967.108398
3 Jan 2020 03:05:54.000,103.702,-77.407,24822.070805
3 Jan 2020 03:06:24.000,105.299,-77.617,24682.315714
3 Jan 2020 03:06:54.000,106.977,-77.831,24548.043161
3 Jan 2020 03:07:24.000,108.743,-78.048,24419.448115
3 Jan 2020 03:07:54.000,110.602,-78.268,24296.719499
3 Jan 2020 03:08:24.000,112.558,-78.488,24180.039292
3 Jan 2020 03:08:54.000,114.616,-78.707,24069.582657
3 Jan 2020 03:09:24.000,116.782,-78.924,23965.515988
3 Jan 2020 03:09:54.000,119.058,-79.137,23867.997065
3 Jan 2020 03:10:24.000,121.448,-79.345,23777.174162
3 Jan 2020 03:10:54.000,123.956,-79.546,23693.185214
3 Jan 2020 03:11:24.000,126.582,-79.738,23616.157887
3 Jan 2020 03:11:54.000,129.327,-79.918,23546.207900
3 Jan 2020 03:12:24.000,132.187,-80.086,23483.439191
3 Jan 2020 03:12:54.000,135.160,-80.239,23427.943216
3 Jan 2020 03:13:24.000,138.239,-80.376,23379.798358
3 Jan 2020 03:13:54.000,141.415,-80.494,23339.070014
3 Jan 2020 03:14:24.000,144.676,-80.593,23305.809491
3 Jan 2020 03:14:54.000,148.009,-80.671,23280.054238
3 Jan 2020 03:15:24.000,151.397,-80.727,23261.827464
3 Jan 2020 03:15:54.000,154.823,-80.760,23251.138209
3 Jan 2020 03:16:24.000,158.267,-80.770,23247.980947
3 Jan 2020 03:16:54.000,161.710,-80.757,23252.335842
3 Jan 2020 03:17:24.000,165.133,-80.720,23264.168776
3 Jan 2020 03:17:54.000,168.516,-80.662,23283.431539
3 Jan 2020 03:18:24.000,171.843,-80.581,23310.062022
3 Jan 2020 03:18:54.000,175.098,-80.481,23343.984573
3 Jan 2020 03:19:24.000,178.270,-80.362,23385.110365
3 Jan 2020 03:19:54.000,181.348,-80.226,23433.337904
3 Jan 2020 03:20:24.000,184.324,-80.074,23488.553273
3 Jan 2020 03:20:54.000,187.193,-79.909,23550.631043
3 Jan 2020 03:21:24.000,189.953,-79.731,23619.434637
3 Jan 2020 03:21:54.000,192.602,-79.544,23694.817022
3 Jan 2020 03:22:24.000,195.141,-79.349,23776.621487
3 Jan 2020 03:22:54.000,197.572,-79.147,23864.681868
3 Jan 2020 03:23:24.000,199.899,-78.941,23958.823937
3 Jan 2020 03:23:54.000,202.125,-78.732,24058.865673
3 Jan 2020 03:24:24.000,204.255,-78.521,24164.618095
3 Jan 2020 03:24:54.000,206.293,-78.309,24275.885987
3 Jan 2020 03:25:24.000,208.245,-78.099,24392.468790
3 Jan 2020 03:25:54.000,210.115,-77.891,24514.160585
3 Jan 2020 03:26:24.000,211.909,-77.686,24640.751856
3 Jan 2020 03:26:54.000,213.632,-77.485,24772.029450
3 Jan 2020 03:27:24.000,215.288,-77.289,24907.777394
3 Jan 2020 03:27:54.000,216.883,-77.099,25047.777518
3 Jan 2020 03:28:24.000,218.421,-76.915,25191.810044
3 Jan 2020 03:28:54.000,219.905,-76.738,25339.654143
3 Jan 2020 03:29:24.000,221.341,-76.569,25491.088707
3 Jan 2020 03:29:54.000,222.731,-76.408,25645.891890
3 Jan 2020 03:30:24.000,224.080,-76.256,25803.842991
3 Jan 2020 03:30:54.000,225.390,-76.112,25964.721945
3 Jan 2020 03:31:20.564,226.521,-75.992,26109.441444
3 Jan 2020 07:44:24.199,313.179,-75.986,26105.863356
3 Jan 2020 07:44:54.000,314.440,-76.122,25942.999484
3 Jan 2020 07:45:24.000,315.745,-76.267,25781.763629
3 Jan 2020 07:45:54.000,317.089,-76.422,25623.469327
3 Jan 2020 07:46:24.000,318.474,-76.584,25468.336999
3 Jan 2020 07:46:54.000,319.905,-76.755,25316.587930
3 Jan 2020 07:47:24.000,321.385,-76.933,25168.443843
3 Jan 2020 07:47:54.000,322.918,-77.119,25024.126428
3 Jan 2020 07:48:24.000,324.509,-77.311,24883.856850
3 Jan 2020 07:48:54.000,326.162,-77.509,24747.855018
3 Jan 2020 07:49:24.000,327.882,-77.712,24616.339831
3 Jan 2020 07:49:54.000,329.673,-77.919,24489.527361
3 Jan 2020 07:50:24.000,331.542,-78.129,24367.631056
3 Jan 2020 07:50:54.000,333.493,-78.342,24250.860888
3 Jan 2020 07:51:24.000,335.532,-78.556,24139.422679
3 Jan 2020 07:51:54.000,337.662,-78.769,24033.517267
3 Jan 2020 07:52:24.000,339.891,-78.981,23933.340395
3 Jan 2020 07:52:54.000,342.222,-79.189,23839.081084
3 Jan 2020 07:53:24.000,344.659,-79.393,23750.921523
3 Jan 2020 07:53:54.000,347.205,-79.591,23669.036190
3 Jan 2020 07:54:24.000,349.863,-79.780,23593.591038
3 Jan 2020 07:54:54.000,352.634,-79.959,23524.743169
3 Jan 2020 07:55:24.000,355.516,-80.127,23462.639553
3 Jan 2020 07:55:54.000,358.508,-80.280,23407.416767
3 Jan 2020 07:56:24.000,1.603,-80.418,23359.200256
3 Jan 2020 07:56:54.000,4.794,-80.538,23318.103703
3 Jan 2020 07:57:24.000,8.071,-80.640,23284.228636
3 Jan 2020 07:57:54.000,11.420,-80.721,23257.663670
3 Jan 2020 07:58:24.000,14.827,-80.780,23238.484249
3 Jan 2020 07:58:54.000,18.274,-80.816,23226.752219
3 Jan 2020 07:59:24.000,21.742,-80.830,23222.515548
3 Jan 2020 07:59:54.000,25.211,-80.819,23225.807967
3 Jan 2020 08:00:24.000,28.661,-80.785,23236.648955
3 Jan 2020 08:00:54.000,32.072,-80.728,23255.043560
3 Jan 2020 08:01:24.000,35.426,-80.649,23280.982403
3 Jan 2020 08:01:54.000,38.706,-80.549,23314.441846
3 Jan 2020 08:02:24.000,41.899,-80.428,23355.383716
3 Jan 2020 08:02:54.000,44.992,-80.289,23403.756119
3 Jan 2020 08:03:24.000,47.977,-80.134,23459.493332
3 Jan 2020 08:03:54.000,50.848,-79.964,23522.516250
3 Jan 2020 08:04:24.000,53.600,-79.781,23592.732969
3 Jan 2020 08:04:54.000,56.231,-79.587,23670.038585
3 Jan 2020 08:05:24.000,58.743,-79.384,23754.316700
3 Jan 2020 08:05:54.000,61.135,-79.174,23845.439345
3 Jan 2020 08:06:24.000,63.412,-78.958,23943.267748
3 Jan 2020 08:06:54.000,65.576,-78.738,24047.653176
