STKdata/stk_70fov_4leo/Satellite-MEO_Satellite10207-To-Satellite-LEO_Satellite10000 AER.csv

"Time (UTCG)","Azimuth (deg)","Elevation (deg)","Range (km)"
1 Jan 2020 00:28:11.990,315.545,-75.986,26105.534057
1 Jan 2020 00:28:41.000,313.617,-76.046,26031.962286
1 Jan 2020 00:29:11.000,311.593,-76.106,25961.097670
1 Jan 2020 00:29:41.000,309.538,-76.163,25895.670009
1 Jan 2020 00:30:11.000,307.455,-76.217,25835.803554
1 Jan 2020 00:30:41.000,305.344,-76.267,25781.613960
1 Jan 2020 00:31:11.000,303.208,-76.313,25733.207785
1 Jan 2020 00:31:41.000,301.050,-76.354,25690.682306
1 Jan 2020 00:32:11.000,298.870,-76.390,25654.124777
1 Jan 2020 00:32:41.000,296.674,-76.420,25623.612327
1 Jan 2020 00:33:11.000,294.462,-76.445,25599.211575
1 Jan 2020 00:33:41.000,292.239,-76.464,25580.978352
1 Jan 2020 00:34:11.000,290.008,-76.476,25568.957513
1 Jan 2020 00:34:41.000,287.772,-76.482,25563.182662
1 Jan 2020 00:35:11.000,285.534,-76.481,25563.676081
1 Jan 2020 00:35:41.000,283.299,-76.474,25570.448617
1 Jan 2020 00:36:11.000,281.070,-76.460,25583.499672
1 Jan 2020 00:36:41.000,278.850,-76.441,25602.817077
1 Jan 2020 00:37:11.000,276.643,-76.415,25628.377334
1 Jan 2020 00:37:41.000,274.452,-76.383,25660.145603
1 Jan 2020 00:38:11.000,272.280,-76.345,25698.075880
1 Jan 2020 00:38:41.000,270.130,-76.302,25742.111279
1 Jan 2020 00:39:11.000,268.004,-76.255,25792.183953
1 Jan 2020 00:39:41.000,265.905,-76.203,25848.215841
1 Jan 2020 00:40:11.000,263.835,-76.148,25910.118686
1 Jan 2020 00:40:41.000,261.796,-76.089,25977.794467
1 Jan 2020 00:41:11.000,259.788,-76.028,26051.135790
1 Jan 2020 00:41:31.811,258.416,-75.984,26105.279830
1 Jan 2020 01:57:29.977,23.192,-75.993,26112.017141
1 Jan 2020 01:57:59.000,22.049,-76.140,25935.393136
1 Jan 2020 01:58:29.000,20.828,-76.304,25755.985200
1 Jan 2020 01:58:59.000,19.563,-76.479,25580.050962
1 Jan 2020 01:59:29.000,18.251,-76.665,25407.852461
1 Jan 2020 01:59:59.000,16.886,-76.861,25239.652594
1 Jan 2020 02:00:29.000,15.463,-77.066,25075.714551
1 Jan 2020 02:00:59.000,13.978,-77.281,24916.301190
1 Jan 2020 02:01:29.000,12.424,-77.505,24761.674142
1 Jan 2020 02:01:59.000,10.796,-77.736,24612.094016
1 Jan 2020 02:02:29.000,9.087,-77.973,24467.818248
1 Jan 2020 02:02:59.000,7.290,-78.217,24329.101241
1 Jan 2020 02:03:29.000,5.398,-78.465,24196.193279
1 Jan 2020 02:03:59.000,3.402,-78.716,24069.339660
1 Jan 2020 02:04:29.000,1.295,-78.969,23948.779590
1 Jan 2020 02:04:59.000,359.070,-79.221,23834.746042
1 Jan 2020 02:05:29.000,356.717,-79.472,23727.463602
1 Jan 2020 02:05:59.000,354.230,-79.719,23627.148322
1 Jan 2020 02:06:29.000,351.601,-79.959,23534.006548
1 Jan 2020 02:06:59.000,348.824,-80.192,23448.233834
1 Jan 2020 02:07:29.000,345.896,-80.413,23370.014526
1 Jan 2020 02:07:59.000,342.813,-80.621,23299.520031
1 Jan 2020 02:08:29.000,339.578,-80.813,23236.908495
1 Jan 2020 02:08:59.000,336.194,-80.986,23182.323757
1 Jan 2020 02:09:29.000,332.670,-81.138,23135.894838
1 Jan 2020 02:09:59.000,329.019,-81.266,23097.734812
1 Jan 2020 02:10:29.000,325.259,-81.368,23067.940461
1 Jan 2020 02:10:59.000,321.412,-81.442,23046.591637
1 Jan 2020 02:11:29.000,317.505,-81.487,23033.750853
1 Jan 2020 02:11:59.000,313.567,-81.502,23029.462828
1 Jan 2020 02:12:29.000,309.630,-81.487,23033.754308
1 Jan 2020 02:12:59.000,305.725,-81.441,23046.633943
1 Jan 2020 02:13:29.000,301.881,-81.366,23068.092061
1 Jan 2020 02:13:59.000,298.126,-81.263,23098.101000
1 Jan 2020 02:14:29.000,294.483,-81.134,23136.615128
1 Jan 2020 02:14:59.000,290.971,-80.980,23183.571270
1 Jan 2020 02:15:29.000,287.602,-80.805,23238.888683
1 Jan 2020 02:15:59.000,284.388,-80.610,23302.470140
1 Jan 2020 02:16:29.000,281.331,-80.399,23374.202116
1 Jan 2020 02:16:59.000,278.435,-80.173,23453.955686
1 Jan 2020 02:17:29.000,275.697,-79.937,23541.586646
1 Jan 2020 02:17:59.000,273.114,-79.691,23636.937190
1 Jan 2020 02:18:29.000,270.680,-79.439,23739.836163
1 Jan 2020 02:18:59.000,268.387,-79.183,23850.100090
1 Jan 2020 02:19:29.000,266.229,-78.925,23967.534325
1 Jan 2020 02:19:59.000,264.198,-78.667,24091.933029
1 Jan 2020 02:20:29.000,262.285,-78.410,24223.081532
1 Jan 2020 02:20:59.000,260.483,-78.156,24360.756344
1 Jan 2020 02:21:29.000,258.784,-77.907,24504.726329
1 Jan 2020 02:21:59.000,257.181,-77.664,24654.753885
1 Jan 2020 02:22:29.000,255.667,-77.428,24810.594847
1 Jan 2020 02:22:59.000,254.235,-77.200,24972.000853
1 Jan 2020 02:23:29.000,252.879,-76.981,25138.719214
1 Jan 2020 02:23:59.000,251.594,-76.772,25310.493963
1 Jan 2020 02:24:29.000,250.375,-76.573,25487.066627
1 Jan 2020 02:24:59.000,249.216,-76.385,25668.176957
1 Jan 2020 02:25:29.000,248.113,-76.209,25853.563931
1 Jan 2020 02:25:59.000,247.062,-76.044,26042.965124
1 Jan 2020 02:26:09.810,246.695,-75.988,26112.144333
1 Jan 2020 03:37:35.881,56.068,-75.996,26118.613803
1 Jan 2020 03:38:05.000,56.301,-76.174,25908.239073
1 Jan 2020 03:38:35.000,56.562,-76.373,25694.533872
1 Jan 2020 03:39:05.000,56.846,-76.591,25484.189063
1 Jan 2020 03:39:35.000,57.156,-76.826,25277.492082
1 Jan 2020 03:40:05.000,57.492,-77.080,25074.732979
1 Jan 2020 03:40:35.000,57.859,-77.351,24876.203876
1 Jan 2020 03:41:05.000,58.260,-77.639,24682.198380
1 Jan 2020 03:41:35.000,58.697,-77.946,24493.010620
1 Jan 2020 03:42:05.000,59.176,-78.269,24308.935769
1 Jan 2020 03:42:35.000,59.701,-78.610,24130.267389
1 Jan 2020 03:43:05.000,60.278,-78.968,23957.297842
1 Jan 2020 03:43:35.000,60.914,-79.343,23790.317063
1 Jan 2020 03:44:05.000,61.617,-79.733,23629.611344
1 Jan 2020 03:44:35.000,62.399,-80.139,23475.463328
1 Jan 2020 03:45:05.000,63.270,-80.559,23328.149377
1 Jan 2020 03:45:35.000,64.247,-80.994,23187.939494
1 Jan 2020 03:46:05.000,65.348,-81.441,23055.095895
1 Jan 2020 03:46:35.000,66.597,-81.899,22929.871576
1 Jan 2020 03:47:05.000,68.022,-82.367,22812.510070
1 Jan 2020 03:47:35.000,69.663,-82.844,22703.242739
1 Jan 2020 03:48:05.000,71.569,-83.327,22602.288562
1 Jan 2020 03:48:35.000,73.802,-83.813,22509.852514
1 Jan 2020 03:49:05.000,76.447,-84.299,22426.125055
1 Jan 2020 03:49:35.000,79.616,-84.781,22351.279999
1 Jan 2020 03:50:05.000,83.455,-85.252,22285.474136
1 Jan 2020 03:50:35.000,88.158,-85.705,22228.845970
1 Jan 2020 03:51:05.000,93.967,-86.129,22181.515267
1 Jan 2020 03:51:35.000,101.158,-86.510,22143.581579
1 Jan 2020 03:52:05.000,109.978,-86.828,22115.124052
1 Jan 2020 03:52:35.000,120.492,-87.060,22096.200724
1 Jan 2020 03:53:05.000,132.360,-87.182,22086.848289
1 Jan 2020 03:53:35.000,144.740,-87.178,22087.081564
1 Jan 2020 03:54:05.000,156.556,-87.051,22096.893581
1 Jan 2020 03:54:35.000,166.991,-86.814,22116.255616
1 Jan 2020 03:55:05.000,175.733,-86.493,22145.117241
1 Jan 2020 03:55:35.000,182.863,-86.110,22183.406844
1 Jan 2020 03:56:05.000,188.633,-85.685,22231.032010
1 Jan 2020 03:56:35.000,193.319,-85.232,22287.880266
1 Jan 2020 03:57:05.000,197.159,-84.762,22353.819402
1 Jan 2020 03:57:35.000,200.345,-84.281,22428.698919
1 Jan 2020 03:58:05.000,203.022,-83.797,22512.350599
1 Jan 2020 03:58:35.000,205.298,-83.313,22604.589792
1 Jan 2020 03:59:05.000,207.257,-82.833,22705.215879
1 Jan 2020 03:59:35.000,208.961,-82.359,22814.014366
1 Jan 2020 04:00:05.000,210.459,-81.893,22930.757472
1 Jan 2020 04:00:35.000,211.789,-81.438,23055.205691
1 Jan 2020 04:01:05.000,212.979,-80.994,23187.108252
1 Jan 2020 04:01:35.000,214.054,-80.563,23326.205492
1 Jan 2020 04:02:05.000,215.031,-80.145,23472.229312
1 Jan 2020 04:02:35.000,215.925,-79.743,23624.904553
1 Jan 2020 04:03:05.000,216.750,-79.355,23783.950413
1 Jan 2020 04:03:35.000,217.515,-78.983,23949.080501
1 Jan 2020 04:04:05.000,218.229,-78.628,24120.005456
1 Jan 2020 04:04:35.000,218.899,-78.290,24296.432920
1 Jan 2020 04:05:05.000,219.530,-77.968,24478.068735
1 Jan 2020 04:05:35.000,220.129,-77.664,24664.617823
1 Jan 2020 04:06:05.000,220.699,-77.377,24855.785000
1 Jan 2020 04:06:35.000,221.243,-77.108,25051.276061
1 Jan 2020 04:07:05.000,221.766,-76.856,25250.797151
1 Jan 2020 04:07:35.000,222.271,-76.621,25454.057349
1 Jan 2020 04:08:05.000,222.759,-76.404,25660.767932
1 Jan 2020 04:08:35.000,223.233,-76.204,25870.643202
1 Jan 2020 04:09:05.000,223.695,-76.021,26083.400928
1 Jan 2020 04:09:09.974,223.771,-75.993,26118.933956
1 Jan 2020 05:21:55.226,73.591,-75.998,26122.425079
1 Jan 2020 05:22:25.000,75.167,-76.117,25978.090176
1 Jan 2020 05:22:55.000,76.809,-76.242,25837.458937
1 Jan 2020 05:23:25.000,78.506,-76.371,25701.851958
1 Jan 2020 05:23:55.000,80.262,-76.504,25571.474167
1 Jan 2020 05:24:25.000,82.078,-76.638,25446.525130
1 Jan 2020 05:24:55.000,83.956,-76.774,25327.198185
1 Jan 2020 05:25:25.000,85.897,-76.910,25213.680537
1 Jan 2020 05:25:55.000,87.903,-77.045,25106.151399
1 Jan 2020 05:26:25.000,89.974,-77.179,25004.782095
1 Jan 2020 05:26:55.000,92.110,-77.310,24909.735186
1 Jan 2020 05:27:25.000,94.312,-77.437,24821.163641
1 Jan 2020 05:27:55.000,96.579,-77.559,24739.210827
1 Jan 2020 05:28:25.000,98.909,-77.675,24664.008912
1 Jan 2020 05:28:55.000,101.300,-77.784,24595.678927
1 Jan 2020 05:29:25.000,103.749,-77.884,24534.330041
1 Jan 2020 05:29:55.000,106.252,-77.975,24480.058931
1 Jan 2020 05:30:25.000,108.805,-78.056,24432.949777
1 Jan 2020 05:30:55.000,111.402,-78.126,24393.073136
1 Jan 2020 05:31:25.000,114.038,-78.184,24360.486073
1 Jan 2020 05:31:55.000,116.704,-78.230,24335.231745
1 Jan 2020 05:32:25.000,119.395,-78.262,24317.339125
1 Jan 2020 05:32:55.000,122.102,-78.282,24306.823063
1 Jan 2020 05:33:25.000,124.817,-78.287,24303.683856
1 Jan 2020 05:33:55.000,127.532,-78.280,24307.907485
1 Jan 2020 05:34:25.000,130.238,-78.259,24319.465608
1 Jan 2020 05:34:55.000,132.928,-78.224,24338.315715
1 Jan 2020 05:35:25.000,135.594,-78.177,24364.401286
1 Jan 2020 05:35:55.000,138.229,-78.118,24397.652118
1 Jan 2020 05:36:25.000,140.827,-78.048,24437.984641
1 Jan 2020 05:36:55.000,143.381,-77.966,24485.302327
1 Jan 2020 05:37:25.000,145.888,-77.876,24539.496222
1 Jan 2020 05:37:55.000,148.343,-77.776,24600.445166
1 Jan 2020 05:38:25.000,150.743,-77.669,24668.016765
1 Jan 2020 05:38:55.000,153.085,-77.555,24742.067722
1 Jan 2020 05:39:25.000,155.368,-77.435,24822.444530
1 Jan 2020 05:39:55.000,157.591,-77.311,24908.984244
1 Jan 2020 05:40:25.000,159.753,-77.183,25001.514701
1 Jan 2020 05:40:55.000,161.855,-77.053,25099.855885
1 Jan 2020 05:41:25.000,163.897,-76.922,25203.820188
1 Jan 2020 05:41:55.000,165.881,-76.790,25313.213221
1 Jan 2020 05:42:25.000,167.808,-76.658,25427.834515
1 Jan 2020 05:42:55.000,169.679,-76.528,25547.478385
1 Jan 2020 05:43:25.000,171.497,-76.401,25671.933938
1 Jan 2020 05:43:55.000,173.263,-76.276,25800.986737
1 Jan 2020 05:44:25.000,174.981,-76.155,25934.418789
1 Jan 2020 05:44:55.000,176.651,-76.038,26072.009332
1 Jan 2020 05:45:05.789,177.240,-75.997,26122.464740
1 Jan 2020 07:03:19.578,68.520,-75.995,26120.905187
1 Jan 2020 07:03:49.000,70.548,-76.034,26073.841432
1 Jan 2020 07:04:19.000,72.636,-76.069,26031.494119
1 Jan 2020 07:04:49.000,74.742,-76.100,25994.918818
1 Jan 2020 07:05:19.000,76.864,-76.126,25964.182918
1 Jan 2020 07:05:49.000,78.999,-76.148,25939.343673
1 Jan 2020 07:06:19.000,81.145,-76.165,25920.447957
1 Jan 2020 07:06:49.000,83.299,-76.176,25907.532161
1 Jan 2020 07:07:19.000,85.457,-76.182,25900.621892
1 Jan 2020 07:07:49.000,87.617,-76.183,25899.731980
1 Jan 2020 07:08:19.000,89.777,-76.179,25904.866385
1 Jan 2020 07:08:49.000,91.932,-76.169,25916.018205
1 Jan 2020 07:09:19.000,94.080,-76.154,25933.169620
1 Jan 2020 07:09:49.000,96.219,-76.134,25956.292078
1 Jan 2020 07:10:19.000,98.345,-76.109,25985.346348
1 Jan 2020 07:10:49.000,100.455,-76.079,26020.282693
1 Jan 2020 07:11:19.000,102.548,-76.045,26061.041072
1 Jan 2020 07:11:49.000,104.622,-76.008,26107.551463
1 Jan 2020 07:11:57.084,105.177,-75.997,26121.058447
1 Jan 2020 08:29:56.399,353.864,-75.988,26114.910648
1 Jan 2020 08:30:26.000,355.369,-76.114,25963.310115
1 Jan 2020 08:30:56.000,356.940,-76.248,25813.410519
1 Jan 2020 08:31:26.000,358.560,-76.389,25667.515286
1 Jan 2020 08:31:56.000,0.232,-76.534,25525.859437
1 Jan 2020 08:32:26.000,1.959,-76.685,25388.676242
1 Jan 2020 08:32:56.000,3.745,-76.840,25256.196595
1 Jan 2020 08:33:26.000,5.593,-76.997,25128.648352
1 Jan 2020 08:33:56.000,7.505,-77.158,25006.255455
1 Jan 2020 08:34:26.000,9.485,-77.319,24889.237979
1 Jan 2020 08:34:56.000,11.534,-77.481,24777.810241
1 Jan 2020 08:35:26.000,13.657,-77.641,24672.180830
1 Jan 2020 08:35:56.000,15.853,-77.800,24572.551638
1 Jan 2020 08:36:26.000,18.125,-77.955,24479.116977
1 Jan 2020 08:36:56.000,20.474,-78.106,24392.063272
1 Jan 2020 08:37:26.000,22.900,-78.250,24311.567570
1 Jan 2020 08:37:56.000,25.401,-78.387,24237.797272
1 Jan 2020 08:38:26.000,27.976,-78.516,24170.909272
1 Jan 2020 08:38:56.000,30.622,-78.634,24111.049164
1 Jan 2020 08:39:26.000,33.334,-78.741,24058.350869
1 Jan 2020 08:39:56.000,36.108,-78.835,24012.935523
1 Jan 2020 08:40:26.000,38.936,-78.915,23974.911209
1 Jan 2020 08:40:56.000,41.810,-78.981,23944.372339
1 Jan 2020 08:41:26.000,44.722,-79.031,23921.399168
1 Jan 2020 08:41:56.000,47.662,-79.065,23906.057433
1 Jan 2020 08:42:26.000,50.618,-79.082,23898.397924
1 Jan 2020 08:42:56.000,53.579,-79.082,23898.456298
1 Jan 2020 08:43:26.000,56.534,-79.065,23906.252914
1 Jan 2020 08:43:56.000,59.472,-79.031,23921.792591
1 Jan 2020 08:44:26.000,62.381,-78.980,23945.064790
1 Jan 2020 08:44:56.000,65.251,-78.914,23976.043558
1 Jan 2020 08:45:26.000,68.073,-78.833,24014.687790
1 Jan 2020 08:45:56.000,70.838,-78.737,24060.941126
1 Jan 2020 08:46:26.000,73.538,-78.628,24114.732735
1 Jan 2020 08:46:56.000,76.169,-78.508,24175.977386
1 Jan 2020 08:47:26.000,78.725,-78.377,24244.575965
1 Jan 2020 08:47:56.000,81.203,-78.236,24320.416148
1 Jan 2020 08:48:26.000,83.601,-78.088,24403.372313
1 Jan 2020 08:48:56.000,85.916,-77.934,24493.307111
1 Jan 2020 08:49:26.000,88.150,-77.775,24590.071495
1 Jan 2020 08:49:56.000,90.302,-77.611,24693.505558
1 Jan 2020 08:50:26.000,92.373,-77.446,24803.439456
1 Jan 2020 08:50:56.000,94.366,-77.280,24919.693335
1 Jan 2020 08:51:26.000,96.281,-77.114,25042.079280
1 Jan 2020 08:51:56.000,98.123,-76.949,25170.401278
1 Jan 2020 08:52:26.000,99.893,-76.786,25304.456172
1 Jan 2020 08:52:56.000,101.594,-76.627,25444.034411
1 Jan 2020 08:53:26.000,103.230,-76.473,25588.921045
1 Jan 2020 08:53:56.000,104.803,-76.323,25738.895422
1 Jan 2020 08:54:26.000,106.317,-76.180,25893.733420
1 Jan 2020 08:54:56.000,107.775,-76.043,26053.207113
1 Jan 2020 08:55:07.402,108.314,-75.993,26114.985086
1 Jan 2020 10:07:18.927,312.066,-75.984,26108.103132
1 Jan 2020 10:07:48.000,312.308,-76.161,25898.065192
1 Jan 2020 10:08:18.000,312.559,-76.361,25684.132570
1 Jan 2020 10:08:48.000,312.814,-76.579,25473.328560
1 Jan 2020 10:09:18.000,313.072,-76.815,25265.940352
1 Jan 2020 10:09:48.000,313.334,-77.070,25062.258345
1 Jan 2020 10:10:18.000,313.603,-77.342,24862.575652
1 Jan 2020 10:10:48.000,313.878,-77.634,24667.187561
1 Jan 2020 10:11:18.000,314.163,-77.943,24476.390916
1 Jan 2020 10:11:48.000,314.458,-78.271,24290.483114
1 Jan 2020 10:12:18.000,314.766,-78.617,24109.762694
1 Jan 2020 10:12:48.000,315.089,-78.982,23934.526521
1 Jan 2020 10:13:18.000,315.430,-79.364,23765.070259
1 Jan 2020 10:13:48.000,315.794,-79.764,23601.687095
1 Jan 2020 10:14:18.000,316.183,-80.181,23444.666495
1 Jan 2020 10:14:48.000,316.604,-80.615,23294.294127
1 Jan 2020 10:15:18.000,317.063,-81.066,23150.849257
1 Jan 2020 10:15:48.000,317.569,-81.532,23014.604596
1 Jan 2020 10:16:18.000,318.132,-82.014,22885.824843
1 Jan 2020 10:16:48.000,318.766,-82.509,22764.765235
1 Jan 2020 10:17:18.000,319.489,-83.019,22651.671207
1 Jan 2020 10:17:48.000,320.327,-83.540,22546.775746
1 Jan 2020 10:18:18.000,321.313,-84.073,22450.299085
1 Jan 2020 10:18:48.000,322.497,-84.616,22362.447088
1 Jan 2020 10:19:18.000,323.951,-85.167,22283.410650
1 Jan 2020 10:19:48.000,325.785,-85.724,22213.363641
1 Jan 2020 10:20:18.000,328.176,-86.284,22152.462455
1 Jan 2020 10:20:48.000,331.423,-86.843,22100.844769
1 Jan 2020 10:21:18.000,336.067,-87.394,22058.629008
1 Jan 2020 10:21:48.000,343.156,-87.925,22025.912995
1 Jan 2020 10:22:18.000,354.818,-88.406,22002.773680
1 Jan 2020 10:22:48.000,14.839,-88.773,21989.266506
1 Jan 2020 10:23:18.000,44.620,-88.900,21985.425090
1 Jan 2020 10:23:48.000,72.890,-88.713,21991.260859
1 Jan 2020 10:24:18.000,90.872,-88.315,22006.763081
1 Jan 2020 10:24:48.000,101.343,-87.820,22031.898969
1 Jan 2020 10:25:18.000,107.793,-87.284,22066.613686
1 Jan 2020 10:25:48.000,112.064,-86.730,22110.831041
1 Jan 2020 10:26:18.000,115.069,-86.169,22164.453821
1 Jan 2020 10:26:48.000,117.287,-85.609,22227.364628
1 Jan 2020 10:27:18.000,118.985,-85.052,22299.426147
1 Jan 2020 10:27:48.000,120.322,-84.502,22380.482786
1 Jan 2020 10:28:18.000,121.400,-83.960,22470.361186
1 Jan 2020 10:28:48.000,122.286,-83.429,22568.871598
1 Jan 2020 10:29:18.000,123.024,-82.908,22675.808294
1 Jan 2020 10:29:48.000,123.646,-82.401,22790.951829
1 Jan 2020 10:30:18.000,124.177,-81.907,22914.069568
1 Jan 2020 10:30:48.000,124.632,-81.428,23044.917322
1 Jan 2020 10:31:18.000,125.026,-80.963,23183.239744
1 Jan 2020 10:31:48.000,125.369,-80.515,23328.772842
1 Jan 2020 10:32:18.000,125.667,-80.084,23481.244371
1 Jan 2020 10:32:48.000,125.928,-79.669,23640.375238
1 Jan 2020 10:33:18.000,126.157,-79.272,23805.880941
1 Jan 2020 10:33:48.000,126.356,-78.893,23977.471551
1 Jan 2020 10:34:18.000,126.531,-78.531,24154.854450
1 Jan 2020 10:34:48.000,126.683,-78.188,24337.734215
1 Jan 2020 10:35:18.000,126.815,-77.864,24525.813833
1 Jan 2020 10:35:48.000,126.929,-77.558,24718.795570
1 Jan 2020 10:36:18.000,127.026,-77.270,24916.381780
1 Jan 2020 10:36:48.000,127.108,-77.001,25118.275988
1 Jan 2020 10:37:18.000,127.175,-76.750,25324.182187
1 Jan 2020 10:37:48.000,127.230,-76.518,25533.807504
1 Jan 2020 10:38:18.000,127.271,-76.304,25746.861388
1 Jan 2020 10:38:48.000,127.302,-76.108,25963.056433
1 Jan 2020 10:39:07.856,127.316,-75.988,26107.735346
1 Jan 2020 11:50:48.621,290.984,-75.982,26103.029774
1 Jan 2020 11:51:18.000,289.790,-76.128,25927.845526
1 Jan 2020 11:51:48.000,288.517,-76.287,25753.106084
1 Jan 2020 11:52:18.000,287.186,-76.456,25582.804851
1 Jan 2020 11:52:48.000,285.794,-76.633,25417.189508
1 Jan 2020 11:53:18.000,284.336,-76.818,25256.505572
1 Jan 2020 11:53:48.000,282.807,-77.011,25100.995708
1 Jan 2020 11:54:18.000,281.204,-77.210,24950.898744
1 Jan 2020 11:54:48.000,279.521,-77.414,24806.449966
1 Jan 2020 11:55:18.000,277.754,-77.623,24667.878736
1 Jan 2020 11:55:48.000,275.897,-77.834,24535.408752
1 Jan 2020 11:56:18.000,273.947,-78.048,24409.256945
1 Jan 2020 11:56:48.000,271.896,-78.261,24289.632423
1 Jan 2020 11:57:18.000,269.743,-78.474,24176.736457
1 Jan 2020 11:57:48.000,267.481,-78.683,24070.760342
1 Jan 2020 11:58:18.000,265.109,-78.889,23971.885408
1 Jan 2020 11:58:48.000,262.623,-79.087,23880.281967
1 Jan 2020 11:59:18.000,260.022,-79.278,23796.108320
1 Jan 2020 11:59:48.000,257.305,-79.458,23719.510683
1 Jan 2020 12:00:18.000,254.475,-79.626,23650.621362
1 Jan 2020 12:00:48.000,251.536,-79.780,23589.558794
1 Jan 2020 12:01:18.000,248.493,-79.918,23536.426621
1 Jan 2020 12:01:48.000,245.355,-80.038,23491.313535
1 Jan 2020 12:02:18.000,242.132,-80.139,23454.292142
1 Jan 2020 12:02:48.000,238.839,-80.219,23425.418982
1 Jan 2020 12:03:18.000,235.490,-80.277,23404.734039
1 Jan 2020 12:03:48.000,232.102,-80.312,23392.260711
1 Jan 2020 12:04:18.000,228.694,-80.324,23388.005326
1 Jan 2020 12:04:48.000,225.286,-80.313,23391.957334
1 Jan 2020 12:05:18.000,221.896,-80.279,23404.089295
1 Jan 2020 12:05:48.000,218.543,-80.222,23424.357022
1 Jan 2020 12:06:18.000,215.243,-80.143,23452.699807
1 Jan 2020 12:06:48.000,212.011,-80.044,23489.040775
1 Jan 2020 12:07:18.000,208.860,-79.927,23533.287352
1 Jan 2020 12:07:48.000,205.802,-79.791,23585.331553
1 Jan 2020 12:08:18.000,202.842,-79.641,23645.050860
1 Jan 2020 12:08:48.000,199.987,-79.476,23712.308675
1 Jan 2020 12:09:18.000,197.241,-79.300,23786.955068
1 Jan 2020 12:09:48.000,194.603,-79.114,23868.827671
1 Jan 2020 12:10:18.000,192.075,-78.920,23957.751943
1 Jan 2020 12:10:48.000,189.654,-78.719,24053.542769
1 Jan 2020 12:11:18.000,187.338,-78.515,24156.004819
1 Jan 2020 12:11:48.000,185.123,-78.308,24264.933532
1 Jan 2020 12:12:18.000,183.004,-78.100,24380.116169
1 Jan 2020 12:12:48.000,180.977,-77.892,24501.332016
1 Jan 2020 12:13:18.000,179.037,-77.686,24628.354240
1 Jan 2020 12:13:48.000,177.179,-77.482,24760.950096
1 Jan 2020 12:14:18.000,175.398,-77.283,24898.881921
1 Jan 2020 12:14:48.000,173.690,-77.089,25041.907935
1 Jan 2020 12:15:18.000,172.048,-76.901,25189.783240
1 Jan 2020 12:15:48.000,170.470,-76.719,25342.259711
1 Jan 2020 12:16:18.000,168.949,-76.545,25499.087966
1 Jan 2020 12:16:48.000,167.483,-76.379,25660.017203
1 Jan 2020 12:17:18.000,166.066,-76.222,25824.796033
1 Jan 2020 12:17:48.000,164.695,-76.074,25993.173070
1 Jan 2020 12:18:07.247,163.839,-75.984,26102.976783
1 Jan 2020 13:35:06.019,281.882,-75.983,26102.709841
1 Jan 2020 13:35:36.000,279.849,-76.032,26041.760517
1 Jan 2020 13:36:06.000,277.787,-76.078,25986.454383
1 Jan 2020 13:36:36.000,275.702,-76.120,25936.922288
1 Jan 2020 13:37:06.000,273.594,-76.159,25893.244367
1 Jan 2020 13:37:36.000,271.467,-76.193,25855.490761
1 Jan 2020 13:38:06.000,269.322,-76.221,25823.721276
1 Jan 2020 13:38:36.000,267.162,-76.245,25797.985365
1 Jan 2020 13:39:06.000,264.991,-76.263,25778.321569
1 Jan 2020 13:39:36.000,262.811,-76.276,25764.757606
1 Jan 2020 13:40:06.000,260.626,-76.283,25757.310183
1 Jan 2020 13:40:36.000,258.438,-76.284,25755.984925
1 Jan 2020 13:41:06.000,256.250,-76.280,25760.776377
1 Jan 2020 13:41:36.000,254.067,-76.269,25771.667968
1 Jan 2020 13:42:06.000,251.891,-76.253,25788.632128
1 Jan 2020 13:42:36.000,249.725,-76.232,25811.630385
1 Jan 2020 13:43:06.000,247.572,-76.205,25840.613564
1 Jan 2020 13:43:36.000,245.434,-76.174,25875.521848
1 Jan 2020 13:44:06.000,243.315,-76.138,25916.285217
1 Jan 2020 13:44:36.000,241.217,-76.097,25962.823608
1 Jan 2020 13:45:06.000,239.141,-76.053,26015.047259
1 Jan 2020 13:45:36.000,237.089,-76.005,26072.857064
1 Jan 2020 13:45:50.414,236.113,-75.981,26102.587839
1 Jan 2020 15:03:43.202,344.699,-75.989,26107.733715
1 Jan 2020 15:04:13.000,342.918,-76.087,25989.335046
1 Jan 2020 15:04:43.000,341.082,-76.187,25874.613508
1 Jan 2020 15:05:13.000,339.201,-76.288,25764.584905
1 Jan 2020 15:05:43.000,337.274,-76.390,25659.442839
1 Jan 2020 15:06:13.000,335.301,-76.492,25559.375859
1 Jan 2020 15:06:43.000,333.281,-76.593,25464.566844
1 Jan 2020 15:07:13.000,331.214,-76.692,25375.192257
1 Jan 2020 15:07:43.000,329.101,-76.789,25291.422012
1 Jan 2020 15:08:13.000,326.941,-76.883,25213.418107
1 Jan 2020 15:08:43.000,324.736,-76.972,25141.334512
1 Jan 2020 15:09:13.000,322.487,-77.056,25075.316446
1 Jan 2020 15:09:43.000,320.197,-77.135,25015.499728
1 Jan 2020 15:10:13.000,317.867,-77.207,24962.010480
1 Jan 2020 15:10:43.000,315.502,-77.272,24914.964187
1 Jan 2020 15:11:13.000,313.105,-77.329,24874.465485
1 Jan 2020 15:11:43.000,310.679,-77.377,24840.607625
1 Jan 2020 15:12:13.000,308.229,-77.416,24813.472044
1 Jan 2020 15:12:43.000,305.760,-77.446,24793.128075
1 Jan 2020 15:13:13.000,303.278,-77.466,24779.632500
1 Jan 2020 15:13:43.000,300.788,-77.475,24773.029386
1 Jan 2020 15:14:13.000,298.296,-77.475,24773.349858
1 Jan 2020 15:14:43.000,295.807,-77.464,24780.611998
1 Jan 2020 15:15:13.000,293.328,-77.443,24794.820616
1 Jan 2020 15:15:43.000,290.864,-77.412,24815.967440
1 Jan 2020 15:16:13.000,288.420,-77.371,24844.031036
1 Jan 2020 15:16:43.000,286.001,-77.321,24878.976946
1 Jan 2020 15:17:13.000,283.613,-77.262,24920.757953
1 Jan 2020 15:17:43.000,281.260,-77.195,24969.313937
1 Jan 2020 15:18:13.000,278.945,-77.121,25024.572700
1 Jan 2020 15:18:43.000,276.672,-77.040,25086.449958
1 Jan 2020 15:19:13.000,274.444,-76.953,25154.849806
1 Jan 2020 15:19:43.000,272.262,-76.860,25229.665294
1 Jan 2020 15:20:13.000,270.130,-76.764,25310.778340
1 Jan 2020 15:20:43.000,268.047,-76.663,25398.061056
1 Jan 2020 15:21:13.000,266.016,-76.561,25491.375747
1 Jan 2020 15:21:43.000,264.036,-76.456,25590.575603
1 Jan 2020 15:22:13.000,262.107,-76.351,25695.505278
1 Jan 2020 15:22:43.000,260.230,-76.245,25806.001694
1 Jan 2020 15:23:13.000,258.403,-76.141,25921.893824
1 Jan 2020 15:23:43.000,256.626,-76.037,26043.004515
1 Jan 2020 15:23:58.484,255.728,-75.985,26107.493535
1 Jan 2020 16:37:34.994,37.922,-75.994,26114.490772
1 Jan 2020 16:38:04.000,37.232,-76.162,25915.264798
1 Jan 2020 16:38:34.000,36.496,-76.350,25712.037911
1 Jan 2020 16:39:04.000,35.734,-76.555,25511.961897
1 Jan 2020 16:39:34.000,34.943,-76.775,25315.316806
1 Jan 2020 16:40:04.000,34.118,-77.011,25122.385376
1 Jan 2020 16:40:34.000,33.257,-77.262,24933.452529
1 Jan 2020 16:41:04.000,32.352,-77.529,24748.804805
1 Jan 2020 16:41:34.000,31.401,-77.811,24568.729741
1 Jan 2020 16:42:04.000,30.395,-78.108,24393.514889
1 Jan 2020 16:42:34.000,29.328,-78.419,24223.448280
1 Jan 2020 16:43:04.000,28.191,-78.744,24058.815797
1 Jan 2020 16:43:34.000,26.976,-79.082,23899.901544
1 Jan 2020 16:44:04.000,25.670,-79.433,23746.986612
1 Jan 2020 16:44:34.000,24.262,-79.795,23600.347899
1 Jan 2020 16:45:04.000,22.736,-80.167,23460.257952
1 Jan 2020 16:45:34.000,21.075,-80.548,23326.982586
1 Jan 2020 16:46:04.000,19.257,-80.937,23200.780666
1 Jan 2020 16:46:34.000,17.260,-81.331,23081.902751
1 Jan 2020 16:47:04.000,15.054,-81.728,22970.589746
1 Jan 2020 16:47:34.000,12.607,-82.126,22867.072519
1 Jan 2020 16:48:04.000,9.881,-82.521,22771.569544
1 Jan 2020 16:48:34.000,6.832,-82.910,22684.286564
1 Jan 2020 16:49:04.000,3.412,-83.288,22605.415143
1 Jan 2020 16:49:34.000,359.570,-83.651,22535.132062
1 Jan 2020 16:50:04.000,355.254,-83.991,22473.597554
1 Jan 2020 16:50:34.000,350.420,-84.303,22420.954850
1 Jan 2020 16:51:04.000,345.039,-84.577,22377.329116
1 Jan 2020 16:51:34.000,339.114,-84.807,22342.826915
1 Jan 2020 16:52:04.000,332.691,-84.983,22317.535136
1 Jan 2020 16:52:34.000,325.871,-85.098,22301.520716
1 Jan 2020 16:53:04.000,318.812,-85.147,22294.830142
1 Jan 2020 16:53:34.000,311.709,-85.127,22297.489129
1 Jan 2020 16:54:04.000,304.767,-85.040,22309.502465
1 Jan 2020 16:54:34.000,298.162,-84.888,22330.854003
1 Jan 2020 16:55:04.000,292.023,-84.680,22361.506848
1 Jan 2020 16:55:34.000,286.421,-84.422,22401.403312
1 Jan 2020 16:56:04.000,281.374,-84.124,22450.465738
1 Jan 2020 16:56:34.000,276.868,-83.792,22508.596743
1 Jan 2020 16:57:04.000,272.863,-83.436,22575.680068
1 Jan 2020 16:57:34.000,269.311,-83.061,22651.580761
1 Jan 2020 16:58:04.000,266.158,-82.673,22736.146840
1 Jan 2020 16:58:34.000,263.356,-82.276,22829.209692
1 Jan 2020 16:59:04.000,260.859,-81.876,22930.585392
1 Jan 2020 16:59:34.000,258.626,-81.474,23040.075018
1 Jan 2020 17:00:04.000,256.622,-81.074,23157.466849
1 Jan 2020 17:00:34.000,254.818,-80.679,23282.536780
1 Jan 2020 17:01:04.000,253.186,-80.290,23415.049647
1 Jan 2020 17:01:34.000,251.705,-79.910,23554.760664
1 Jan 2020 17:02:04.000,250.357,-79.539,23701.415457
1 Jan 2020 17:02:34.000,249.125,-79.180,23854.752839
1 Jan 2020 17:03:04.000,247.996,-78.833,24014.504827
1 Jan 2020 17:03:34.000,246.958,-78.498,24180.397979
1 Jan 2020 17:04:04.000,246.001,-78.178,24352.154414
1 Jan 2020 17:04:34.000,245.116,-77.872,24529.493121
1 Jan 2020 17:05:04.000,244.296,-77.581,24712.129569
1 Jan 2020 17:05:34.000,243.534,-77.305,24899.778529
1 Jan 2020 17:06:04.000,242.824,-77.046,25092.153595
1 Jan 2020 17:06:34.000,242.162,-76.802,25288.968252
1 Jan 2020 17:07:04.000,241.544,-76.574,25489.936568
1 Jan 2020 17:07:34.000,240.965,-76.363,25694.773830
1 Jan 2020 17:08:04.000,240.422,-76.168,25903.197115
1 Jan 2020 17:08:33.981,239.913,-75.990,26114.792526
1 Jan 2020 18:19:49.568,63.543,-75.997,26120.497561
1 Jan 2020 18:20:19.000,64.312,-76.164,25921.487415
1 Jan 2020 18:20:49.000,65.140,-76.349,25722.201630
1 Jan 2020 18:21:19.000,66.014,-76.548,25526.783845
1 Jan 2020 18:21:49.000,66.939,-76.761,25335.508553
1 Jan 2020 18:22:19.000,67.921,-76.988,25148.650837
1 Jan 2020 18:22:49.000,68.964,-77.228,24966.485741
1 Jan 2020 18:23:19.000,70.073,-77.480,24789.287597
1 Jan 2020 18:23:49.000,71.256,-77.745,24617.328967
1 Jan 2020 18:24:19.000,72.520,-78.021,24450.881154
1 Jan 2020 18:24:49.000,73.873,-78.308,24290.211423
1 Jan 2020 18:25:19.000,75.323,-78.604,24135.583424
1 Jan 2020 18:25:49.000,76.881,-78.909,23987.255945
1 Jan 2020 18:26:19.000,78.557,-79.221,23845.481699
1 Jan 2020 18:26:49.000,80.365,-79.538,23710.507316
1 Jan 2020 18:27:19.000,82.317,-79.859,23582.570824
1 Jan 2020 18:27:49.000,84.428,-80.182,23461.901616
1 Jan 2020 18:28:19.000,86.714,-80.505,23348.718959
1 Jan 2020 18:28:49.000,89.192,-80.824,23243.231673
1 Jan 2020 18:29:19.000,91.878,-81.139,23145.635974
1 Jan 2020 18:29:49.000,94.789,-81.444,23056.115204
1 Jan 2020 18:30:19.000,97.943,-81.737,22974.838508
1 Jan 2020 18:30:49.000,101.350,-82.015,22901.960484
1 Jan 2020 18:31:19.000,105.022,-82.272,22837.619382
1 Jan 2020 18:31:49.000,108.960,-82.505,22781.936909
1 Jan 2020 18:32:19.000,113.158,-82.710,22735.017244
1 Jan 2020 18:32:49.000,117.599,-82.882,22696.946776
1 Jan 2020 18:33:19.000,122.253,-83.018,22667.792959
1 Jan 2020 18:33:49.000,127.076,-83.114,22647.604290
1 Jan 2020 18:34:19.000,132.014,-83.168,22636.409858
1 Jan 2020 18:34:49.000,137.003,-83.178,22634.219281
1 Jan 2020 18:35:19.000,141.974,-83.145,22641.022401
1 Jan 2020 18:35:49.000,146.863,-83.069,22656.789510
1 Jan 2020 18:36:19.000,151.608,-82.953,22681.471514
1 Jan 2020 18:36:49.000,156.163,-82.799,22715.000115
1 Jan 2020 18:37:19.000,160.492,-82.611,22757.288385
1 Jan 2020 18:37:49.000,164.572,-82.393,22808.231208
1 Jan 2020 18:38:19.000,168.394,-82.149,22867.706027
1 Jan 2020 18:38:49.000,171.955,-81.884,22935.573210
1 Jan 2020 18:39:19.000,175.264,-81.601,23011.677384
1 Jan 2020 18:39:49.000,178.332,-81.305,23095.847988
1 Jan 2020 18:40:19.000,181.174,-80.999,23187.900434
1 Jan 2020 18:40:49.000,183.807,-80.686,23287.636561
1 Jan 2020 18:41:19.000,186.248,-80.369,23394.846461
1 Jan 2020 18:41:49.000,188.514,-80.051,23509.309019
1 Jan 2020 18:42:19.000,190.621,-79.734,23630.793099
1 Jan 2020 18:42:49.000,192.584,-79.420,23759.058842
1 Jan 2020 18:43:19.000,194.417,-79.110,23893.857862
1 Jan 2020 18:43:49.000,196.134,-78.807,24034.935562
1 Jan 2020 18:44:19.000,197.746,-78.511,24182.031319
1 Jan 2020 18:44:49.000,199.263,-78.224,24334.879674
1 Jan 2020 18:45:19.000,200.695,-77.947,24493.211281
1 Jan 2020 18:45:49.000,202.050,-77.680,24656.754074
1 Jan 2020 18:46:19.000,203.336,-77.425,24825.233073
1 Jan 2020 18:46:49.000,204.560,-77.182,24998.372753
1 Jan 2020 18:47:19.000,205.729,-76.951,25175.896763
1 Jan 2020 18:47:49.000,206.847,-76.733,25357.528880
1 Jan 2020 18:48:19.000,207.919,-76.528,25542.993659
1 Jan 2020 18:48:49.000,208.951,-76.337,25732.017020
1 Jan 2020 18:49:19.000,209.947,-76.159,25924.326794
1 Jan 2020 18:49:49.000,210.909,-75.995,26119.653201
1 Jan 2020 18:49:49.152,210.914,-75.994,26120.649936
1 Jan 2020 20:04:33.119,77.453,-75.997,26122.563311
1 Jan 2020 20:05:03.000,79.334,-76.079,26022.954243
1 Jan 2020 20:05:33.000,81.265,-76.161,25928.331237
1 Jan 2020 20:06:03.000,83.237,-76.241,25839.248629
1 Jan 2020 20:06:33.000,85.250,-76.319,25755.845622
1 Jan 2020 20:07:03.000,87.303,-76.395,25678.252933
1 Jan 2020 20:07:33.000,89.395,-76.467,25606.592164
1 Jan 2020 20:08:03.000,91.524,-76.536,25540.975832
1 Jan 2020 20:08:33.000,93.688,-76.600,25481.506137
1 Jan 2020 20:09:03.000,95.885,-76.659,25428.275067
1 Jan 2020 20:09:33.000,98.112,-76.712,25381.363874
1 Jan 2020 20:10:03.000,100.366,-76.758,25340.842648
1 Jan 2020 20:10:33.000,102.643,-76.798,25306.770322
1 Jan 2020 20:11:03.000,104.941,-76.831,25279.193930
1 Jan 2020 20:11:33.000,107.255,-76.856,25258.148725
1 Jan 2020 20:12:03.000,109.580,-76.874,25243.657932
1 Jan 2020 20:12:33.000,111.914,-76.883,25235.732612
1 Jan 2020 20:13:03.000,114.251,-76.885,25234.371726
1 Jan 2020 20:13:33.000,116.587,-76.879,25239.561943
1 Jan 2020 20:14:03.000,118.917,-76.864,25251.277836
1 Jan 2020 20:14:33.000,121.238,-76.843,25269.481952
1 Jan 2020 20:15:03.000,123.546,-76.813,25294.124999
1 Jan 2020 20:15:33.000,125.836,-76.777,25325.145978
1 Jan 2020 20:16:03.000,128.105,-76.733,25362.472556
1 Jan 2020 20:16:33.000,130.349,-76.684,25406.021319
1 Jan 2020 20:17:03.000,132.567,-76.628,25455.698132
1 Jan 2020 20:17:33.000,134.754,-76.568,25511.398603
1 Jan 2020 20:18:03.000,136.909,-76.503,25573.008252
1 Jan 2020 20:18:33.000,139.031,-76.433,25640.403350
1 Jan 2020 20:19:03.000,141.116,-76.361,25713.451169
1 Jan 2020 20:19:33.000,143.165,-76.285,25792.010545
1 Jan 2020 20:20:03.000,145.177,-76.208,25875.932414
1 Jan 2020 20:20:33.000,147.150,-76.129,25965.060478
1 Jan 2020 20:21:03.000,149.085,-76.049,26059.231270
1 Jan 2020 20:21:22.365,150.314,-75.998,26122.617696
1 Jan 2020 21:38:54.375,40.935,-75.993,26119.024864
1 Jan 2020 21:39:24.000,42.887,-76.058,26039.044871
1 Jan 2020 21:39:54.000,44.896,-76.123,25963.245993
1 Jan 2020 21:40:24.000,46.938,-76.185,25892.812513
1 Jan 2020 21:40:54.000,49.011,-76.244,25827.877577
1 Jan 2020 21:41:24.000,51.113,-76.299,25768.566078
1 Jan 2020 21:41:54.000,53.243,-76.351,25714.994123
1 Jan 2020 21:42:24.000,55.399,-76.398,25667.268839
1 Jan 2020 21:42:54.000,57.578,-76.440,25625.487560
1 Jan 2020 21:43:24.000,59.778,-76.477,25589.737706
1 Jan 2020 21:43:54.000,61.996,-76.508,25560.096359
1 Jan 2020 21:44:24.000,64.228,-76.533,25536.629924
1 Jan 2020 21:44:54.000,66.473,-76.551,25519.393929
1 Jan 2020 21:45:24.000,68.725,-76.563,25508.432667
1 Jan 2020 21:45:54.000,70.981,-76.568,25503.779097
1 Jan 2020 21:46:24.000,73.238,-76.567,25505.454680
1 Jan 2020 21:46:54.000,75.492,-76.558,25513.469321
1 Jan 2020 21:47:24.000,77.740,-76.543,25527.821211
1 Jan 2020 21:47:54.000,79.977,-76.521,25548.496997
1 Jan 2020 21:48:24.000,82.200,-76.493,25575.471746
1 Jan 2020 21:48:54.000,84.406,-76.459,25608.709076
1 Jan 2020 21:49:24.000,86.592,-76.419,25648.161395
1 Jan 2020 21:49:54.000,88.754,-76.374,25693.769804
1 Jan 2020 21:50:24.000,90.890,-76.323,25745.464785
1 Jan 2020 21:50:54.000,92.999,-76.269,25803.166208
1 Jan 2020 21:51:24.000,95.076,-76.210,25866.783736
1 Jan 2020 21:51:54.000,97.122,-76.149,25936.217188
1 Jan 2020 21:52:24.000,99.134,-76.084,26011.357079
1 Jan 2020 21:52:54.000,101.111,-76.017,26092.084489
1 Jan 2020 21:53:03.669,101.740,-75.996,26119.271731
1 Jan 2020 23:08:43.211,334.914,-75.986,26112.451716
1 Jan 2020 23:09:13.000,336.038,-76.141,25928.053042
1 Jan 2020 23:09:43.000,337.208,-76.308,25745.501425
1 Jan 2020 23:10:13.000,338.420,-76.487,25566.374374
1 Jan 2020 23:10:43.000,339.679,-76.678,25390.936200
1 Jan 2020 23:11:13.000,340.989,-76.879,25219.452347
1 Jan 2020 23:11:43.000,342.356,-77.091,25052.188833
1 Jan 2020 23:12:13.000,343.783,-77.313,24889.411635
1 Jan 2020 23:12:43.000,345.279,-77.544,24731.385798
1 Jan 2020 23:13:13.000,346.848,-77.784,24578.375659
1 Jan 2020 23:13:43.000,348.498,-78.032,24430.642674
1 Jan 2020 23:14:13.000,350.236,-78.286,24288.445572
1 Jan 2020 23:14:43.000,352.071,-78.545,24152.039269
1 Jan 2020 23:15:13.000,354.010,-78.809,24021.673986
1 Jan 2020 23:15:43.000,356.062,-79.075,23897.594130
1 Jan 2020 23:16:13.000,358.238,-79.342,23780.038171
1 Jan 2020 23:16:43.000,0.545,-79.608,23669.236424
1 Jan 2020 23:17:13.000,2.995,-79.872,23565.410916
1 Jan 2020 23:17:43.000,5.594,-80.130,23468.774175
1 Jan 2020 23:18:13.000,8.353,-80.380,23379.528119
1 Jan 2020 23:18:43.000,11.277,-80.621,23297.863628
1 Jan 2020 23:19:13.000,14.371,-80.848,23223.958744
1 Jan 2020 23:19:43.000,17.637,-81.060,23157.978332
1 Jan 2020 23:20:13.000,21.073,-81.253,23100.072992
1 Jan 2020 23:20:43.000,24.672,-81.425,23050.378519
1 Jan 2020 23:21:13.000,28.423,-81.572,23009.014701
1 Jan 2020 23:21:43.000,32.308,-81.692,22976.084953
1 Jan 2020 23:22:13.000,36.303,-81.782,22951.675622
1 Jan 2020 23:22:43.000,40.379,-81.842,22935.855557
1 Jan 2020 23:23:13.000,44.503,-81.870,22928.675576
1 Jan 2020 23:23:43.000,48.639,-81.864,22930.168268
1 Jan 2020 23:24:13.000,52.750,-81.826,22940.347826
1 Jan 2020 23:24:43.000,56.800,-81.755,22959.209796
1 Jan 2020 23:25:13.000,60.757,-81.654,22986.731354
1 Jan 2020 23:25:43.000,64.592,-81.523,23022.871314
1 Jan 2020 23:26:13.000,68.284,-81.366,23067.570529
1 Jan 2020 23:26:43.000,71.816,-81.185,23120.751850
1 Jan 2020 23:27:13.000,75.176,-80.983,23182.321187
1 Jan 2020 23:27:43.000,78.360,-80.763,23252.167689
1 Jan 2020 23:28:13.000,81.366,-80.527,23330.164645
1 Jan 2020 23:28:43.000,84.196,-80.279,23416.169598
1 Jan 2020 23:29:13.000,86.856,-80.021,23510.026028
1 Jan 2020 23:29:43.000,89.353,-79.756,23611.563619
1 Jan 2020 23:30:13.000,91.694,-79.486,23720.599297
1 Jan 2020 23:30:43.000,93.890,-79.214,23836.938396
1 Jan 2020 23:31:13.000,95.949,-78.942,23960.374659
1 Jan 2020 23:31:43.000,97.880,-78.671,24090.692615
1 Jan 2020 23:32:13.000,99.693,-78.403,24227.667626
1 Jan 2020 23:32:43.000,101.397,-78.140,24371.067078
1 Jan 2020 23:33:13.000,102.999,-77.883,24520.651594
1 Jan 2020 23:33:43.000,104.508,-77.633,24676.174947
1 Jan 2020 23:34:13.000,105.931,-77.392,24837.386482
1 Jan 2020 23:34:43.000,107.274,-77.159,25004.030994
1 Jan 2020 23:35:13.000,108.543,-76.937,25175.849807
1 Jan 2020 23:35:43.000,109.745,-76.726,25352.581578
1 Jan 2020 23:36:13.000,110.885,-76.526,25533.963046
1 Jan 2020 23:36:43.000,111.966,-76.338,25719.730071
1 Jan 2020 23:37:13.000,112.995,-76.162,25909.616990
1 Jan 2020 23:37:43.000,113.974,-75.999,26103.359178
1 Jan 2020 23:37:44.374,114.017,-75.991,26112.322433
2 Jan 2020 00:49:05.818,302.993,-75.983,26105.877324
2 Jan 2020 00:49:35.000,302.698,-76.160,25895.909435
2 Jan 2020 00:50:05.000,302.371,-76.359,25683.135160
2 Jan 2020 00:50:35.000,302.017,-76.575,25473.764231
2 Jan 2020 00:51:05.000,301.635,-76.809,25268.082879
2 Jan 2020 00:51:35.000,301.221,-77.060,25066.379789
2 Jan 2020 00:52:05.000,300.772,-77.329,24868.945564
2 Jan 2020 00:52:35.000,300.286,-77.615,24676.072121
2 Jan 2020 00:53:05.000,299.757,-77.919,24488.051725
2 Jan 2020 00:53:35.000,299.181,-78.239,24305.177516
2 Jan 2020 00:54:05.000,298.552,-78.576,24127.740839
2 Jan 2020 00:54:35.000,297.863,-78.930,23956.031657
2 Jan 2020 00:55:05.000,297.107,-79.299,23790.337326
2 Jan 2020 00:55:35.000,296.273,-79.683,23630.941374
2 Jan 2020 00:56:05.000,295.352,-80.082,23478.123504
2 Jan 2020 00:56:35.000,294.327,-80.495,23332.156961
2 Jan 2020 00:57:05.000,293.184,-80.920,23193.308463
2 Jan 2020 00:57:35.000,291.901,-81.357,23061.836780
2 Jan 2020 00:58:05.000,290.454,-81.804,22937.991312
2 Jan 2020 00:58:35.000,288.810,-82.259,22822.011856
2 Jan 2020 00:59:05.000,286.931,-82.721,22714.125924
2 Jan 2020 00:59:35.000,284.765,-83.186,22614.548533
2 Jan 2020 01:00:05.000,282.251,-83.651,22523.480617
2 Jan 2020 01:00:35.000,279.308,-84.114,22441.108527
2 Jan 2020 01:01:05.000,275.834,-84.568,22367.601933
2 Jan 2020 01:01:35.000,271.703,-85.007,22303.113466
2 Jan 2020 01:02:05.000,266.763,-85.423,22247.777484
2 Jan 2020 01:02:35.000,260.845,-85.805,22201.709642
2 Jan 2020 01:03:05.000,253.790,-86.140,22165.005453
2 Jan 2020 01:03:35.000,245.506,-86.411,22137.740117
2 Jan 2020 01:04:05.000,236.069,-86.600,22119.967850
2 Jan 2020 01:04:35.000,225.807,-86.692,22111.721668
2 Jan 2020 01:05:05.000,215.299,-86.678,22113.012885
2 Jan 2020 01:05:35.000,205.208,-86.559,22123.831229
2 Jan 2020 01:06:05.000,196.053,-86.346,22144.144883
2 Jan 2020 01:06:35.000,188.089,-86.057,22173.900565
2 Jan 2020 01:07:05.000,181.333,-85.709,22213.024057
2 Jan 2020 01:07:35.000,175.669,-85.318,22261.420605
2 Jan 2020 01:08:05.000,170.929,-84.896,22318.975661
2 Jan 2020 01:08:35.000,166.948,-84.454,22385.555225
2 Jan 2020 01:09:05.000,163.580,-84.000,22461.007285
2 Jan 2020 01:09:35.000,160.706,-83.539,22545.162391
2 Jan 2020 01:10:05.000,158.231,-83.075,22637.834933
2 Jan 2020 01:10:35.000,156.079,-82.614,22738.823609
2 Jan 2020 01:11:05.000,154.192,-82.157,22847.913499
2 Jan 2020 01:11:35.000,152.521,-81.706,22964.876644
2 Jan 2020 01:12:05.000,151.031,-81.265,23089.473601
2 Jan 2020 01:12:35.000,149.691,-80.834,23221.453887
2 Jan 2020 01:13:05.000,148.478,-80.415,23360.558329
2 Jan 2020 01:13:35.000,147.372,-80.008,23506.519511
2 Jan 2020 01:14:05.000,146.357,-79.616,23659.063132
2 Jan 2020 01:14:35.000,145.420,-79.238,23817.909397
2 Jan 2020 01:15:05.000,144.550,-78.875,23982.773077
2 Jan 2020 01:15:35.000,143.738,-78.529,24153.366079
2 Jan 2020 01:16:05.000,142.976,-78.198,24329.397426
2 Jan 2020 01:16:35.000,142.257,-77.884,24510.574428
2 Jan 2020 01:17:05.000,141.576,-77.587,24696.603548
2 Jan 2020 01:17:35.000,140.929,-77.306,24887.191207
2 Jan 2020 01:18:05.000,140.310,-77.043,25082.044843
2 Jan 2020 01:18:35.000,139.717,-76.797,25280.872293
2 Jan 2020 01:19:05.000,139.146,-76.568,25483.384340
2 Jan 2020 01:19:35.000,138.594,-76.356,25689.293979
2 Jan 2020 01:20:05.000,138.058,-76.161,25898.317232
2 Jan 2020 01:20:34.360,137.548,-75.987,26105.625624
2 Jan 2020 02:33:29.176,285.851,-75.982,26102.245100
2 Jan 2020 02:33:59.000,284.231,-76.097,25962.708932
2 Jan 2020 02:34:29.000,282.549,-76.217,25827.227817
2 Jan 2020 02:34:59.000,280.812,-76.341,25696.840769
2 Jan 2020 02:35:29.000,279.019,-76.466,25571.745467
2 Jan 2020 02:35:59.000,277.167,-76.593,25452.133817
2 Jan 2020 02:36:29.000,275.255,-76.721,25338.191111
2 Jan 2020 02:36:59.000,273.283,-76.849,25230.096108
2 Jan 2020 02:37:29.000,271.250,-76.975,25128.019240
2 Jan 2020 02:37:59.000,269.155,-77.099,25032.122711
2 Jan 2020 02:38:29.000,266.999,-77.220,24942.559662
2 Jan 2020 02:38:59.000,264.782,-77.336,24859.473383
2 Jan 2020 02:39:29.000,262.506,-77.447,24782.997303
2 Jan 2020 02:39:59.000,260.173,-77.551,24713.253494
2 Jan 2020 02:40:29.000,257.784,-77.648,24650.352735
2 Jan 2020 02:40:59.000,255.344,-77.737,24594.393845
2 Jan 2020 02:41:29.000,252.857,-77.816,24545.463113
2 Jan 2020 02:41:59.000,250.327,-77.885,24503.634302
2 Jan 2020 02:42:29.000,247.761,-77.943,24468.967644
2 Jan 2020 02:42:59.000,245.163,-77.990,24441.509972
2 Jan 2020 02:43:29.000,242.541,-78.025,24421.294378
2 Jan 2020 02:43:59.000,239.901,-78.047,24408.339993
2 Jan 2020 02:44:29.000,237.252,-78.057,24402.652065
2 Jan 2020 02:44:59.000,234.600,-78.055,24404.221635
2 Jan 2020 02:45:29.000,231.953,-78.039,24413.025779
2 Jan 2020 02:45:59.000,229.318,-78.012,24429.027661
2 Jan 2020 02:46:29.000,226.703,-77.972,24452.176729
2 Jan 2020 02:46:59.000,224.114,-77.921,24482.408885
2 Jan 2020 02:47:29.000,221.556,-77.859,24519.646881
2 Jan 2020 02:47:59.000,219.037,-77.786,24563.800640
2 Jan 2020 02:48:29.000,216.560,-77.704,24614.767685
2 Jan 2020 02:48:59.000,214.129,-77.614,24672.433696
2 Jan 2020 02:49:29.000,211.748,-77.516,24736.672726
2 Jan 2020 02:49:59.000,209.420,-77.411,24807.348198
2 Jan 2020 02:50:29.000,207.146,-77.301,24884.313226
2 Jan 2020 02:50:59.000,204.927,-77.186,24967.411302
2 Jan 2020 02:51:29.000,202.766,-77.068,25056.477066
2 Jan 2020 02:51:59.000,200.660,-76.946,25151.336507
2 Jan 2020 02:52:29.000,198.612,-76.823,25251.808315
2 Jan 2020 02:52:59.000,196.618,-76.699,25357.704124
2 Jan 2020 02:53:29.000,194.679,-76.576,25468.829296
2 Jan 2020 02:53:59.000,192.794,-76.453,25584.983598
2 Jan 2020 02:54:29.000,190.959,-76.332,25705.962038
2 Jan 2020 02:54:59.000,189.175,-76.214,25831.554859
2 Jan 2020 02:55:29.000,187.438,-76.099,25961.549145
2 Jan 2020 02:55:59.000,185.747,-75.987,26095.728801
2 Jan 2020 02:56:00.439,185.667,-75.982,26102.267417
2 Jan 2020 04:14:10.500,294.079,-75.984,26103.993679
2 Jan 2020 04:14:40.000,292.050,-76.024,26055.000386
2 Jan 2020 04:15:10.000,289.966,-76.060,26010.798955
2 Jan 2020 04:15:40.000,287.862,-76.092,25972.348850
2 Jan 2020 04:16:10.000,285.742,-76.120,25939.721906
2 Jan 2020 04:16:40.000,283.608,-76.144,25912.979914
2 Jan 2020 04:17:10.000,281.463,-76.162,25892.174353
2 Jan 2020 04:17:40.000,279.309,-76.175,25877.346282
2 Jan 2020 04:18:10.000,277.149,-76.183,25868.526007
2 Jan 2020 04:18:40.000,274.986,-76.185,25865.733077
2 Jan 2020 04:19:10.000,272.823,-76.182,25868.976170
2 Jan 2020 04:19:40.000,270.664,-76.174,25878.253084
2 Jan 2020 04:20:10.000,268.511,-76.160,25893.550666
2 Jan 2020 04:20:40.000,266.367,-76.141,25914.844971
2 Jan 2020 04:21:10.000,264.235,-76.118,25942.101302
2 Jan 2020 04:21:40.000,262.117,-76.089,25975.274368
2 Jan 2020 04:22:10.000,260.017,-76.056,26014.308466
2 Jan 2020 04:22:40.000,257.936,-76.019,26059.137793
2 Jan 2020 04:23:06.698,256.102,-75.983,26103.844836
2 Jan 2020 05:40:55.174,8.732,-75.991,26110.081238
2 Jan 2020 05:41:25.000,7.257,-76.122,25953.002887
2 Jan 2020 05:41:55.000,5.728,-76.261,25798.683984
2 Jan 2020 05:42:25.000,4.149,-76.406,25648.290185
2 Jan 2020 05:42:55.000,2.518,-76.558,25502.061161
2 Jan 2020 05:43:25.000,0.832,-76.715,25360.235220
2 Jan 2020 05:43:55.000,359.086,-76.877,25223.048677
2 Jan 2020 05:44:25.000,357.277,-77.042,25090.735200
2 Jan 2020 05:44:55.000,355.402,-77.211,24963.524922
2 Jan 2020 05:45:25.000,353.458,-77.382,24841.644505
2 Jan 2020 05:45:55.000,351.441,-77.554,24725.315211
2 Jan 2020 05:46:25.000,349.348,-77.726,24614.752934
2 Jan 2020 05:46:55.000,347.176,-77.897,24510.167218
2 Jan 2020 05:47:25.000,344.924,-78.065,24411.760338
2 Jan 2020 05:47:55.000,342.590,-78.228,24319.727002
2 Jan 2020 05:48:25.000,340.173,-78.386,24234.252788
2 Jan 2020 05:48:55.000,337.672,-78.538,24155.513873
2 Jan 2020 05:49:25.000,335.090,-78.680,24083.676123
2 Jan 2020 05:49:55.000,332.428,-78.813,24018.894258
2 Jan 2020 05:50:25.000,329.690,-78.935,23961.311469
2 Jan 2020 05:50:55.000,326.880,-79.044,23911.058207
2 Jan 2020 05:51:25.000,324.006,-79.138,23868.251902
2 Jan 2020 05:51:55.000,321.075,-79.218,23832.996287
2 Jan 2020 05:52:25.000,318.096,-79.281,23805.380852
2 Jan 2020 05:52:55.000,315.080,-79.327,23785.480468
2 Jan 2020 05:53:25.000,312.039,-79.355,23773.354851
2 Jan 2020 05:53:55.000,308.985,-79.365,23769.048364
2 Jan 2020 05:54:25.000,305.931,-79.357,23772.589790
2 Jan 2020 05:54:55.000,302.889,-79.330,23783.992062
2 Jan 2020 05:55:25.000,299.873,-79.285,23803.252371
2 Jan 2020 05:55:55.000,296.894,-79.223,23830.352092
2 Jan 2020 05:56:25.000,293.964,-79.144,23865.257001
2 Jan 2020 05:56:55.000,291.092,-79.049,23907.917159
2 Jan 2020 05:57:25.000,288.287,-78.940,23958.267641
2 Jan 2020 05:57:55.000,285.556,-78.817,24016.228602
2 Jan 2020 05:58:25.000,282.904,-78.682,24081.705781
2 Jan 2020 05:58:55.000,280.336,-78.537,24154.591157
2 Jan 2020 05:59:25.000,277.855,-78.383,24234.762858
2 Jan 2020 05:59:55.000,275.462,-78.221,24322.086731
2 Jan 2020 06:00:25.000,273.158,-78.053,24416.416374
2 Jan 2020 06:00:55.000,270.943,-77.881,24517.593986
2 Jan 2020 06:01:25.000,268.814,-77.706,24625.451306
2 Jan 2020 06:01:55.000,266.771,-77.529,24739.809545
2 Jan 2020 06:02:25.000,264.810,-77.352,24860.481368
2 Jan 2020 06:02:55.000,262.929,-77.175,24987.270880
2 Jan 2020 06:03:25.000,261.125,-77.001,25119.974596
2 Jan 2020 06:03:55.000,259.395,-76.830,25258.382225
2 Jan 2020 06:04:25.000,257.736,-76.663,25402.277702
2 Jan 2020 06:04:55.000,256.143,-76.501,25551.438882
2 Jan 2020 06:05:25.000,254.614,-76.345,25705.639847
2 Jan 2020 06:05:55.000,253.145,-76.195,25864.650575
2 Jan 2020 06:06:25.000,251.733,-76.053,26028.237879
2 Jan 2020 06:06:39.704,251.060,-75.987,26110.018069
2 Jan 2020 07:18:43.647,49.155,-75.995,26116.921794
2 Jan 2020 07:19:13.000,48.976,-76.175,25904.180819
2 Jan 2020 07:19:43.000,48.793,-76.376,25689.592487
2 Jan 2020 07:20:13.000,48.612,-76.595,25478.156239
2 Jan 2020 07:20:43.000,48.430,-76.832,25270.160268
2 Jan 2020 07:21:13.000,48.249,-77.088,25065.895949
2 Jan 2020 07:21:43.000,48.066,-77.362,24865.657344
2 Jan 2020 07:22:13.000,47.882,-77.655,24669.740648
2 Jan 2020 07:22:43.000,47.695,-77.967,24478.443278
2 Jan 2020 07:23:13.000,47.505,-78.296,24292.064368
2 Jan 2020 07:23:43.000,47.310,-78.645,24110.902244
2 Jan 2020 07:24:13.000,47.109,-79.011,23935.254801
2 Jan 2020 07:24:43.000,46.900,-79.396,23765.418324
2 Jan 2020 07:25:13.000,46.682,-79.799,23601.686536
2 Jan 2020 07:25:43.000,46.452,-80.219,23444.349308
2 Jan 2020 07:26:13.000,46.207,-80.657,23293.692755
2 Jan 2020 07:26:43.000,45.944,-81.111,23149.996346
2 Jan 2020 07:27:13.000,45.658,-81.581,23013.532931
2 Jan 2020 07:27:43.000,45.344,-82.067,22884.567231
2 Jan 2020 07:28:13.000,44.995,-82.568,22763.354374
2 Jan 2020 07:28:43.000,44.599,-83.083,22650.139567
2 Jan 2020 07:29:13.000,44.144,-83.612,22545.155426
2 Jan 2020 07:29:43.000,43.612,-84.152,22448.621676
2 Jan 2020 07:30:13.000,42.974,-84.704,22360.743528
2 Jan 2020 07:30:43.000,42.190,-85.266,22281.711088
2 Jan 2020 07:31:13.000,41.196,-85.837,22211.697288
2 Jan 2020 07:31:43.000,39.886,-86.415,22150.857443
2 Jan 2020 07:32:13.000,38.070,-86.998,22099.328010
2 Jan 2020 07:32:43.000,35.376,-87.582,22057.226068
2 Jan 2020 07:33:13.000,30.964,-88.163,22024.647958
2 Jan 2020 07:33:43.000,22.551,-88.727,22001.669032
2 Jan 2020 07:34:13.000,2.209,-89.226,21988.343017
2 Jan 2020 07:34:43.000,310.803,-89.434,21984.701726
2 Jan 2020 07:35:13.000,267.836,-89.113,21990.754681
2 Jan 2020 07:35:43.000,251.996,-88.588,22006.489174
2 Jan 2020 07:36:13.000,245.000,-88.017,22031.870381
2 Jan 2020 07:36:43.000,241.175,-87.434,22066.841378
2 Jan 2020 07:37:13.000,238.785,-86.849,22111.323855
2 Jan 2020 07:37:43.000,237.158,-86.267,22165.218460
2 Jan 2020 07:38:13.000,235.983,-85.690,22228.405652
2 Jan 2020 07:38:43.000,235.099,-85.121,22300.745989
2 Jan 2020 07:39:13.000,234.411,-84.561,22382.081768
2 Jan 2020 07:39:43.000,233.865,-84.012,22472.237565
2 Jan 2020 07:40:13.000,233.422,-83.473,22571.021610
2 Jan 2020 07:40:43.000,233.058,-82.948,22678.226223
2 Jan 2020 07:41:13.000,232.757,-82.436,22793.630073
2 Jan 2020 07:41:43.000,232.505,-81.938,22916.998723
2 Jan 2020 07:42:13.000,232.293,-81.455,23048.086270
2 Jan 2020 07:42:43.000,232.116,-80.988,23186.635751
2 Jan 2020 07:43:13.000,231.967,-80.538,23332.381655
2 Jan 2020 07:43:43.000,231.842,-80.104,23485.050327
2 Jan 2020 07:44:13.000,231.738,-79.688,23644.361370
2 Jan 2020 07:44:43.000,231.653,-79.289,23810.029087
2 Jan 2020 07:45:13.000,231.584,-78.908,23981.762472
2 Jan 2020 07:45:43.000,231.530,-78.546,24159.267931
2 Jan 2020 07:46:13.000,231.490,-78.201,24342.249180
2 Jan 2020 07:46:43.000,231.462,-77.876,24530.408454
2 Jan 2020 07:47:13.000,231.445,-77.569,24723.447372
2 Jan 2020 07:47:43.000,231.439,-77.280,24921.067744
2 Jan 2020 07:48:13.000,231.442,-77.011,25122.972650
2 Jan 2020 07:48:43.000,231.455,-76.759,25328.865740
2 Jan 2020 07:49:13.000,231.477,-76.527,25538.453887
2 Jan 2020 07:49:43.000,231.508,-76.312,25751.446374
2 Jan 2020 07:50:13.000,231.546,-76.115,25967.555715
2 Jan 2020 07:50:33.546,231.577,-75.991,26117.211104
2 Jan 2020 09:02:22.173,69.677,-75.997,26121.869439
2 Jan 2020 09:02:52.000,70.945,-76.143,25948.002903
2 Jan 2020 09:03:22.000,72.275,-76.298,25777.393562
2 Jan 2020 09:03:52.000,73.662,-76.462,25611.309409
2 Jan 2020 09:04:22.000,75.112,-76.633,25449.993627
2 Jan 2020 09:04:52.000,76.628,-76.812,25293.686796
2 Jan 2020 09:05:22.000,78.215,-76.998,25142.626202
2 Jan 2020 09:05:52.000,79.875,-77.188,24997.044842
2 Jan 2020 09:06:22.000,81.615,-77.384,24857.171721
2 Jan 2020 09:06:52.000,83.437,-77.582,24723.229480
2 Jan 2020 09:07:22.000,85.348,-77.783,24595.434660
2 Jan 2020 09:07:52.000,87.349,-77.985,24473.996608
2 Jan 2020 09:08:22.000,89.447,-78.185,24359.116449
2 Jan 2020 09:08:52.000,91.643,-78.384,24250.987068
2 Jan 2020 09:09:22.000,93.942,-78.579,24149.791033
2 Jan 2020 09:09:52.000,96.344,-78.769,24055.700617
2 Jan 2020 09:10:22.000,98.853,-78.951,23968.876780
2 Jan 2020 09:10:52.000,101.467,-79.125,23889.468237
2 Jan 2020 09:11:22.000,104.185,-79.288,23817.611381
2 Jan 2020 09:11:52.000,107.004,-79.438,23753.428571
2 Jan 2020 09:12:22.000,109.920,-79.574,23697.028184
2 Jan 2020 09:12:52.000,112.925,-79.695,23648.503761
2 Jan 2020 09:13:22.000,116.010,-79.797,23607.933883
2 Jan 2020 09:13:52.000,119.164,-79.882,23575.381133
2 Jan 2020 09:14:22.000,122.375,-79.946,23550.892152
2 Jan 2020 09:14:52.000,125.627,-79.989,23534.497216
2 Jan 2020 09:15:22.000,128.905,-80.011,23526.210240
2 Jan 2020 09:15:52.000,132.192,-80.012,23526.028389
2 Jan 2020 09:16:22.000,135.471,-79.990,23533.932300
2 Jan 2020 09:16:52.000,138.727,-79.948,23549.886126
2 Jan 2020 09:17:22.000,141.942,-79.885,23573.837706
2 Jan 2020 09:17:52.000,145.104,-79.803,23605.718864
2 Jan 2020 09:18:22.000,148.199,-79.702,23645.445775
2 Jan 2020 09:18:52.000,151.217,-79.584,23692.919474
2 Jan 2020 09:19:22.000,154.150,-79.451,23748.026153
2 Jan 2020 09:19:52.000,156.991,-79.303,23810.638074
2 Jan 2020 09:20:22.000,159.735,-79.144,23880.614025
2 Jan 2020 09:20:52.000,162.381,-78.974,23957.800077
2 Jan 2020 09:21:22.000,164.926,-78.796,24042.030469
2 Jan 2020 09:21:52.000,167.372,-78.611,24133.127878
2 Jan 2020 09:22:22.000,169.720,-78.421,24230.905005
2 Jan 2020 09:22:52.000,171.972,-78.228,24335.164912
2 Jan 2020 09:23:22.000,174.132,-78.032,24445.701996
2 Jan 2020 09:23:52.000,176.203,-77.836,24562.303010
2 Jan 2020 09:24:22.000,178.190,-77.640,24684.747253
2 Jan 2020 09:24:52.000,180.096,-77.447,24812.808382
2 Jan 2020 09:25:22.000,181.926,-77.257,24946.254601
2 Jan 2020 09:25:52.000,183.685,-77.070,25084.849612
2 Jan 2020 09:26:22.000,185.377,-76.889,25228.353400
2 Jan 2020 09:26:52.000,187.006,-76.714,25376.522968
2 Jan 2020 09:27:22.000,188.577,-76.546,25529.113298
2 Jan 2020 09:27:52.000,190.093,-76.385,25685.877062
2 Jan 2020 09:28:22.000,191.559,-76.232,25846.566690
2 Jan 2020 09:28:52.000,192.977,-76.087,26010.934022
2 Jan 2020 09:29:11.895,193.894,-75.996,26121.842271
2 Jan 2020 10:46:29.141,77.659,-75.997,26121.965814
2 Jan 2020 10:46:59.000,79.696,-76.043,26065.158120
2 Jan 2020 10:47:29.000,81.767,-76.086,26013.772660
2 Jan 2020 10:47:59.000,83.861,-76.125,25968.174407
2 Jan 2020 10:48:29.000,85.974,-76.159,25928.438019
2 Jan 2020 10:48:59.000,88.106,-76.190,25894.628062
2 Jan 2020 10:49:29.000,90.253,-76.215,25866.798697
2 Jan 2020 10:49:59.000,92.413,-76.235,25844.993662
2 Jan 2020 10:50:29.000,94.582,-76.249,25829.245774
2 Jan 2020 10:50:59.000,96.758,-76.258,25819.577012
2 Jan 2020 10:51:29.000,98.937,-76.262,25815.998366
2 Jan 2020 10:51:59.000,101.117,-76.259,25818.509790
2 Jan 2020 10:52:29.000,103.294,-76.251,25827.100207
2 Jan 2020 10:52:59.000,105.465,-76.238,25841.747531
2 Jan 2020 10:53:29.000,107.628,-76.219,25862.418782
2 Jan 2020 10:53:59.000,109.778,-76.195,25889.070213
2 Jan 2020 10:54:29.000,111.915,-76.166,25921.647488
2 Jan 2020 10:54:59.000,114.034,-76.133,25960.085969
2 Jan 2020 10:55:29.000,116.134,-76.095,26004.310733
2 Jan 2020 10:55:59.000,118.213,-76.053,26054.237215
2 Jan 2020 10:56:29.000,120.268,-76.008,26109.771321
2 Jan 2020 10:56:35.263,120.694,-75.998,26122.062376
2 Jan 2020 12:14:35.048,12.235,-75.990,26116.791760
2 Jan 2020 12:15:05.000,13.994,-76.092,25993.038043
2 Jan 2020 12:15:35.000,15.800,-76.197,25873.478017
2 Jan 2020 12:16:05.000,17.652,-76.304,25758.515640
2 Jan 2020 12:16:35.000,19.550,-76.412,25648.350921
2 Jan 2020 12:17:05.000,21.497,-76.520,25543.179280
2 Jan 2020 12:17:35.000,23.493,-76.628,25443.190921
2 Jan 2020 12:18:05.000,25.539,-76.735,25348.570074
2 Jan 2020 12:18:35.000,27.634,-76.840,25259.494869
2 Jan 2020 12:19:05.000,29.779,-76.942,25176.135909
2 Jan 2020 12:19:35.000,31.972,-77.041,25098.656163
2 Jan 2020 12:20:05.000,34.213,-77.135,25027.210205
2 Jan 2020 12:20:35.000,36.500,-77.223,24961.943529
2 Jan 2020 12:21:05.000,38.831,-77.305,24902.992243
2 Jan 2020 12:21:35.000,41.203,-77.380,24850.482046
2 Jan 2020 12:22:05.000,43.613,-77.447,24804.528002
2 Jan 2020 12:22:35.000,46.056,-77.505,24765.233952
2 Jan 2020 12:23:05.000,48.529,-77.554,24732.692026
2 Jan 2020 12:23:35.000,51.026,-77.594,24706.982339
2 Jan 2020 12:24:05.000,53.541,-77.623,24688.172436
2 Jan 2020 12:24:35.000,56.070,-77.641,24676.317115
2 Jan 2020 12:25:05.000,58.606,-77.649,24671.458134
2 Jan 2020 12:25:35.000,61.143,-77.646,24673.624050
2 Jan 2020 12:26:05.000,63.675,-77.631,24682.829970
2 Jan 2020 12:26:35.000,66.195,-77.606,24699.077640
2 Jan 2020 12:27:05.000,68.697,-77.571,24722.355353
2 Jan 2020 12:27:35.000,71.176,-77.525,24752.638031
2 Jan 2020 12:28:05.000,73.627,-77.470,24789.887440
2 Jan 2020 12:28:35.000,76.043,-77.405,24834.052032
2 Jan 2020 12:29:05.000,78.422,-77.332,24885.067703
2 Jan 2020 12:29:35.000,80.758,-77.251,24942.857771
2 Jan 2020 12:30:05.000,83.048,-77.164,25007.333419
2 Jan 2020 12:30:35.000,85.291,-77.070,25078.394240
2 Jan 2020 12:31:05.000,87.483,-76.970,25155.928143
2 Jan 2020 12:31:35.000,89.622,-76.867,25239.812662
2 Jan 2020 12:32:05.000,91.709,-76.760,25329.914949
2 Jan 2020 12:32:35.000,93.741,-76.651,25426.092465
2 Jan 2020 12:33:05.000,95.719,-76.540,25528.193565
2 Jan 2020 12:33:35.000,97.643,-76.428,25636.058304
2 Jan 2020 12:34:05.000,99.513,-76.316,25749.518224
2 Jan 2020 12:34:35.000,101.330,-76.206,25868.398206
2 Jan 2020 12:35:05.000,103.096,-76.097,25992.516286
2 Jan 2020 12:35:33.935,104.751,-75.994,26117.015475
2 Jan 2020 13:48:56.525,320.649,-75.985,26109.970089
2 Jan 2020 13:49:26.000,321.293,-76.157,25905.662194
2 Jan 2020 13:49:56.000,321.968,-76.348,25700.548400
2 Jan 2020 13:50:26.000,322.666,-76.555,25498.569496
2 Jan 2020 13:50:56.000,323.391,-76.778,25300.006514
2 Jan 2020 13:51:26.000,324.146,-77.018,25105.143303
2 Jan 2020 13:51:56.000,324.935,-77.273,24914.266032
2 Jan 2020 13:52:26.000,325.762,-77.545,24727.662629
2 Jan 2020 13:52:56.000,326.633,-77.832,24545.622168
2 Jan 2020 13:53:26.000,327.553,-78.135,24368.433880
2 Jan 2020 13:53:56.000,328.530,-78.452,24196.387650
2 Jan 2020 13:54:26.000,329.571,-78.785,24029.771357
2 Jan 2020 13:54:56.000,330.685,-79.131,23868.871259
2 Jan 2020 13:55:26.000,331.883,-79.491,23713.970766
2 Jan 2020 13:55:56.000,333.177,-79.863,23565.349239
2 Jan 2020 13:56:26.000,334.583,-80.247,23423.281854
2 Jan 2020 13:56:56.000,336.118,-80.641,23288.037186
2 Jan 2020 13:57:26.000,337.802,-81.044,23159.876998
2 Jan 2020 13:57:56.000,339.661,-81.453,23039.054871
2 Jan 2020 13:58:26.000,341.724,-81.868,22925.814839
2 Jan 2020 13:58:56.000,344.026,-82.285,22820.391007
2 Jan 2020 13:59:26.000,346.609,-82.702,22723.005151
2 Jan 2020 13:59:56.000,349.524,-83.114,22633.866375
2 Jan 2020 14:00:26.000,352.827,-83.519,22553.169638
2 Jan 2020 14:00:56.000,356.584,-83.909,22481.095140
2 Jan 2020 14:01:26.000,0.866,-84.280,22417.806511
2 Jan 2020 14:01:56.000,5.743,-84.624,22363.450343
2 Jan 2020 14:02:26.000,11.271,-84.932,22318.155093
2 Jan 2020 14:02:56.000,17.480,-85.194,22282.030543
2 Jan 2020 14:03:26.000,24.343,-85.400,22255.166666
2 Jan 2020 14:03:56.000,31.757,-85.541,22237.633349
2 Jan 2020 14:04:26.000,39.533,-85.608,22229.479858
2 Jan 2020 14:04:56.000,47.413,-85.598,22230.734511
2 Jan 2020 14:05:26.000,55.116,-85.511,22241.404478
2 Jan 2020 14:05:56.000,62.398,-85.352,22261.475766
2 Jan 2020 14:06:26.000,69.089,-85.130,22290.913396
2 Jan 2020 14:06:56.000,75.107,-84.854,22329.661347
2 Jan 2020 14:07:26.000,80.442,-84.534,22377.643352
2 Jan 2020 14:07:56.000,85.130,-84.180,22434.763156
2 Jan 2020 14:08:26.000,89.234,-83.801,22500.905350
2 Jan 2020 14:08:56.000,92.824,-83.404,22575.935567
2 Jan 2020 14:09:26.000,95.971,-82.994,22659.702132
2 Jan 2020 14:09:56.000,98.736,-82.577,22752.036481
2 Jan 2020 14:10:26.000,101.177,-82.156,22852.754484
2 Jan 2020 14:10:56.000,103.341,-81.736,22961.656768
2 Jan 2020 14:11:26.000,105.268,-81.319,23078.530934
2 Jan 2020 14:11:56.000,106.992,-80.907,23203.151985
2 Jan 2020 14:12:26.000,108.541,-80.503,23335.283884
2 Jan 2020 14:12:56.000,109.940,-80.108,23474.679868
2 Jan 2020 14:13:26.000,111.206,-79.724,23621.084880
2 Jan 2020 14:13:56.000,112.359,-79.351,23774.235887
2 Jan 2020 14:14:26.000,113.411,-78.992,23933.863199
2 Jan 2020 14:14:56.000,114.374,-78.646,24099.691837
2 Jan 2020 14:15:26.000,115.259,-78.315,24271.441461
2 Jan 2020 14:15:56.000,116.075,-77.998,24448.829016
2 Jan 2020 14:16:26.000,116.828,-77.697,24631.568583
2 Jan 2020 14:16:56.000,117.525,-77.412,24819.372528
2 Jan 2020 14:17:26.000,118.173,-77.144,25011.952328
2 Jan 2020 14:17:56.000,118.774,-76.892,25209.019336
2 Jan 2020 14:18:26.000,119.335,-76.656,25410.285822
2 Jan 2020 14:18:56.000,119.858,-76.437,25615.464265
2 Jan 2020 14:19:26.000,120.347,-76.235,25824.269960
2 Jan 2020 14:19:56.000,120.804,-76.049,26036.420201
