STKdata/stk_70fov_4leo/Satellite-MEO_Satellite10007-To-Satellite-LEO_Satellite10000 AER.csv

"Time (UTCG)","Azimuth (deg)","Elevation (deg)","Range (km)"
1 Jan 2020 00:00:00.000,55.984,-84.927,22315.602610
1 Jan 2020 00:00:30.000,50.328,-84.941,22313.660207
1 Jan 2020 00:01:00.000,44.689,-84.910,22317.973256
1 Jan 2020 00:01:30.000,39.167,-84.837,22328.544906
1 Jan 2020 00:02:00.000,33.846,-84.723,22345.368909
1 Jan 2020 00:02:30.000,28.793,-84.570,22368.429703
1 Jan 2020 00:03:00.000,24.053,-84.384,22397.702263
1 Jan 2020 00:03:30.000,19.651,-84.168,22433.152527
1 Jan 2020 00:04:00.000,15.591,-83.927,22474.737352
1 Jan 2020 00:04:30.000,11.867,-83.664,22522.404747
1 Jan 2020 00:05:00.000,8.461,-83.384,22576.094215
1 Jan 2020 00:05:30.000,5.352,-83.090,22635.736562
1 Jan 2020 00:06:00.000,2.516,-82.785,22701.254846
1 Jan 2020 00:06:30.000,359.926,-82.472,22772.564266
1 Jan 2020 00:07:00.000,357.559,-82.153,22849.572610
1 Jan 2020 00:07:30.000,355.393,-81.832,22932.180619
1 Jan 2020 00:08:00.000,353.405,-81.508,23020.282561
1 Jan 2020 00:08:30.000,351.578,-81.186,23113.765861
1 Jan 2020 00:09:00.000,349.894,-80.864,23212.512646
1 Jan 2020 00:09:30.000,348.339,-80.546,23316.399414
1 Jan 2020 00:10:00.000,346.898,-80.232,23425.297637
1 Jan 2020 00:10:30.000,345.561,-79.924,23539.074180
1 Jan 2020 00:11:00.000,344.316,-79.621,23657.591730
1 Jan 2020 00:11:30.000,343.155,-79.325,23780.709466
1 Jan 2020 00:12:00.000,342.070,-79.037,23908.282431
1 Jan 2020 00:12:30.000,341.053,-78.757,24040.163484
1 Jan 2020 00:13:00.000,340.099,-78.485,24176.202668
1 Jan 2020 00:13:30.000,339.201,-78.223,24316.247837
1 Jan 2020 00:14:00.000,338.355,-77.970,24460.145029
1 Jan 2020 00:14:30.000,337.556,-77.726,24607.738808
1 Jan 2020 00:15:00.000,336.800,-77.493,24758.872603
1 Jan 2020 00:15:30.000,336.084,-77.270,24913.389026
1 Jan 2020 00:16:00.000,335.405,-77.057,25071.130479
1 Jan 2020 00:16:30.000,334.760,-76.856,25231.938202
1 Jan 2020 00:17:00.000,334.146,-76.665,25395.654387
1 Jan 2020 00:17:30.000,333.561,-76.484,25562.121197
1 Jan 2020 00:18:00.000,333.003,-76.315,25731.181303
1 Jan 2020 00:18:30.000,332.469,-76.157,25902.678095
1 Jan 2020 00:19:00.000,331.960,-76.010,26076.455879
1 Jan 2020 00:19:04.708,331.882,-75.987,26103.926521
1 Jan 2020 01:44:50.855,152.612,-75.991,26107.115512
1 Jan 2020 01:45:20.000,153.132,-76.131,25938.781039
1 Jan 2020 01:45:50.000,153.691,-76.286,25767.749778
1 Jan 2020 01:46:20.000,154.275,-76.453,25599.142661
1 Jan 2020 01:46:50.000,154.887,-76.629,25433.115147
1 Jan 2020 01:47:20.000,155.528,-76.817,25269.823382
1 Jan 2020 01:47:50.000,156.201,-77.015,25109.423988
1 Jan 2020 01:48:20.000,156.908,-77.224,24952.073834
1 Jan 2020 01:48:50.000,157.653,-77.443,24797.929794
1 Jan 2020 01:49:20.000,158.438,-77.671,24647.148482
1 Jan 2020 01:49:50.000,159.267,-77.910,24499.885694
1 Jan 2020 01:50:20.000,160.144,-78.159,24356.297246
1 Jan 2020 01:50:50.000,161.072,-78.416,24216.536946
1 Jan 2020 01:51:20.000,162.058,-78.683,24080.757415
1 Jan 2020 01:51:50.000,163.107,-78.957,23949.109455
1 Jan 2020 01:52:20.000,164.224,-79.240,23821.741686
1 Jan 2020 01:52:50.000,165.417,-79.530,23698.800178
1 Jan 2020 01:53:20.000,166.694,-79.826,23580.427822
1 Jan 2020 01:53:50.000,168.063,-80.128,23466.764904
1 Jan 2020 01:54:20.000,169.534,-80.435,23357.947241
1 Jan 2020 01:54:50.000,171.119,-80.746,23254.106751
1 Jan 2020 01:55:20.000,172.830,-81.060,23155.370796
1 Jan 2020 01:55:50.000,174.681,-81.375,23061.861764
1 Jan 2020 01:56:20.000,176.688,-81.690,22973.696477
1 Jan 2020 01:56:50.000,178.869,-82.003,22890.986517
1 Jan 2020 01:57:20.000,181.242,-82.313,22813.836709
1 Jan 2020 01:57:50.000,183.827,-82.617,22742.345482
1 Jan 2020 01:58:20.000,186.647,-82.913,22676.604311
1 Jan 2020 01:58:50.000,189.723,-83.198,22616.697350
1 Jan 2020 01:59:20.000,193.075,-83.469,22562.700977
1 Jan 2020 01:59:50.000,196.721,-83.723,22514.683991
1 Jan 2020 02:00:20.000,200.675,-83.956,22472.706537
1 Jan 2020 02:00:50.000,204.940,-84.165,22436.820394
1 Jan 2020 02:01:20.000,209.509,-84.345,22407.068610
1 Jan 2020 02:01:50.000,214.359,-84.493,22383.485264
1 Jan 2020 02:02:20.000,219.450,-84.605,22366.095535
1 Jan 2020 02:02:50.000,224.723,-84.679,22354.915247
1 Jan 2020 02:03:20.000,230.106,-84.712,22349.951036
1 Jan 2020 02:03:50.000,235.513,-84.703,22351.200261
1 Jan 2020 02:04:20.000,240.860,-84.654,22358.651022
1 Jan 2020 02:04:50.000,246.067,-84.564,22372.282190
1 Jan 2020 02:05:20.000,251.066,-84.438,22392.063517
1 Jan 2020 02:05:50.000,255.807,-84.277,22417.955770
1 Jan 2020 02:06:20.000,260.259,-84.087,22449.910905
1 Jan 2020 02:06:50.000,264.407,-83.869,22487.872333
1 Jan 2020 02:07:20.000,268.250,-83.629,22531.774917
1 Jan 2020 02:07:50.000,271.795,-83.371,22581.545609
1 Jan 2020 02:08:20.000,275.058,-83.097,22637.103522
1 Jan 2020 02:08:50.000,278.060,-82.811,22698.360319
1 Jan 2020 02:09:20.000,280.821,-82.515,22765.220565
1 Jan 2020 02:09:50.000,283.363,-82.213,22837.582247
1 Jan 2020 02:10:20.000,285.706,-81.906,22915.336595
1 Jan 2020 02:10:50.000,287.872,-81.597,22998.369322
1 Jan 2020 02:11:20.000,289.878,-81.287,23086.560494
1 Jan 2020 02:11:50.000,291.740,-80.978,23179.785083
1 Jan 2020 02:12:20.000,293.474,-80.671,23277.913387
1 Jan 2020 02:12:50.000,295.093,-80.367,23380.811459
1 Jan 2020 02:13:20.000,296.609,-80.067,23488.341745
1 Jan 2020 02:13:50.000,298.033,-79.772,23600.362633
1 Jan 2020 02:14:20.000,299.374,-79.484,23716.730153
1 Jan 2020 02:14:50.000,300.641,-79.202,23837.297522
1 Jan 2020 02:15:20.000,301.840,-78.927,23961.915751
1 Jan 2020 02:15:50.000,302.979,-78.660,24090.434011
1 Jan 2020 02:16:20.000,304.064,-78.401,24222.700001
1 Jan 2020 02:16:50.000,305.099,-78.152,24358.560294
1 Jan 2020 02:17:20.000,306.089,-77.911,24497.860660
1 Jan 2020 02:17:50.000,307.040,-77.679,24640.446664
1 Jan 2020 02:18:20.000,307.953,-77.457,24786.162847
1 Jan 2020 02:18:50.000,308.834,-77.244,24934.854660
1 Jan 2020 02:19:20.000,309.684,-77.041,25086.367625
1 Jan 2020 02:19:50.000,310.507,-76.849,25240.547849
1 Jan 2020 02:20:20.000,311.306,-76.666,25397.242248
1 Jan 2020 02:20:50.000,312.081,-76.493,25556.298752
1 Jan 2020 02:21:20.000,312.836,-76.331,25717.566495
1 Jan 2020 02:21:50.000,313.573,-76.179,25880.895984
1 Jan 2020 02:22:20.000,314.293,-76.036,26046.139264
1 Jan 2020 02:22:31.071,314.554,-75.987,26107.576328
1 Jan 2020 03:55:00.717,196.925,-75.993,26114.916902
1 Jan 2020 03:55:30.000,198.224,-76.090,25997.412083
1 Jan 2020 03:56:00.000,199.583,-76.193,25879.426058
1 Jan 2020 03:56:30.000,200.973,-76.300,25763.957870
1 Jan 2020 03:57:00.000,202.394,-76.410,25651.100925
1 Jan 2020 03:57:30.000,203.848,-76.523,25540.947671
1 Jan 2020 03:58:00.000,205.336,-76.639,25433.589449
1 Jan 2020 03:58:30.000,206.859,-76.758,25329.116349
1 Jan 2020 03:59:00.000,208.419,-76.879,25227.617063
1 Jan 2020 03:59:30.000,210.017,-77.001,25129.178730
1 Jan 2020 04:00:00.000,211.654,-77.125,25033.886780
1 Jan 2020 04:00:30.000,213.332,-77.249,24941.824575
1 Jan 2020 04:01:00.000,215.051,-77.374,24853.074054
1 Jan 2020 04:01:30.000,216.812,-77.499,24767.714356
1 Jan 2020 04:02:00.000,218.616,-77.624,24685.822470
1 Jan 2020 04:02:30.000,220.465,-77.747,24607.472873
1 Jan 2020 04:03:00.000,222.359,-77.868,24532.737362
1 Jan 2020 04:03:30.000,224.297,-77.988,24461.684898
1 Jan 2020 04:04:00.000,226.281,-78.104,24394.381446
1 Jan 2020 04:04:30.000,228.310,-78.218,24330.889688
1 Jan 2020 04:05:00.000,230.384,-78.327,24271.269406
1 Jan 2020 04:05:30.000,232.502,-78.432,24215.576527
1 Jan 2020 04:06:00.000,234.664,-78.531,24163.863527
1 Jan 2020 04:06:30.000,236.868,-78.626,24116.179163
1 Jan 2020 04:07:00.000,239.112,-78.713,24072.568343
1 Jan 2020 04:07:30.000,241.395,-78.794,24033.072009
1 Jan 2020 04:08:00.000,243.713,-78.868,23997.727028
1 Jan 2020 04:08:30.000,246.064,-78.934,23966.566026
1 Jan 2020 04:09:00.000,248.445,-78.992,23939.617583
1 Jan 2020 04:09:30.000,250.852,-79.042,23916.905712
1 Jan 2020 04:10:00.000,253.281,-79.082,23898.450097
1 Jan 2020 04:10:30.000,255.727,-79.113,23884.265964
1 Jan 2020 04:11:00.000,258.187,-79.135,23874.364036
1 Jan 2020 04:11:30.000,260.656,-79.148,23868.750508
1 Jan 2020 04:12:00.000,263.128,-79.151,23867.427024
1 Jan 2020 04:12:30.000,265.599,-79.144,23870.390699
1 Jan 2020 04:13:00.000,268.064,-79.128,23877.634086
1 Jan 2020 04:13:30.000,270.519,-79.102,23889.145234
1 Jan 2020 04:14:00.000,272.958,-79.067,23904.907718
1 Jan 2020 04:14:30.000,275.378,-79.023,23924.900687
1 Jan 2020 04:15:00.000,277.774,-78.970,23949.098926
1 Jan 2020 04:15:30.000,280.143,-78.909,23977.472930
1 Jan 2020 04:16:00.000,282.481,-78.840,24009.989062
1 Jan 2020 04:16:30.000,284.785,-78.764,24046.609370
1 Jan 2020 04:17:00.000,287.052,-78.681,24087.292099
1 Jan 2020 04:17:30.000,289.281,-78.591,24131.991547
1 Jan 2020 04:18:00.000,291.470,-78.496,24180.658250
1 Jan 2020 04:18:30.000,293.617,-78.395,24233.239120
1 Jan 2020 04:19:00.000,295.720,-78.290,24289.677578
1 Jan 2020 04:19:30.000,297.780,-78.180,24349.913708
1 Jan 2020 04:20:00.000,299.796,-78.067,24413.884531
1 Jan 2020 04:20:30.000,301.768,-77.950,24481.523654
1 Jan 2020 04:21:00.000,303.696,-77.832,24552.762184
1 Jan 2020 04:21:30.000,305.579,-77.711,24627.528395
1 Jan 2020 04:22:00.000,307.420,-77.589,24705.748014
1 Jan 2020 04:22:30.000,309.218,-77.466,24787.344386
1 Jan 2020 04:23:00.000,310.974,-77.342,24872.238642
1 Jan 2020 04:23:30.000,312.690,-77.219,24960.349861
1 Jan 2020 04:24:00.000,314.366,-77.097,25051.595236
1 Jan 2020 04:24:30.000,316.004,-76.975,25145.890240
1 Jan 2020 04:25:00.000,317.604,-76.855,25243.148980
1 Jan 2020 04:25:30.000,319.168,-76.736,25343.283564
1 Jan 2020 04:26:00.000,320.698,-76.620,25446.205438
1 Jan 2020 04:26:30.000,322.194,-76.506,25551.824750
1 Jan 2020 04:27:00.000,323.658,-76.395,25660.050696
1 Jan 2020 04:27:30.000,325.092,-76.288,25770.791654
1 Jan 2020 04:28:00.000,326.495,-76.183,25883.955326
1 Jan 2020 04:28:30.000,327.871,-76.083,25999.448867
1 Jan 2020 04:28:59.446,329.194,-75.988,26114.986909
1 Jan 2020 06:04:17.484,225.654,-75.992,26120.304978
1 Jan 2020 06:04:47.000,226.634,-76.115,25972.794705
1 Jan 2020 06:05:17.000,227.653,-76.247,25824.756908
1 Jan 2020 06:05:47.000,228.696,-76.386,25678.757069
1 Jan 2020 06:06:17.000,229.766,-76.534,25534.927168
1 Jan 2020 06:06:47.000,230.865,-76.689,25393.400086
1 Jan 2020 06:07:17.000,231.995,-76.851,25254.309450
1 Jan 2020 06:07:47.000,233.159,-77.021,25117.789460
1 Jan 2020 06:08:17.000,234.359,-77.197,24983.974708
1 Jan 2020 06:08:47.000,235.599,-77.380,24852.999975
1 Jan 2020 06:09:17.000,236.881,-77.570,24725.000027
1 Jan 2020 06:09:47.000,238.208,-77.765,24600.109384
1 Jan 2020 06:10:17.000,239.585,-77.967,24478.461848
1 Jan 2020 06:10:47.000,241.015,-78.173,24360.191221
1 Jan 2020 06:11:17.000,242.502,-78.384,24245.429577
1 Jan 2020 06:11:47.000,244.051,-78.598,24134.307970
1 Jan 2020 06:12:17.000,245.666,-78.817,24026.955905
1 Jan 2020 06:12:47.000,247.352,-79.037,23923.501040
1 Jan 2020 06:13:17.000,249.114,-79.260,23824.068880
1 Jan 2020 06:13:47.000,250.957,-79.484,23728.782464
1 Jan 2020 06:14:17.000,252.888,-79.708,23637.761871
1 Jan 2020 06:14:47.000,254.911,-79.931,23551.124601
1 Jan 2020 06:15:17.000,257.033,-80.152,23468.984171
1 Jan 2020 06:15:47.000,259.259,-80.369,23391.450507
1 Jan 2020 06:16:17.000,261.594,-80.582,23318.629434
1 Jan 2020 06:16:47.000,264.043,-80.790,23250.622339
1 Jan 2020 06:17:17.000,266.610,-80.989,23187.525852
1 Jan 2020 06:17:47.000,269.298,-81.180,23129.431417
1 Jan 2020 06:18:17.000,272.108,-81.360,23076.425421
1 Jan 2020 06:18:47.000,275.042,-81.528,23028.588219
1 Jan 2020 06:19:17.000,278.096,-81.682,22985.994312
1 Jan 2020 06:19:47.000,281.265,-81.821,22948.711954
1 Jan 2020 06:20:17.000,284.543,-81.943,22916.802905
1 Jan 2020 06:20:47.000,287.919,-82.046,22890.322162
1 Jan 2020 06:21:17.000,291.379,-82.129,22869.317897
1 Jan 2020 06:21:47.000,294.908,-82.191,22853.831030
1 Jan 2020 06:22:17.000,298.486,-82.231,22843.895245
1 Jan 2020 06:22:47.000,302.092,-82.249,22839.536805
1 Jan 2020 06:23:17.000,305.705,-82.244,22840.774452
1 Jan 2020 06:23:47.000,309.302,-82.216,22847.619361
1 Jan 2020 06:24:17.000,312.862,-82.166,22860.074972
1 Jan 2020 06:24:47.000,316.363,-82.093,22878.137145
1 Jan 2020 06:25:17.000,319.788,-82.000,22901.794072
1 Jan 2020 06:25:47.000,323.122,-81.888,22931.026345
1 Jan 2020 06:26:17.000,326.350,-81.757,22965.807031
1 Jan 2020 06:26:47.000,329.464,-81.609,23006.101881
1 Jan 2020 06:27:17.000,332.457,-81.445,23051.869056
1 Jan 2020 06:27:47.000,335.324,-81.268,23103.059872
1 Jan 2020 06:28:17.000,338.064,-81.079,23159.618607
1 Jan 2020 06:28:47.000,340.677,-80.880,23221.482796
1 Jan 2020 06:29:17.000,343.165,-80.672,23288.583460
1 Jan 2020 06:29:47.000,345.532,-80.457,23360.845511
1 Jan 2020 06:30:17.000,347.781,-80.236,23438.187388
1 Jan 2020 06:30:47.000,349.917,-80.011,23520.522265
1 Jan 2020 06:31:17.000,351.946,-79.783,23607.757731
1 Jan 2020 06:31:47.000,353.874,-79.553,23699.796243
1 Jan 2020 06:32:17.000,355.706,-79.323,23796.535434
1 Jan 2020 06:32:47.000,357.447,-79.093,23897.868428
1 Jan 2020 06:33:17.000,359.103,-78.864,24003.684389
1 Jan 2020 06:33:47.000,0.680,-78.638,24113.867936
1 Jan 2020 06:34:17.000,2.182,-78.415,24228.300803
1 Jan 2020 06:34:47.000,3.615,-78.196,24346.861275
1 Jan 2020 06:35:17.000,4.982,-77.981,24469.424715
1 Jan 2020 06:35:47.000,6.288,-77.771,24595.863878
1 Jan 2020 06:36:17.000,7.537,-77.567,24726.049207
1 Jan 2020 06:36:47.000,8.734,-77.370,24859.849128
1 Jan 2020 06:37:17.000,9.880,-77.178,24997.130337
1 Jan 2020 06:37:47.000,10.980,-76.994,25137.758359
1 Jan 2020 06:38:17.000,12.036,-76.817,25281.596655
1 Jan 2020 06:38:47.000,13.052,-76.648,25428.508605
1 Jan 2020 06:39:17.000,14.029,-76.487,25578.356599
1 Jan 2020 06:39:47.000,14.971,-76.334,25731.002549
1 Jan 2020 06:40:17.000,15.880,-76.189,25886.308105
1 Jan 2020 06:40:47.000,16.757,-76.053,26044.134859
1 Jan 2020 06:41:01.351,17.166,-75.991,26120.483925
1 Jan 2020 08:07:25.736,215.739,-75.990,26119.362340
1 Jan 2020 08:07:55.000,215.605,-76.137,25942.890645
1 Jan 2020 08:08:25.000,215.456,-76.300,25764.013214
1 Jan 2020 08:08:55.000,215.294,-76.476,25587.352400
1 Jan 2020 08:09:25.000,215.120,-76.663,25413.071840
1 Jan 2020 08:09:55.000,214.930,-76.864,25241.336575
1 Jan 2020 08:10:25.000,214.726,-77.076,25072.312854
1 Jan 2020 08:10:55.000,214.505,-77.301,24906.167925
1 Jan 2020 08:11:25.000,214.267,-77.539,24743.069800
1 Jan 2020 08:11:55.000,214.009,-77.789,24583.187006
1 Jan 2020 08:12:25.000,213.730,-78.052,24426.688313
1 Jan 2020 08:12:55.000,213.428,-78.327,24273.742127
1 Jan 2020 08:13:25.000,213.102,-78.614,24124.517427
1 Jan 2020 08:13:55.000,212.747,-78.913,23979.181544
1 Jan 2020 08:14:25.000,212.362,-79.225,23837.901068
1 Jan 2020 08:14:55.000,211.942,-79.548,23700.841156
1 Jan 2020 08:15:25.000,211.485,-79.882,23568.165134
1 Jan 2020 08:15:55.000,210.984,-80.228,23440.034087
1 Jan 2020 08:16:25.000,210.434,-80.584,23316.606178
1 Jan 2020 08:16:55.000,209.829,-80.951,23198.037202
1 Jan 2020 08:17:25.000,209.160,-81.328,23084.478615
1 Jan 2020 08:17:55.000,208.416,-81.714,22976.078086
1 Jan 2020 08:18:25.000,207.587,-82.109,22872.978759
1 Jan 2020 08:18:55.000,206.655,-82.513,22775.318772
1 Jan 2020 08:19:25.000,205.604,-82.923,22683.230586
1 Jan 2020 08:19:55.000,204.408,-83.341,22596.841264
1 Jan 2020 08:20:25.000,203.036,-83.763,22516.270836
1 Jan 2020 08:20:55.000,201.450,-84.190,22441.632611
1 Jan 2020 08:21:25.000,199.596,-84.618,22373.032529
1 Jan 2020 08:21:55.000,197.405,-85.048,22310.568607
1 Jan 2020 08:22:25.000,194.783,-85.475,22254.330999
1 Jan 2020 08:22:55.000,191.601,-85.896,22204.400876
1 Jan 2020 08:23:25.000,187.683,-86.308,22160.850565
1 Jan 2020 08:23:55.000,182.789,-86.702,22123.743095
1 Jan 2020 08:24:25.000,176.599,-87.070,22093.131852
1 Jan 2020 08:24:55.000,168.729,-87.397,22069.060578
1 Jan 2020 08:25:25.000,158.817,-87.665,22051.562773
1 Jan 2020 08:25:55.000,146.777,-87.850,22040.661807
1 Jan 2020 08:26:25.000,133.181,-87.927,22036.370744
1 Jan 2020 08:26:55.000,119.352,-87.886,22038.692277
1 Jan 2020 08:27:25.000,106.744,-87.731,22047.618705
1 Jan 2020 08:27:55.000,96.172,-87.486,22063.131969
1 Jan 2020 08:28:25.000,87.708,-87.175,22085.203751
1 Jan 2020 08:28:55.000,81.038,-86.818,22113.795596
1 Jan 2020 08:29:25.000,75.767,-86.432,22148.859175
1 Jan 2020 08:29:55.000,71.555,-86.026,22190.336223
1 Jan 2020 08:30:25.000,68.137,-85.608,22238.159210
1 Jan 2020 08:30:55.000,65.321,-85.184,22292.251393
1 Jan 2020 08:31:25.000,62.966,-84.757,22352.527220
1 Jan 2020 08:31:55.000,60.967,-84.329,22418.892833
1 Jan 2020 08:32:25.000,59.250,-83.904,22491.245971
1 Jan 2020 08:32:55.000,57.756,-83.482,22569.477130
1 Jan 2020 08:33:25.000,56.443,-83.065,22653.469535
1 Jan 2020 08:33:55.000,55.278,-82.655,22743.099720
1 Jan 2020 08:34:25.000,54.235,-82.252,22838.238003
1 Jan 2020 08:34:55.000,53.293,-81.856,22938.749175
1 Jan 2020 08:35:25.000,52.436,-81.469,23044.492182
1 Jan 2020 08:35:55.000,51.651,-81.092,23155.321802
1 Jan 2020 08:36:25.000,50.927,-80.724,23271.088351
1 Jan 2020 08:36:55.000,50.257,-80.367,23391.638349
1 Jan 2020 08:37:25.000,49.631,-80.020,23516.814995
1 Jan 2020 08:37:55.000,49.044,-79.684,23646.458617
1 Jan 2020 08:38:25.000,48.492,-79.360,23780.407382
1 Jan 2020 08:38:55.000,47.969,-79.047,23918.496692
1 Jan 2020 08:39:25.000,47.472,-78.746,24060.561120
1 Jan 2020 08:39:55.000,46.998,-78.456,24206.433798
1 Jan 2020 08:40:25.000,46.544,-78.179,24355.947029
1 Jan 2020 08:40:55.000,46.107,-77.914,24508.932645
1 Jan 2020 08:41:25.000,45.686,-77.661,24665.222336
1 Jan 2020 08:41:55.000,45.278,-77.421,24824.647953
1 Jan 2020 08:42:25.000,44.883,-77.192,24987.041802
1 Jan 2020 08:42:55.000,44.498,-76.976,25152.236902
1 Jan 2020 08:43:25.000,44.122,-76.772,25320.067240
1 Jan 2020 08:43:55.000,43.754,-76.581,25490.368318
1 Jan 2020 08:44:25.000,43.394,-76.401,25662.976038
1 Jan 2020 08:44:55.000,43.039,-76.234,25837.728871
1 Jan 2020 08:45:25.000,42.690,-76.079,26014.466705
1 Jan 2020 08:45:42.599,42.487,-75.993,26119.004420
1 Jan 2020 10:14:50.366,179.788,-75.986,26112.430615
1 Jan 2020 10:15:20.000,178.616,-76.097,25978.659914
1 Jan 2020 10:15:50.000,177.399,-76.214,25845.761451
1 Jan 2020 10:16:20.000,176.148,-76.337,25715.512277
1 Jan 2020 10:16:50.000,174.862,-76.465,25588.022469
1 Jan 2020 10:17:20.000,173.540,-76.597,25463.401166
1 Jan 2020 10:17:50.000,172.179,-76.734,25341.756399
1 Jan 2020 10:18:20.000,170.777,-76.875,25223.194902
1 Jan 2020 10:18:50.000,169.334,-77.019,25107.821931
1 Jan 2020 10:19:20.000,167.846,-77.166,24995.741067
1 Jan 2020 10:19:50.000,166.312,-77.316,24887.053794
1 Jan 2020 10:20:20.000,164.731,-77.469,24781.860202
1 Jan 2020 10:20:50.000,163.099,-77.623,24680.257411
1 Jan 2020 10:21:20.000,161.415,-77.778,24582.340285
1 Jan 2020 10:21:50.000,159.677,-77.933,24488.200984
1 Jan 2020 10:22:20.000,157.883,-78.089,24397.928756
1 Jan 2020 10:22:50.000,156.032,-78.243,24311.609723
1 Jan 2020 10:23:20.000,154.123,-78.396,24229.326671
1 Jan 2020 10:23:50.000,152.153,-78.547,24151.158668
1 Jan 2020 10:24:20.000,150.122,-78.695,24077.181561
1 Jan 2020 10:24:50.000,148.029,-78.839,24007.466708
1 Jan 2020 10:25:20.000,145.874,-78.978,23942.081505
1 Jan 2020 10:25:50.000,143.657,-79.112,23881.089014
1 Jan 2020 10:26:20.000,141.379,-79.240,23824.547788
1 Jan 2020 10:26:50.000,139.040,-79.360,23772.511697
1 Jan 2020 10:27:20.000,136.643,-79.473,23725.029666
1 Jan 2020 10:27:50.000,134.191,-79.577,23682.145967
1 Jan 2020 10:28:20.000,131.685,-79.672,23643.899414
1 Jan 2020 10:28:50.000,129.131,-79.757,23610.323698
1 Jan 2020 10:29:20.000,126.533,-79.831,23581.447175
1 Jan 2020 10:29:50.000,123.896,-79.894,23557.292770
1 Jan 2020 10:30:20.000,121.227,-79.945,23537.877914
1 Jan 2020 10:30:50.000,118.531,-79.984,23523.214444
1 Jan 2020 10:31:20.000,115.816,-80.011,23513.308745
1 Jan 2020 10:31:50.000,113.090,-80.025,23508.161457
1 Jan 2020 10:32:20.000,110.359,-80.026,23507.767669
1 Jan 2020 10:32:50.000,107.631,-80.014,23512.116889
1 Jan 2020 10:33:20.000,104.915,-79.990,23521.193084
1 Jan 2020 10:33:50.000,102.216,-79.954,23534.974731
1 Jan 2020 10:34:20.000,99.543,-79.905,23553.434932
1 Jan 2020 10:34:50.000,96.901,-79.845,23576.541374
1 Jan 2020 10:35:20.000,94.296,-79.774,23604.256614
1 Jan 2020 10:35:50.000,91.734,-79.692,23636.538089
1 Jan 2020 10:36:20.000,89.218,-79.601,23673.338290
1 Jan 2020 10:36:50.000,86.753,-79.500,23714.604900
1 Jan 2020 10:37:20.000,84.342,-79.392,23760.280969
1 Jan 2020 10:37:50.000,81.986,-79.275,23810.305177
1 Jan 2020 10:38:20.000,79.688,-79.152,23864.611653
1 Jan 2020 10:38:50.000,77.448,-79.022,23923.130710
1 Jan 2020 10:39:20.000,75.268,-78.888,23985.788694
1 Jan 2020 10:39:50.000,73.147,-78.749,24052.508282
1 Jan 2020 10:40:20.000,71.084,-78.606,24123.208689
1 Jan 2020 10:40:50.000,69.079,-78.460,24197.805891
1 Jan 2020 10:41:20.000,67.131,-78.312,24276.212840
1 Jan 2020 10:41:50.000,65.238,-78.163,24358.339847
1 Jan 2020 10:42:20.000,63.399,-78.013,24444.094174
1 Jan 2020 10:42:50.000,61.612,-77.862,24533.381184
1 Jan 2020 10:43:20.000,59.875,-77.712,24626.103947
1 Jan 2020 10:43:50.000,58.186,-77.563,24722.163605
1 Jan 2020 10:44:20.000,56.544,-77.415,24821.459586
1 Jan 2020 10:44:50.000,54.947,-77.270,24923.889809
1 Jan 2020 10:45:20.000,53.391,-77.126,25029.350885
1 Jan 2020 10:45:50.000,51.876,-76.986,25137.738314
1 Jan 2020 10:46:20.000,50.400,-76.849,25248.946674
1 Jan 2020 10:46:50.000,48.961,-76.715,25362.869802
1 Jan 2020 10:47:20.000,47.556,-76.585,25479.401206
1 Jan 2020 10:47:50.000,46.184,-76.459,25598.433297
1 Jan 2020 10:48:20.000,44.843,-76.338,25719.858943
1 Jan 2020 10:48:50.000,43.532,-76.222,25843.570694
1 Jan 2020 10:49:20.000,42.249,-76.110,25969.461162
1 Jan 2020 10:49:50.000,40.993,-76.004,26097.423150
1 Jan 2020 10:49:53.437,40.850,-75.992,26112.210491
1 Jan 2020 12:26:36.607,137.821,-75.987,26105.595993
1 Jan 2020 12:27:06.000,136.626,-76.093,25976.761017
1 Jan 2020 12:27:36.000,135.381,-76.207,25847.270258
1 Jan 2020 12:28:06.000,134.108,-76.327,25719.915089
1 Jan 2020 12:28:36.000,132.806,-76.452,25594.806917
1 Jan 2020 12:29:06.000,131.473,-76.581,25472.057383
1 Jan 2020 12:29:36.000,130.107,-76.716,25351.778214
1 Jan 2020 12:30:06.000,128.706,-76.854,25234.081065
1 Jan 2020 12:30:36.000,127.268,-76.997,25119.077359
1 Jan 2020 12:31:06.000,125.791,-77.144,25006.878115
1 Jan 2020 12:31:36.000,124.274,-77.294,24897.593765
1 Jan 2020 12:32:06.000,122.713,-77.447,24791.333966
1 Jan 2020 12:32:36.000,121.106,-77.602,24688.207198
1 Jan 2020 12:33:06.000,119.452,-77.759,24588.321389
1 Jan 2020 12:33:36.000,117.748,-77.918,24491.782448
1 Jan 2020 12:34:06.000,115.992,-78.078,24398.694890
1 Jan 2020 12:34:36.000,114.181,-78.238,24309.161401
1 Jan 2020 12:35:06.000,112.314,-78.398,24223.282608
1 Jan 2020 12:35:36.000,110.387,-78.556,24141.156848
1 Jan 2020 12:36:06.000,108.401,-78.713,24062.879933
1 Jan 2020 12:36:36.000,106.352,-78.868,23988.544773
1 Jan 2020 12:37:06.000,104.240,-79.018,23918.241691
1 Jan 2020 12:37:36.000,102.063,-79.165,23852.057347
1 Jan 2020 12:38:06.000,99.821,-79.307,23790.075066
1 Jan 2020 12:38:36.000,97.514,-79.443,23732.374465
1 Jan 2020 12:39:06.000,95.143,-79.572,23679.031220
1 Jan 2020 12:39:36.000,92.708,-79.694,23630.116844
1 Jan 2020 12:40:06.000,90.212,-79.807,23585.698399
1 Jan 2020 12:40:36.000,87.656,-79.910,23545.838590
1 Jan 2020 12:41:06.000,85.046,-80.004,23510.595102
1 Jan 2020 12:41:36.000,82.385,-80.086,23480.020734
1 Jan 2020 12:42:06.000,79.679,-80.157,23454.163146
1 Jan 2020 12:42:36.000,76.934,-80.215,23433.064700
1 Jan 2020 12:43:06.000,74.157,-80.261,23416.762314
1 Jan 2020 12:43:36.000,71.355,-80.294,23405.287336
1 Jan 2020 12:44:06.000,68.536,-80.312,23398.665466
1 Jan 2020 12:44:36.000,65.710,-80.317,23396.916596
1 Jan 2020 12:45:06.000,62.885,-80.309,23400.054799
1 Jan 2020 12:45:36.000,60.069,-80.286,23408.088258
1 Jan 2020 12:46:06.000,57.272,-80.250,23421.019232
1 Jan 2020 12:46:36.000,54.501,-80.200,23438.844048
1 Jan 2020 12:47:06.000,51.764,-80.137,23461.553178
1 Jan 2020 12:47:36.000,49.069,-80.062,23489.130999
1 Jan 2020 12:48:06.000,46.421,-79.975,23521.556225
1 Jan 2020 12:48:36.000,43.827,-79.877,23558.801735
1 Jan 2020 12:49:06.000,41.290,-79.769,23600.834710
1 Jan 2020 12:49:36.000,38.815,-79.651,23647.616744
1 Jan 2020 12:50:06.000,36.404,-79.524,23699.103963
1 Jan 2020 12:50:36.000,34.060,-79.390,23755.247296
1 Jan 2020 12:51:06.000,31.783,-79.249,23815.992099
1 Jan 2020 12:51:36.000,29.575,-79.101,23881.279102
1 Jan 2020 12:52:06.000,27.436,-78.949,23951.044078
1 Jan 2020 12:52:36.000,25.364,-78.792,24025.218156
1 Jan 2020 12:53:06.000,23.359,-78.632,24103.728022
1 Jan 2020 12:53:36.000,21.421,-78.470,24186.496122
1 Jan 2020 12:54:06.000,19.546,-78.306,24273.440886
1 Jan 2020 12:54:36.000,17.734,-78.140,24364.477148
1 Jan 2020 12:55:06.000,15.982,-77.975,24459.515546
1 Jan 2020 12:55:36.000,14.289,-77.810,24558.463978
1 Jan 2020 12:56:06.000,12.651,-77.646,24661.227021
1 Jan 2020 12:56:36.000,11.067,-77.484,24767.706358
1 Jan 2020 12:57:06.000,9.535,-77.324,24877.801006
1 Jan 2020 12:57:36.000,8.052,-77.167,24991.407542
1 Jan 2020 12:58:06.000,6.617,-77.013,25108.420327
1 Jan 2020 12:58:36.000,5.226,-76.863,25228.731724
1 Jan 2020 12:59:06.000,3.878,-76.718,25352.232312
1 Jan 2020 12:59:36.000,2.570,-76.577,25478.811369
1 Jan 2020 13:00:06.000,1.301,-76.440,25608.355983
1 Jan 2020 13:00:36.000,0.069,-76.310,25740.752880
1 Jan 2020 13:01:06.000,358.872,-76.184,25875.887528
1 Jan 2020 13:01:36.000,357.708,-76.065,26013.644591
1 Jan 2020 13:01:55.680,356.962,-75.990,26105.380646
1 Jan 2020 14:30:29.673,138.430,-75.989,26104.326186
1 Jan 2020 14:30:59.000,138.171,-76.135,25929.032826
1 Jan 2020 14:31:29.000,137.904,-76.297,25751.604340
1 Jan 2020 14:31:59.000,137.634,-76.471,25576.244525
1 Jan 2020 14:32:29.000,137.361,-76.658,25403.115923
1 Jan 2020 14:32:59.000,137.084,-76.857,25232.382775
1 Jan 2020 14:33:29.000,136.803,-77.068,25064.210842
1 Jan 2020 14:33:59.000,136.516,-77.292,24898.767210
1 Jan 2020 14:34:29.000,136.223,-77.528,24736.220070
1 Jan 2020 14:34:59.000,135.922,-77.778,24576.738486
1 Jan 2020 14:35:29.000,135.613,-78.039,24420.492131
1 Jan 2020 14:35:59.000,135.294,-78.313,24267.650720
1 Jan 2020 14:36:29.000,134.963,-78.600,24118.384878
1 Jan 2020 14:36:59.000,134.619,-78.899,23972.864053
1 Jan 2020 14:37:29.000,134.260,-79.211,23831.257350
1 Jan 2020 14:37:59.000,133.883,-79.534,23693.732874
1 Jan 2020 14:38:29.000,133.486,-79.870,23560.457337
1 Jan 2020 14:38:59.000,133.065,-80.217,23431.595655
1 Jan 2020 14:39:29.000,132.617,-80.575,23307.310286
1 Jan 2020 14:39:59.000,132.136,-80.945,23187.761734
1 Jan 2020 14:40:29.000,131.618,-81.326,23073.106660
1 Jan 2020 14:40:59.000,131.055,-81.716,22963.498370
1 Jan 2020 14:41:29.000,130.440,-82.117,22859.086093
1 Jan 2020 14:41:59.000,129.761,-82.528,22760.014489
1 Jan 2020 14:42:29.000,129.005,-82.947,22666.422971
1 Jan 2020 14:42:59.000,128.155,-83.374,22578.445944
1 Jan 2020 14:43:29.000,127.190,-83.809,22496.211193
1 Jan 2020 14:43:59.000,126.080,-84.251,22419.840145
1 Jan 2020 14:44:29.000,124.785,-84.698,22349.447202
1 Jan 2020 14:44:59.000,123.252,-85.150,22285.139163
1 Jan 2020 14:45:29.000,121.404,-85.604,22227.015234
1 Jan 2020 14:45:59.000,119.129,-86.059,22175.165902
1 Jan 2020 14:46:29.000,116.260,-86.512,22129.673017
1 Jan 2020 14:46:59.000,112.540,-86.958,22090.609301
1 Jan 2020 14:47:29.000,107.558,-87.392,22058.037967
1 Jan 2020 14:47:59.000,100.651,-87.802,22032.012657
1 Jan 2020 14:48:29.000,90.779,-88.169,22012.576821
1 Jan 2020 14:48:59.000,76.617,-88.459,21999.763772
1 Jan 2020 14:49:29.000,57.659,-88.620,21993.596457
1 Jan 2020 14:49:59.000,36.601,-88.606,21994.087361
1 Jan 2020 14:50:29.000,18.293,-88.422,22001.238415
1 Jan 2020 14:50:59.000,4.857,-88.117,22015.041013
1 Jan 2020 14:51:29.000,355.525,-87.742,22035.476050
1 Jan 2020 14:51:59.000,348.981,-87.327,22062.514013
1 Jan 2020 14:52:29.000,344.247,-86.890,22096.115201
1 Jan 2020 14:52:59.000,340.706,-86.441,22136.229615
1 Jan 2020 14:53:29.000,337.976,-85.987,22182.797621
1 Jan 2020 14:53:59.000,335.814,-85.531,22235.749957
1 Jan 2020 14:54:29.000,334.065,-85.076,22295.008113
1 Jan 2020 14:54:59.000,332.623,-84.624,22360.484822
1 Jan 2020 14:55:29.000,331.416,-84.176,22432.083915
1 Jan 2020 14:55:59.000,330.391,-83.734,22509.701509
1 Jan 2020 14:56:29.000,329.512,-83.299,22593.225941
1 Jan 2020 14:56:59.000,328.749,-82.871,22682.538351
1 Jan 2020 14:57:29.000,328.083,-82.451,22777.513148
1 Jan 2020 14:57:59.000,327.497,-82.041,22878.018720
1 Jan 2020 14:58:29.000,326.978,-81.640,22983.917062
1 Jan 2020 14:58:59.000,326.516,-81.249,23095.065540
1 Jan 2020 14:59:29.000,326.103,-80.869,23211.316554
1 Jan 2020 14:59:59.000,325.732,-80.499,23332.518227
1 Jan 2020 15:00:29.000,325.398,-80.141,23458.514896
1 Jan 2020 15:00:59.000,325.097,-79.794,23589.147576
1 Jan 2020 15:01:29.000,324.824,-79.459,23724.254704
1 Jan 2020 15:01:59.000,324.577,-79.136,23863.671487
1 Jan 2020 15:02:29.000,324.354,-78.825,24007.231956
1 Jan 2020 15:02:59.000,324.150,-78.527,24154.768306
1 Jan 2020 15:03:29.000,323.966,-78.241,24306.111550
1 Jan 2020 15:03:59.000,323.799,-77.968,24461.091889
1 Jan 2020 15:04:29.000,323.648,-77.707,24619.539069
1 Jan 2020 15:04:59.000,323.511,-77.460,24781.282700
1 Jan 2020 15:05:29.000,323.387,-77.224,24946.152569
1 Jan 2020 15:05:59.000,323.277,-77.002,25113.978926
1 Jan 2020 15:06:29.000,323.177,-76.792,25284.593072
1 Jan 2020 15:06:59.000,323.089,-76.595,25457.826291
1 Jan 2020 15:07:29.000,323.012,-76.411,25633.512038
1 Jan 2020 15:07:59.000,322.944,-76.239,25811.484836
1 Jan 2020 15:08:29.000,322.885,-76.080,25991.580784
1 Jan 2020 15:08:47.638,322.853,-75.987,26104.465573
1 Jan 2020 16:35:34.021,165.544,-75.992,26109.715996
1 Jan 2020 16:36:04.000,166.473,-76.121,25954.749097
1 Jan 2020 16:36:34.000,167.434,-76.258,25802.163869
1 Jan 2020 16:37:04.000,168.429,-76.403,25652.201583
1 Jan 2020 16:37:34.000,169.459,-76.555,25504.996229
1 Jan 2020 16:38:04.000,170.527,-76.715,25360.681453
1 Jan 2020 16:38:34.000,171.635,-76.882,25219.390348
1 Jan 2020 16:39:04.000,172.785,-77.056,25081.255239
1 Jan 2020 16:39:34.000,173.982,-77.236,24946.407450
1 Jan 2020 16:40:04.000,175.226,-77.422,24814.977062
1 Jan 2020 16:40:34.000,176.523,-77.614,24687.092404
1 Jan 2020 16:41:04.000,177.874,-77.811,24562.880849
1 Jan 2020 16:41:34.000,179.284,-78.013,24442.466944
1 Jan 2020 16:42:04.000,180.756,-78.218,24325.973208
1 Jan 2020 16:42:34.000,182.295,-78.427,24213.519576
1 Jan 2020 16:43:04.000,183.904,-78.639,24105.223105
1 Jan 2020 16:43:34.000,185.588,-78.852,24001.197686
1 Jan 2020 16:44:04.000,187.351,-79.067,23901.553536
1 Jan 2020 16:44:34.000,189.197,-79.281,23806.397720
1 Jan 2020 16:45:04.000,191.132,-79.495,23715.832607
1 Jan 2020 16:45:34.000,193.159,-79.706,23629.956411
1 Jan 2020 16:46:04.000,195.283,-79.915,23548.862683
1 Jan 2020 16:46:34.000,197.507,-80.119,23472.640023
1 Jan 2020 16:47:04.000,199.836,-80.317,23401.371653
1 Jan 2020 16:47:34.000,202.271,-80.509,23335.135732
1 Jan 2020 16:48:04.000,204.815,-80.692,23274.004206
1 Jan 2020 16:48:34.000,207.469,-80.866,23218.043164
1 Jan 2020 16:49:04.000,210.231,-81.028,23167.312459
1 Jan 2020 16:49:34.000,213.099,-81.178,23121.865493
1 Jan 2020 16:50:04.000,216.069,-81.314,23081.748935
1 Jan 2020 16:50:34.000,219.135,-81.434,23047.002930
1 Jan 2020 16:51:04.000,222.288,-81.538,23017.660368
1 Jan 2020 16:51:34.000,225.518,-81.624,22993.747164
1 Jan 2020 16:52:04.000,228.810,-81.692,22975.282057
1 Jan 2020 16:52:34.000,232.152,-81.739,22962.276540
1 Jan 2020 16:53:04.000,235.526,-81.767,22954.734796
1 Jan 2020 16:53:34.000,238.915,-81.775,22952.653795
1 Jan 2020 16:54:04.000,242.302,-81.762,22956.023120
1 Jan 2020 16:54:34.000,245.669,-81.730,22964.825150
1 Jan 2020 16:55:04.000,248.998,-81.677,22979.035086
1 Jan 2020 16:55:34.000,252.275,-81.605,22998.621057
1 Jan 2020 16:56:04.000,255.486,-81.516,23023.544279
1 Jan 2020 16:56:34.000,258.619,-81.409,23053.759050
1 Jan 2020 16:57:04.000,261.664,-81.286,23089.213138
1 Jan 2020 16:57:34.000,264.614,-81.149,23129.847848
1 Jan 2020 16:58:04.000,267.464,-80.999,23175.598263
1 Jan 2020 16:58:34.000,270.210,-80.837,23226.393480
1 Jan 2020 16:59:04.000,272.851,-80.665,23282.156961
1 Jan 2020 16:59:34.000,275.388,-80.484,23342.806415
1 Jan 2020 17:00:04.000,277.820,-80.295,23408.254640
1 Jan 2020 17:00:34.000,280.152,-80.100,23478.409446
1 Jan 2020 17:01:04.000,282.386,-79.900,23553.174046
1 Jan 2020 17:01:34.000,284.525,-79.697,23632.447356
1 Jan 2020 17:02:04.000,286.573,-79.491,23716.124311
1 Jan 2020 17:02:34.000,288.536,-79.283,23804.096334
1 Jan 2020 17:03:04.000,290.418,-79.075,23896.251002
1 Jan 2020 17:03:34.000,292.222,-78.867,23992.473319
1 Jan 2020 17:04:04.000,293.954,-78.660,24092.645391
1 Jan 2020 17:04:34.000,295.618,-78.456,24196.646884
1 Jan 2020 17:05:04.000,297.219,-78.254,24304.355322
1 Jan 2020 17:05:34.000,298.759,-78.055,24415.646377
1 Jan 2020 17:06:04.000,300.244,-77.860,24530.394148
1 Jan 2020 17:06:34.000,301.676,-77.670,24648.471437
1 Jan 2020 17:07:04.000,303.060,-77.485,24769.750243
1 Jan 2020 17:07:34.000,304.398,-77.304,24894.101088
1 Jan 2020 17:08:04.000,305.694,-77.130,25021.394632
1 Jan 2020 17:08:34.000,306.950,-76.961,25151.500992
1 Jan 2020 17:09:04.000,308.170,-76.799,25284.290186
1 Jan 2020 17:09:34.000,309.355,-76.644,25419.632331
1 Jan 2020 17:10:04.000,310.509,-76.495,25557.397841
1 Jan 2020 17:10:34.000,311.633,-76.353,25697.457601
1 Jan 2020 17:11:04.000,312.730,-76.218,25839.683137
1 Jan 2020 17:11:34.000,313.801,-76.091,25983.946772
1 Jan 2020 17:11:59.907,314.707,-75.987,26110.071540
1 Jan 2020 18:47:46.974,213.420,-75.993,26117.418851
1 Jan 2020 18:48:16.000,214.715,-76.088,26002.328634
1 Jan 2020 18:48:46.000,216.080,-76.189,25885.538132
1 Jan 2020 18:49:16.000,217.473,-76.295,25771.037945
1 Jan 2020 18:49:46.000,218.895,-76.404,25658.922980
1 Jan 2020 18:50:16.000,220.348,-76.516,25549.287710
1 Jan 2020 18:50:46.000,221.834,-76.632,25442.226043
1 Jan 2020 18:51:16.000,223.353,-76.750,25337.831184
1 Jan 2020 18:51:46.000,224.907,-76.870,25236.195491
1 Jan 2020 18:52:16.000,226.496,-76.993,25137.410326
1 Jan 2020 18:52:46.000,228.124,-77.117,25041.565904
1 Jan 2020 18:53:16.000,229.790,-77.242,24948.751133
1 Jan 2020 18:53:46.000,231.497,-77.368,24859.053263
1 Jan 2020 18:54:16.000,233.244,-77.495,24772.558490
1 Jan 2020 18:54:46.000,235.034,-77.621,24689.350626
1 Jan 2020 18:55:16.000,236.868,-77.746,24609.511706
1 Jan 2020 18:55:46.000,238.745,-77.871,24533.121625
1 Jan 2020 18:56:16.000,240.668,-77.993,24460.257963
1 Jan 2020 18:56:46.000,242.636,-78.114,24390.995809
1 Jan 2020 18:57:16.000,244.650,-78.231,24325.407593
1 Jan 2020 18:57:46.000,246.709,-78.345,24263.562914
1 Jan 2020 18:58:16.000,248.814,-78.454,24205.528246
1 Jan 2020 18:58:46.000,250.964,-78.559,24151.367271
1 Jan 2020 18:59:16.000,253.158,-78.659,24101.139961
1 Jan 2020 18:59:46.000,255.394,-78.753,24054.902935
1 Jan 2020 19:00:16.000,257.671,-78.841,24012.709178
1 Jan 2020 19:00:46.000,259.987,-78.921,23974.607895
1 Jan 2020 19:01:16.000,262.340,-78.994,23940.644378
1 Jan 2020 19:01:46.000,264.725,-79.059,23910.859878
1 Jan 2020 19:02:16.000,267.140,-79.115,23885.291441
1 Jan 2020 19:02:46.000,269.581,-79.163,23863.971993
1 Jan 2020 19:03:16.000,272.043,-79.201,23846.929943
1 Jan 2020 19:03:46.000,274.523,-79.230,23834.189305
1 Jan 2020 19:04:16.000,277.015,-79.249,23825.769575
1 Jan 2020 19:04:46.000,279.515,-79.259,23821.685669
1 Jan 2020 19:05:16.000,282.017,-79.258,23821.947876
1 Jan 2020 19:05:46.000,284.516,-79.247,23826.561844
1 Jan 2020 19:06:16.000,287.007,-79.227,23835.528493
1 Jan 2020 19:06:46.000,289.486,-79.196,23848.844098
1 Jan 2020 19:07:16.000,291.946,-79.156,23866.500247
1 Jan 2020 19:07:46.000,294.385,-79.107,23888.483876
1 Jan 2020 19:08:16.000,296.796,-79.049,23914.777297
1 Jan 2020 19:08:46.000,299.178,-78.982,23945.358255
1 Jan 2020 19:09:16.000,301.525,-78.908,23980.199987
1 Jan 2020 19:09:46.000,303.836,-78.825,24019.271392
1 Jan 2020 19:10:16.000,306.106,-78.736,24062.536734
1 Jan 2020 19:10:46.000,308.335,-78.639,24109.956305
1 Jan 2020 19:11:16.000,310.519,-78.537,24161.486166
1 Jan 2020 19:11:46.000,312.659,-78.430,24217.078351
1 Jan 2020 19:12:16.000,314.752,-78.318,24276.680997
1 Jan 2020 19:12:46.000,316.798,-78.201,24340.238478
1 Jan 2020 19:13:16.000,318.797,-78.081,24407.691545
1 Jan 2020 19:13:46.000,320.749,-77.958,24478.977636
1 Jan 2020 19:14:16.000,322.653,-77.833,24554.030410
1 Jan 2020 19:14:46.000,324.511,-77.706,24632.780818
1 Jan 2020 19:15:16.000,326.323,-77.578,24715.156668
1 Jan 2020 19:15:46.000,328.090,-77.449,24801.082935
1 Jan 2020 19:16:16.000,329.812,-77.320,24890.481931
1 Jan 2020 19:16:46.000,331.492,-77.191,24983.273473
1 Jan 2020 19:17:16.000,333.129,-77.064,25079.375048
1 Jan 2020 19:17:46.000,334.726,-76.937,25178.701986
1 Jan 2020 19:18:16.000,336.284,-76.812,25281.167625
1 Jan 2020 19:18:46.000,337.803,-76.690,25386.683705
1 Jan 2020 19:19:16.000,339.286,-76.570,25495.159620
1 Jan 2020 19:19:46.000,340.733,-76.453,25606.503935
1 Jan 2020 19:20:16.000,342.146,-76.339,25720.623646
1 Jan 2020 19:20:46.000,343.527,-76.229,25837.424549
1 Jan 2020 19:21:16.000,344.876,-76.122,25956.811397
1 Jan 2020 19:21:46.000,346.195,-76.020,26078.688036
1 Jan 2020 19:21:55.444,346.604,-75.988,26117.553179
1 Jan 2020 20:53:39.828,225.038,-75.992,26120.758848
1 Jan 2020 20:54:09.000,225.661,-76.128,25956.413726
1 Jan 2020 20:54:39.000,226.316,-76.279,25789.232602
1 Jan 2020 20:55:09.000,226.987,-76.441,25624.055292
1 Jan 2020 20:55:39.000,227.675,-76.613,25461.033599
1 Jan 2020 20:56:09.000,228.382,-76.796,25300.320836
1 Jan 2020 20:56:39.000,229.111,-76.990,25142.071664
1 Jan 2020 20:57:09.000,229.863,-77.194,24986.441901
1 Jan 2020 20:57:39.000,230.641,-77.409,24833.588326
1 Jan 2020 20:58:09.000,231.447,-77.634,24683.668460
1 Jan 2020 20:58:39.000,232.286,-77.869,24536.840327
1 Jan 2020 20:59:09.000,233.160,-78.114,24393.261937
1 Jan 2020 20:59:39.000,234.073,-78.369,24253.092059
1 Jan 2020 21:00:09.000,235.030,-78.634,24116.488353
1 Jan 2020 21:00:39.000,236.035,-78.908,23983.608108
1 Jan 2020 21:01:09.000,237.094,-79.191,23854.607656
1 Jan 2020 21:01:39.000,238.213,-79.482,23729.642015
1 Jan 2020 21:02:09.000,239.400,-79.782,23608.864532
1 Jan 2020 21:02:39.000,240.662,-80.088,23492.426498
1 Jan 2020 21:03:09.000,242.010,-80.402,23380.476529
1 Jan 2020 21:03:39.000,243.452,-80.721,23273.161076
1 Jan 2020 21:04:09.000,245.003,-81.045,23170.622612
1 Jan 2020 21:04:39.000,246.675,-81.373,23073.000145
1 Jan 2020 21:05:09.000,248.484,-81.704,22980.428546
1 Jan 2020 21:05:39.000,250.450,-82.037,22893.038109
1 Jan 2020 21:06:09.000,252.593,-82.369,22810.953967
1 Jan 2020 21:06:39.000,254.936,-82.699,22734.296251
1 Jan 2020 21:07:09.000,257.507,-83.025,22663.178743
1 Jan 2020 21:07:39.000,260.335,-83.344,22597.709075
1 Jan 2020 21:08:09.000,263.451,-83.654,22537.988152
1 Jan 2020 21:08:39.000,266.888,-83.951,22484.109762
1 Jan 2020 21:09:09.000,270.678,-84.231,22436.160110
1 Jan 2020 21:09:39.000,274.849,-84.491,22394.217820
1 Jan 2020 21:10:09.000,279.420,-84.726,22358.353048
1 Jan 2020 21:10:39.000,284.396,-84.930,22328.627567
1 Jan 2020 21:11:09.000,289.759,-85.098,22305.094400
1 Jan 2020 21:11:39.000,295.462,-85.226,22287.797568
1 Jan 2020 21:12:09.000,301.430,-85.310,22276.771980
1 Jan 2020 21:12:39.000,307.557,-85.347,22272.043133
1 Jan 2020 21:13:09.000,313.716,-85.335,22273.627104
1 Jan 2020 21:13:39.000,319.778,-85.274,22281.530447
1 Jan 2020 21:14:09.000,325.626,-85.167,22295.750211
1 Jan 2020 21:14:39.000,331.166,-85.018,22316.273788
1 Jan 2020 21:15:09.000,336.335,-84.830,22343.079196
1 Jan 2020 21:15:39.000,341.101,-84.608,22376.135046
1 Jan 2020 21:16:09.000,345.458,-84.359,22415.400707
1 Jan 2020 21:16:39.000,349.416,-84.085,22460.826596
1 Jan 2020 21:17:09.000,353.001,-83.793,22512.353995
1 Jan 2020 21:17:39.000,356.242,-83.486,22569.915885
1 Jan 2020 21:18:09.000,359.172,-83.168,22633.436860
1 Jan 2020 21:18:39.000,1.823,-82.841,22702.833530
1 Jan 2020 21:19:09.000,4.226,-82.509,22778.014868
1 Jan 2020 21:19:39.000,6.410,-82.173,22858.882760
1 Jan 2020 21:20:09.000,8.399,-81.836,22945.331653
1 Jan 2020 21:20:39.000,10.216,-81.499,23037.250044
1 Jan 2020 21:21:09.000,11.880,-81.165,23134.520181
1 Jan 2020 21:21:39.000,13.409,-80.834,23237.018661
1 Jan 2020 21:22:09.000,14.818,-80.507,23344.616858
1 Jan 2020 21:22:39.000,16.120,-80.186,23457.181352
1 Jan 2020 21:23:09.000,17.326,-79.871,23574.574626
1 Jan 2020 21:23:39.000,18.446,-79.563,23696.654445
1 Jan 2020 21:24:09.000,19.489,-79.263,23823.275831
1 Jan 2020 21:24:39.000,20.463,-78.972,23954.290451
1 Jan 2020 21:25:09.000,21.374,-78.689,24089.547272
1 Jan 2020 21:25:39.000,22.228,-78.416,24228.892952
1 Jan 2020 21:26:09.000,23.031,-78.152,24372.172213
1 Jan 2020 21:26:39.000,23.787,-77.899,24519.228208
1 Jan 2020 21:27:09.000,24.499,-77.656,24669.903152
1 Jan 2020 21:27:39.000,25.172,-77.423,24824.037493
1 Jan 2020 21:28:09.000,25.809,-77.201,24981.471953
1 Jan 2020 21:28:39.000,26.413,-76.991,25142.046671
1 Jan 2020 21:29:09.000,26.986,-76.791,25305.601766
1 Jan 2020 21:29:39.000,27.530,-76.602,25471.977591
1 Jan 2020 21:30:09.000,28.048,-76.425,25641.014972
1 Jan 2020 21:30:39.000,28.542,-76.258,25812.555430
1 Jan 2020 21:31:09.000,29.012,-76.103,25986.441381
1 Jan 2020 21:31:31.931,29.358,-75.992,26120.837718
1 Jan 2020 22:57:16.813,206.102,-75.988,26117.332459
1 Jan 2020 22:57:46.000,205.534,-76.128,25950.399454
1 Jan 2020 22:58:16.000,204.926,-76.281,25781.083572
1 Jan 2020 22:58:46.000,204.290,-76.445,25614.215480
1 Jan 2020 22:59:16.000,203.626,-76.619,25449.948343
1 Jan 2020 22:59:46.000,202.932,-76.804,25288.435898
1 Jan 2020 23:00:16.000,202.203,-76.998,25129.832242
1 Jan 2020 23:00:46.000,201.439,-77.203,24974.291605
1 Jan 2020 23:01:16.000,200.636,-77.418,24821.968112
1 Jan 2020 23:01:46.000,199.791,-77.642,24673.015517
1 Jan 2020 23:02:16.000,198.900,-77.876,24527.586649
1 Jan 2020 23:02:46.000,197.960,-78.119,24385.834253
1 Jan 2020 23:03:16.000,196.965,-78.371,24247.908973
1 Jan 2020 23:03:46.000,195.912,-78.630,24113.960170
1 Jan 2020 23:04:16.000,194.794,-78.898,23984.135302
1 Jan 2020 23:04:46.000,193.606,-79.173,23858.579568
1 Jan 2020 23:05:16.000,192.340,-79.454,23737.435548
1 Jan 2020 23:05:46.000,190.989,-79.741,23620.842588
1 Jan 2020 23:06:16.000,189.545,-80.033,23508.937368
1 Jan 2020 23:06:46.000,187.998,-80.329,23401.852074
1 Jan 2020 23:07:16.000,186.337,-80.629,23299.714967
1 Jan 2020 23:07:46.000,184.551,-80.930,23202.649737
1 Jan 2020 23:08:16.000,182.627,-81.231,23110.775107
1 Jan 2020 23:08:46.000,180.550,-81.532,23024.204253
1 Jan 2020 23:09:16.000,178.306,-81.830,22943.045137
1 Jan 2020 23:09:46.000,175.878,-82.124,22867.399023
1 Jan 2020 23:10:16.000,173.250,-82.411,22797.360843
1 Jan 2020 23:10:46.000,170.404,-82.689,22733.018656
1 Jan 2020 23:11:16.000,167.323,-82.956,22674.453302
1 Jan 2020 23:11:46.000,163.993,-83.208,22621.737965
1 Jan 2020 23:12:16.000,160.403,-83.443,22574.938373
1 Jan 2020 23:12:46.000,156.547,-83.657,22534.111757
1 Jan 2020 23:13:16.000,152.427,-83.847,22499.307145
1 Jan 2020 23:13:46.000,148.055,-84.010,22470.565009
1 Jan 2020 23:14:16.000,143.454,-84.142,22447.917051
1 Jan 2020 23:14:46.000,138.663,-84.241,22431.386267
1 Jan 2020 23:15:16.000,133.731,-84.304,22420.986519
1 Jan 2020 23:15:46.000,128.719,-84.331,22416.722706
1 Jan 2020 23:16:16.000,123.694,-84.319,22418.590680
1 Jan 2020 23:16:46.000,118.723,-84.271,22426.577272
1 Jan 2020 23:17:16.000,113.870,-84.186,22440.660326
1 Jan 2020 23:17:46.000,109.189,-84.067,22460.808814
1 Jan 2020 23:18:16.000,104.720,-83.917,22486.982972
1 Jan 2020 23:18:46.000,100.493,-83.739,22519.134463
1 Jan 2020 23:19:16.000,96.522,-83.536,22557.206589
1 Jan 2020 23:19:46.000,92.813,-83.312,22601.134617
1 Jan 2020 23:20:16.000,89.361,-83.069,22650.845701
1 Jan 2020 23:20:46.000,86.159,-82.811,22706.259683
1 Jan 2020 23:21:16.000,83.190,-82.541,22767.289094
1 Jan 2020 23:21:46.000,80.440,-82.262,22833.839575
1 Jan 2020 23:22:16.000,77.891,-81.975,22905.810239
1 Jan 2020 23:22:46.000,75.526,-81.684,22983.094202
1 Jan 2020 23:23:16.000,73.329,-81.389,23065.578383
1 Jan 2020 23:23:46.000,71.284,-81.093,23153.144774
1 Jan 2020 23:24:16.000,69.377,-80.797,23245.670280
1 Jan 2020 23:24:46.000,67.594,-80.503,23343.027264
1 Jan 2020 23:25:16.000,65.922,-80.211,23445.083964
1 Jan 2020 23:25:46.000,64.352,-79.923,23551.704894
1 Jan 2020 23:26:16.000,62.874,-79.639,23662.751466
1 Jan 2020 23:26:46.000,61.478,-79.361,23778.081531
1 Jan 2020 23:27:16.000,60.156,-79.089,23897.551036
1 Jan 2020 23:27:46.000,58.902,-78.824,24021.013563
1 Jan 2020 23:28:16.000,57.709,-78.566,24148.320898
1 Jan 2020 23:28:46.000,56.571,-78.315,24279.323380
1 Jan 2020 23:29:16.000,55.483,-78.073,24413.870241
1 Jan 2020 23:29:46.000,54.441,-77.840,24551.809920
1 Jan 2020 23:30:16.000,53.440,-77.615,24692.990368
1 Jan 2020 23:30:46.000,52.477,-77.400,24837.259337
1 Jan 2020 23:31:16.000,51.548,-77.193,24984.464939
1 Jan 2020 23:31:46.000,50.650,-76.996,25134.454727
1 Jan 2020 23:32:16.000,49.781,-76.809,25287.077681
1 Jan 2020 23:32:46.000,48.938,-76.631,25442.183264
1 Jan 2020 23:33:16.000,48.118,-76.464,25599.621914
1 Jan 2020 23:33:46.000,47.320,-76.306,25759.245222
1 Jan 2020 23:34:16.000,46.541,-76.157,25920.906110
1 Jan 2020 23:34:46.000,45.780,-76.019,26084.458978
1 Jan 2020 23:34:51.921,45.632,-75.993,26116.949851
2 Jan 2020 01:07:47.853,160.939,-75.986,26109.556294
2 Jan 2020 01:08:17.000,159.638,-76.081,25993.745721
2 Jan 2020 01:08:47.000,158.271,-76.183,25876.907751
2 Jan 2020 01:09:17.000,156.874,-76.289,25762.559381
2 Jan 2020 01:09:47.000,155.446,-76.398,25650.792923
2 Jan 2020 01:10:17.000,153.985,-76.510,25541.699778
2 Jan 2020 01:10:47.000,152.491,-76.625,25435.370301
2 Jan 2020 01:11:17.000,150.962,-76.742,25331.893656
2 Jan 2020 01:11:47.000,149.397,-76.862,25231.357668
2 Jan 2020 01:12:17.000,147.795,-76.982,25133.848679
2 Jan 2020 01:12:47.000,146.154,-77.105,25039.451389
2 Jan 2020 01:13:17.000,144.473,-77.228,24948.248506
2 Jan 2020 01:13:47.000,142.752,-77.351,24860.321378
2 Jan 2020 01:14:17.000,140.988,-77.474,24775.748643
2 Jan 2020 01:14:47.000,139.183,-77.597,24694.606864
2 Jan 2020 01:15:17.000,137.334,-77.719,24616.970174
2 Jan 2020 01:15:47.000,135.441,-77.839,24542.910112
2 Jan 2020 01:16:17.000,133.504,-77.956,24472.495464
2 Jan 2020 01:16:47.000,131.522,-78.071,24405.792108
2 Jan 2020 01:17:17.000,129.496,-78.183,24342.862736
2 Jan 2020 01:17:47.000,127.426,-78.291,24283.767210
2 Jan 2020 01:18:17.000,125.312,-78.394,24228.561646
2 Jan 2020 01:18:47.000,123.156,-78.492,24177.298791
2 Jan 2020 01:19:17.000,120.959,-78.585,24130.027764
2 Jan 2020 01:19:47.000,118.723,-78.671,24086.793926
2 Jan 2020 01:20:17.000,116.448,-78.751,24047.638759
2 Jan 2020 01:20:47.000,114.139,-78.824,24012.599760
2 Jan 2020 01:21:17.000,111.798,-78.889,23981.710268
2 Jan 2020 01:21:47.000,109.428,-78.946,23954.999656
2 Jan 2020 01:22:17.000,107.032,-78.995,23932.492818
2 Jan 2020 01:22:47.000,104.614,-79.035,23914.210394
2 Jan 2020 01:23:17.000,102.180,-79.066,23900.168640
2 Jan 2020 01:23:47.000,99.732,-79.088,23890.379381
2 Jan 2020 01:24:17.000,97.276,-79.100,23884.849979
2 Jan 2020 01:24:47.000,94.816,-79.103,23883.583311
2 Jan 2020 01:25:17.000,92.356,-79.097,23886.577779
2 Jan 2020 01:25:47.000,89.903,-79.081,23893.827278
2 Jan 2020 01:26:17.000,87.460,-79.055,23905.321248
2 Jan 2020 01:26:47.000,85.032,-79.021,23921.044698
2 Jan 2020 01:27:17.000,82.623,-78.978,23940.978245
2 Jan 2020 01:27:47.000,80.237,-78.926,23965.098175
2 Jan 2020 01:28:17.000,77.877,-78.866,23993.376511
2 Jan 2020 01:28:47.000,75.548,-78.799,24025.781165
2 Jan 2020 01:29:17.000,73.252,-78.723,24062.275743
2 Jan 2020 01:29:47.000,70.991,-78.642,24102.820062
2 Jan 2020 01:30:17.000,68.769,-78.553,24147.369992
2 Jan 2020 01:30:47.000,66.586,-78.459,24195.877639
2 Jan 2020 01:31:17.000,64.444,-78.360,24248.291476
2 Jan 2020 01:31:47.000,62.345,-78.256,24304.556474
2 Jan 2020 01:32:17.000,60.288,-78.147,24364.614243
2 Jan 2020 01:32:47.000,58.275,-78.035,24428.403312
2 Jan 2020 01:33:17.000,56.306,-77.920,24495.858763
2 Jan 2020 01:33:47.000,54.380,-77.803,24566.913148
2 Jan 2020 01:34:17.000,52.498,-77.684,24641.496149
2 Jan 2020 01:34:47.000,50.658,-77.563,24719.534858
2 Jan 2020 01:35:17.000,48.861,-77.441,24800.953943
2 Jan 2020 01:35:47.000,47.104,-77.319,24885.675808
2 Jan 2020 01:36:17.000,45.388,-77.198,24973.620757
2 Jan 2020 01:36:47.000,43.712,-77.076,25064.707153
2 Jan 2020 01:37:17.000,42.073,-76.956,25158.851582
2 Jan 2020 01:37:47.000,40.472,-76.837,25255.969212
2 Jan 2020 01:38:17.000,38.907,-76.719,25355.973145
2 Jan 2020 01:38:47.000,37.376,-76.604,25458.775764
2 Jan 2020 01:39:17.000,35.878,-76.492,25564.288095
2 Jan 2020 01:39:47.000,34.413,-76.382,25672.420143
2 Jan 2020 01:40:17.000,32.979,-76.275,25783.081038
2 Jan 2020 01:40:47.000,31.574,-76.172,25896.179167
2 Jan 2020 01:41:17.000,30.197,-76.072,26011.622307
2 Jan 2020 01:41:41.980,29.071,-75.992,26109.470582
2 Jan 2020 03:16:41.552,134.198,-75.987,26104.384736
2 Jan 2020 03:17:11.000,133.256,-76.112,25954.793958
2 Jan 2020 03:17:41.000,132.274,-76.246,25804.278157
2 Jan 2020 03:18:11.000,131.268,-76.389,25655.792268
2 Jan 2020 03:18:41.000,130.236,-76.540,25509.471160
2 Jan 2020 03:19:11.000,129.175,-76.699,25365.450708
2 Jan 2020 03:19:41.000,128.084,-76.866,25223.867627
2 Jan 2020 03:20:11.000,126.960,-77.040,25084.859301
2 Jan 2020 03:20:41.000,125.800,-77.222,24948.563594
2 Jan 2020 03:21:11.000,124.601,-77.411,24815.118650
2 Jan 2020 03:21:41.000,123.360,-77.606,24684.662674
2 Jan 2020 03:22:11.000,122.073,-77.808,24557.333707
2 Jan 2020 03:22:41.000,120.737,-78.016,24433.269133
2 Jan 2020 03:23:11.000,119.348,-78.230,24312.606415
2 Jan 2020 03:23:41.000,117.901,-78.449,24195.481324
2 Jan 2020 03:24:11.000,116.392,-78.672,24082.028668
2 Jan 2020 03:24:41.000,114.816,-78.900,23972.381733
2 Jan 2020 03:25:11.000,113.167,-79.130,23866.671987
2 Jan 2020 03:25:41.000,111.440,-79.363,23765.028755
2 Jan 2020 03:26:11.000,109.629,-79.597,23667.578897
2 Jan 2020 03:26:41.000,107.727,-79.833,23574.446295
2 Jan 2020 03:27:11.000,105.728,-80.067,23485.752238
2 Jan 2020 03:27:41.000,103.626,-80.300,23401.613975
2 Jan 2020 03:28:11.000,101.414,-80.531,23322.145111
2 Jan 2020 03:28:41.000,99.085,-80.757,23247.455074
2 Jan 2020 03:29:11.000,96.633,-80.977,23177.648769
2 Jan 2020 03:29:41.000,94.053,-81.190,23112.826233
2 Jan 2020 03:30:11.000,91.340,-81.394,23053.082191
2 Jan 2020 03:30:41.000,88.491,-81.588,22998.506188
2 Jan 2020 03:31:11.000,85.505,-81.769,22949.181564
2 Jan 2020 03:31:41.000,82.383,-81.936,22905.185640
2 Jan 2020 03:32:11.000,79.128,-82.087,22866.589305
2 Jan 2020 03:32:41.000,75.749,-82.220,22833.456749
2 Jan 2020 03:33:11.000,72.255,-82.334,22805.845184
2 Jan 2020 03:33:41.000,68.661,-82.426,22783.804777
2 Jan 2020 03:34:11.000,64.985,-82.496,22767.378199
2 Jan 2020 03:34:41.000,61.249,-82.542,22756.600635
2 Jan 2020 03:35:11.000,57.476,-82.564,22751.499593
2 Jan 2020 03:35:41.000,53.693,-82.562,22752.094794
2 Jan 2020 03:36:11.000,49.925,-82.534,22758.398128
2 Jan 2020 03:36:41.000,46.198,-82.483,22770.413470
2 Jan 2020 03:37:11.000,42.537,-82.408,22788.136843
2 Jan 2020 03:37:41.000,38.962,-82.310,22811.556328
2 Jan 2020 03:38:11.000,35.491,-82.191,22840.652130
2 Jan 2020 03:38:41.000,32.140,-82.052,22875.396663
2 Jan 2020 03:39:11.000,28.918,-81.896,22915.754757
2 Jan 2020 03:39:41.000,25.833,-81.723,22961.683394
2 Jan 2020 03:40:11.000,22.889,-81.536,23013.132466
2 Jan 2020 03:40:41.000,20.086,-81.336,23070.044584
2 Jan 2020 03:41:11.000,17.423,-81.125,23132.355391
2 Jan 2020 03:41:41.000,14.898,-80.906,23199.993798
2 Jan 2020 03:42:11.000,12.506,-80.679,23272.882409
2 Jan 2020 03:42:41.000,10.241,-80.446,23350.937159
2 Jan 2020 03:43:11.000,8.097,-80.209,23434.068550
2 Jan 2020 03:43:41.000,6.068,-79.970,23522.181344
2 Jan 2020 03:44:11.000,4.146,-79.729,23615.175023
2 Jan 2020 03:44:41.000,2.327,-79.487,23712.944124
2 Jan 2020 03:45:11.000,0.602,-79.246,23815.378564
2 Jan 2020 03:45:41.000,358.966,-79.007,23922.364209
2 Jan 2020 03:46:11.000,357.413,-78.771,24033.782290
2 Jan 2020 03:46:41.000,355.937,-78.538,24149.511104
2 Jan 2020 03:47:11.000,354.533,-78.310,24269.425444
2 Jan 2020 03:47:41.000,353.196,-78.086,24393.397152
2 Jan 2020 03:48:11.000,351.921,-77.868,24521.295439
2 Jan 2020 03:48:41.000,350.705,-77.656,24652.987199
2 Jan 2020 03:49:11.000,349.542,-77.450,24788.337318
2 Jan 2020 03:49:41.000,348.430,-77.252,24927.208963
2 Jan 2020 03:50:11.000,347.365,-77.061,25069.464170
2 Jan 2020 03:50:41.000,346.344,-76.877,25214.962930
2 Jan 2020 03:51:11.000,345.364,-76.702,25363.565216
2 Jan 2020 03:51:41.000,344.422,-76.535,25515.130063
2 Jan 2020 03:52:11.000,343.515,-76.376,25669.516091
2 Jan 2020 03:52:41.000,342.643,-76.226,25826.581728
2 Jan 2020 03:53:11.000,341.801,-76.085,25986.185418
2 Jan 2020 03:53:32.882,341.206,-75.988,26104.119878
2 Jan 2020 05:19:49.368,145.241,-75.990,26105.607310
2 Jan 2020 05:20:19.000,145.432,-76.139,25927.384968
2 Jan 2020 05:20:49.000,145.638,-76.302,25749.025461
2 Jan 2020 05:21:19.000,145.859,-76.477,25572.913434
2 Jan 2020 05:21:49.000,146.095,-76.665,25399.212423
2 Jan 2020 05:22:19.000,146.348,-76.864,25228.087296
2 Jan 2020 05:22:49.000,146.619,-77.077,25059.704056
2 Jan 2020 05:23:19.000,146.910,-77.301,24894.229624
2 Jan 2020 05:23:49.000,147.221,-77.538,24731.831601
2 Jan 2020 05:24:19.000,147.555,-77.787,24572.678017
2 Jan 2020 05:24:49.000,147.914,-78.049,24416.937050
2 Jan 2020 05:25:19.000,148.300,-78.322,24264.776416
2 Jan 2020 05:25:49.000,148.716,-78.608,24116.364314
2 Jan 2020 05:26:19.000,149.165,-78.905,23971.867181
2 Jan 2020 05:26:49.000,149.651,-79.214,23831.450614
2 Jan 2020 05:27:19.000,150.177,-79.534,23695.278663
2 Jan 2020 05:27:49.000,150.749,-79.866,23563.513443
2 Jan 2020 05:28:19.000,151.373,-80.208,23436.314711
2 Jan 2020 05:28:49.000,152.055,-80.560,23313.839192
2 Jan 2020 05:29:19.000,152.803,-80.922,23196.241130
2 Jan 2020 05:29:49.000,153.626,-81.294,23083.670320
2 Jan 2020 05:30:19.000,154.538,-81.674,22976.272657
2 Jan 2020 05:30:49.000,155.551,-82.063,22874.189406
2 Jan 2020 05:31:19.000,156.684,-82.458,22777.556719
2 Jan 2020 05:31:49.000,157.958,-82.860,22686.504974
2 Jan 2020 05:32:19.000,159.399,-83.267,22601.159055
2 Jan 2020 05:32:49.000,161.041,-83.678,22521.636724
2 Jan 2020 05:33:19.000,162.928,-84.090,22448.048941
2 Jan 2020 05:33:49.000,165.115,-84.503,22380.499227
2 Jan 2020 05:34:19.000,167.673,-84.914,22319.083113
2 Jan 2020 05:34:49.000,170.693,-85.319,22263.888212
2 Jan 2020 05:35:19.000,174.296,-85.715,22214.993113
2 Jan 2020 05:35:49.000,178.633,-86.095,22172.467529
2 Jan 2020 05:36:19.000,183.893,-86.453,22136.371855
2 Jan 2020 05:36:49.000,190.290,-86.779,22106.756834
2 Jan 2020 05:37:19.000,198.030,-87.060,22083.663570
2 Jan 2020 05:37:49.000,207.217,-87.279,22067.122941
2 Jan 2020 05:38:19.000,217.713,-87.421,22057.155733
2 Jan 2020 05:38:49.000,229.020,-87.471,22053.772461
2 Jan 2020 05:39:19.000,240.335,-87.423,22056.973330
2 Jan 2020 05:39:49.000,250.858,-87.283,22066.748218
2 Jan 2020 05:40:19.000,260.080,-87.066,22083.076725
2 Jan 2020 05:40:49.000,267.860,-86.787,22105.928281
2 Jan 2020 05:41:19.000,274.300,-86.463,22135.262287
2 Jan 2020 05:41:49.000,279.605,-86.107,22171.028371
2 Jan 2020 05:42:19.000,283.988,-85.728,22213.166353
2 Jan 2020 05:42:49.000,287.639,-85.335,22261.606909
2 Jan 2020 05:43:19.000,290.710,-84.932,22316.271637
2 Jan 2020 05:43:49.000,293.322,-84.523,22377.073464
2 Jan 2020 05:44:19.000,295.567,-84.112,22443.917151
2 Jan 2020 05:44:49.000,297.517,-83.702,22516.699207
2 Jan 2020 05:45:19.000,299.226,-83.294,22595.309039
2 Jan 2020 05:45:49.000,300.739,-82.889,22679.628933
2 Jan 2020 05:46:19.000,302.089,-82.490,22769.534632
2 Jan 2020 05:46:49.000,303.303,-82.097,22864.895811
2 Jan 2020 05:47:19.000,304.402,-81.711,22965.576756
2 Jan 2020 05:47:49.000,305.405,-81.334,23071.436061
2 Jan 2020 05:48:19.000,306.325,-80.964,23182.328281
2 Jan 2020 05:48:49.000,307.175,-80.605,23298.103646
2 Jan 2020 05:49:19.000,307.963,-80.255,23418.608720
2 Jan 2020 05:49:49.000,308.699,-79.915,23543.686867
2 Jan 2020 05:50:19.000,309.389,-79.586,23673.178704
2 Jan 2020 05:50:49.000,310.039,-79.267,23806.922789
2 Jan 2020 05:51:19.000,310.653,-78.960,23944.755039
2 Jan 2020 05:51:49.000,311.237,-78.665,24086.510629
2 Jan 2020 05:52:19.000,311.793,-78.381,24232.023388
2 Jan 2020 05:52:49.000,312.325,-78.108,24381.126411
2 Jan 2020 05:53:19.000,312.836,-77.848,24533.652398
2 Jan 2020 05:53:49.000,313.328,-77.600,24689.433984
2 Jan 2020 05:54:19.000,313.804,-77.363,24848.304037
2 Jan 2020 05:54:49.000,314.264,-77.139,25010.095941
2 Jan 2020 05:55:19.000,314.712,-76.927,25174.643855
2 Jan 2020 05:55:49.000,315.148,-76.727,25341.782956
2 Jan 2020 05:56:19.000,315.573,-76.539,25511.349980
2 Jan 2020 05:56:49.000,315.990,-76.363,25683.182127
2 Jan 2020 05:57:19.000,316.399,-76.198,25857.119181
2 Jan 2020 05:57:49.000,316.800,-76.046,26033.002386
2 Jan 2020 05:58:01.344,316.964,-75.986,26105.899653
2 Jan 2020 07:27:35.553,182.442,-75.993,26112.653020
2 Jan 2020 07:28:05.000,183.634,-76.101,25982.175309
2 Jan 2020 07:28:35.000,184.880,-76.216,25851.759365
2 Jan 2020 07:29:05.000,186.158,-76.336,25723.986030
2 Jan 2020 07:29:35.000,187.471,-76.460,25598.962566
2 Jan 2020 07:30:05.000,188.820,-76.589,25476.795251
2 Jan 2020 07:30:35.000,190.207,-76.722,25357.589203
2 Jan 2020 07:31:05.000,191.634,-76.859,25241.448206
2 Jan 2020 07:31:35.000,193.102,-76.999,25128.474524
2 Jan 2020 07:32:05.000,194.614,-77.142,25018.768720
2 Jan 2020 07:32:35.000,196.170,-77.287,24912.429242
2 Jan 2020 07:33:05.000,197.774,-77.434,24809.553107
2 Jan 2020 07:33:35.000,199.426,-77.583,24710.234373
2 Jan 2020 07:34:05.000,201.129,-77.732,24614.564834
2 Jan 2020 07:34:35.000,202.884,-77.882,24522.633591
2 Jan 2020 07:35:05.000,204.692,-78.031,24434.526846
2 Jan 2020 07:35:35.000,206.556,-78.179,24350.327705
2 Jan 2020 07:36:05.000,208.476,-78.326,24270.115972
2 Jan 2020 07:36:35.000,210.453,-78.470,24193.967785
2 Jan 2020 07:37:05.000,212.489,-78.611,24121.956103
2 Jan 2020 07:37:35.000,214.583,-78.748,24054.149479
2 Jan 2020 07:38:05.000,216.736,-78.880,23990.612577
2 Jan 2020 07:38:35.000,218.947,-79.007,23931.405816
2 Jan 2020 07:39:05.000,221.215,-79.127,23876.585203
2 Jan 2020 07:39:35.000,223.540,-79.241,23826.202176
2 Jan 2020 07:40:05.000,225.918,-79.347,23780.303351
2 Jan 2020 07:40:35.000,228.348,-79.445,23738.930804
2 Jan 2020 07:41:05.000,230.826,-79.533,23702.121308
2 Jan 2020 07:41:35.000,233.348,-79.612,23669.906662
2 Jan 2020 07:42:05.000,235.910,-79.681,23642.313478
2 Jan 2020 07:42:35.000,238.507,-79.738,23619.363108
2 Jan 2020 07:43:05.000,241.133,-79.785,23601.071578
2 Jan 2020 07:43:35.000,243.782,-79.820,23587.449504
2 Jan 2020 07:44:05.000,246.447,-79.843,23578.502219
2 Jan 2020 07:44:35.000,249.121,-79.853,23574.229511
2 Jan 2020 07:45:05.000,251.798,-79.852,23574.625804
2 Jan 2020 07:45:35.000,254.471,-79.839,23579.680135
2 Jan 2020 07:46:05.000,257.133,-79.814,23589.376191
2 Jan 2020 07:46:35.000,259.776,-79.777,23603.692369
2 Jan 2020 07:47:05.000,262.396,-79.729,23622.601881
2 Jan 2020 07:47:35.000,264.985,-79.670,23646.072720
2 Jan 2020 07:48:05.000,267.539,-79.600,23674.067934
2 Jan 2020 07:48:35.000,270.053,-79.521,23706.545646
2 Jan 2020 07:49:05.000,272.523,-79.432,23743.459206
2 Jan 2020 07:49:35.000,274.945,-79.334,23784.757341
2 Jan 2020 07:50:05.000,277.317,-79.229,23830.384309
2 Jan 2020 07:50:35.000,279.636,-79.116,23880.280165
2 Jan 2020 07:51:05.000,281.902,-78.997,23934.380572
2 Jan 2020 07:51:35.000,284.112,-78.872,23992.617521
2 Jan 2020 07:52:05.000,286.266,-78.743,24054.919179
2 Jan 2020 07:52:35.000,288.364,-78.609,24121.210172
2 Jan 2020 07:53:05.000,290.407,-78.471,24191.411791
2 Jan 2020 07:53:35.000,292.395,-78.331,24265.442194
2 Jan 2020 07:54:05.000,294.329,-78.188,24343.216623
2 Jan 2020 07:54:35.000,296.211,-78.044,24424.647766
