STKdata/stk_70fov_4leo/Satellite-MEO_Satellite10203-To-Satellite-LEO_Satellite10000 AER.csv

"Time (UTCG)","Azimuth (deg)","Elevation (deg)","Range (km)"
1 Jan 2020 01:11:13.039,5.484,-75.989,26116.079808
1 Jan 2020 01:11:43.000,7.169,-76.100,25981.608636
1 Jan 2020 01:12:13.000,8.901,-76.216,25851.130003
1 Jan 2020 01:12:43.000,10.681,-76.334,25725.035860
1 Jan 2020 01:13:13.000,12.510,-76.456,25603.539826
1 Jan 2020 01:13:43.000,14.392,-76.579,25486.851950
1 Jan 2020 01:14:13.000,16.326,-76.703,25375.178075
1 Jan 2020 01:14:43.000,18.315,-76.827,25268.719045
1 Jan 2020 01:15:13.000,20.360,-76.951,25167.670613
1 Jan 2020 01:15:43.000,22.461,-77.073,25072.221885
1 Jan 2020 01:16:13.000,24.619,-77.193,24982.555235
1 Jan 2020 01:16:43.000,26.834,-77.308,24898.845468
1 Jan 2020 01:17:13.000,29.105,-77.420,24821.259144
1 Jan 2020 01:17:43.000,31.430,-77.526,24749.953813
1 Jan 2020 01:18:13.000,33.809,-77.625,24685.077759
1 Jan 2020 01:18:43.000,36.238,-77.716,24626.768760
1 Jan 2020 01:19:13.000,38.715,-77.799,24575.153903
1 Jan 2020 01:19:43.000,41.234,-77.873,24530.348914
1 Jan 2020 01:20:13.000,43.792,-77.936,24492.457590
1 Jan 2020 01:20:43.000,46.382,-77.989,24461.571471
1 Jan 2020 01:21:13.000,49.000,-78.030,24437.769168
1 Jan 2020 01:21:43.000,51.637,-78.059,24421.116161
1 Jan 2020 01:22:13.000,54.288,-78.076,24411.664438
1 Jan 2020 01:22:43.000,56.944,-78.080,24409.452273
1 Jan 2020 01:23:13.000,59.599,-78.071,24414.503944
1 Jan 2020 01:23:43.000,62.244,-78.050,24426.829749
1 Jan 2020 01:24:13.000,64.873,-78.016,24446.425887
1 Jan 2020 01:24:43.000,67.477,-77.970,24473.274499
1 Jan 2020 01:25:13.000,70.052,-77.913,24507.343860
1 Jan 2020 01:25:43.000,72.589,-77.844,24548.588186
1 Jan 2020 01:26:13.000,75.084,-77.766,24596.948383
1 Jan 2020 01:26:43.000,77.532,-77.678,24652.352010
1 Jan 2020 01:27:13.000,79.929,-77.581,24714.713719
1 Jan 2020 01:27:43.000,82.270,-77.477,24783.935807
1 Jan 2020 01:28:13.000,84.555,-77.366,24859.908116
1 Jan 2020 01:28:43.000,86.779,-77.250,24942.509372
1 Jan 2020 01:29:13.000,88.943,-77.130,25031.607194
1 Jan 2020 01:29:43.000,91.046,-77.005,25127.058804
1 Jan 2020 01:30:13.000,93.086,-76.879,25228.711825
1 Jan 2020 01:30:43.000,95.065,-76.751,25336.404198
1 Jan 2020 01:31:13.000,96.983,-76.623,25449.965890
1 Jan 2020 01:31:43.000,98.842,-76.495,25569.218855
1 Jan 2020 01:32:13.000,100.641,-76.369,25693.977878
1 Jan 2020 01:32:43.000,102.384,-76.245,25824.051236
1 Jan 2020 01:33:13.000,104.071,-76.124,25959.241589
1 Jan 2020 01:33:43.000,105.705,-76.007,26099.345719
1 Jan 2020 01:33:46.556,105.896,-75.994,26116.266525
1 Jan 2020 02:46:41.141,317.487,-75.985,26109.305644
1 Jan 2020 02:47:11.000,318.003,-76.162,25898.467922
1 Jan 2020 02:47:41.000,318.535,-76.358,25689.462210
1 Jan 2020 02:48:11.000,319.084,-76.570,25483.572589
1 Jan 2020 02:48:41.000,319.652,-76.799,25281.082893
1 Jan 2020 02:49:11.000,320.242,-77.046,25082.279994
1 Jan 2020 02:49:41.000,320.857,-77.309,24887.453305
1 Jan 2020 02:50:11.000,321.501,-77.590,24696.894231
1 Jan 2020 02:50:41.000,322.178,-77.888,24510.895557
1 Jan 2020 02:51:11.000,322.892,-78.202,24329.750457
1 Jan 2020 02:51:41.000,323.650,-78.533,24153.753027
1 Jan 2020 02:52:11.000,324.457,-78.881,23983.195565
1 Jan 2020 02:52:41.000,325.322,-79.244,23818.368996
1 Jan 2020 02:53:11.000,326.254,-79.622,23659.561619
1 Jan 2020 02:53:41.000,327.264,-80.015,23507.057894
1 Jan 2020 02:54:11.000,328.364,-80.422,23361.138328
1 Jan 2020 02:54:41.000,329.571,-80.842,23222.076979
1 Jan 2020 02:55:11.000,330.903,-81.273,23090.141269
1 Jan 2020 02:55:41.000,332.386,-81.715,22965.590574
1 Jan 2020 02:56:11.000,334.049,-82.166,22848.674821
1 Jan 2020 02:56:41.000,335.928,-82.624,22739.634120
1 Jan 2020 02:57:11.000,338.072,-83.087,22638.696255
1 Jan 2020 02:57:41.000,340.538,-83.551,22546.076353
1 Jan 2020 02:58:11.000,343.404,-84.013,22461.975342
1 Jan 2020 02:58:41.000,346.764,-84.469,22386.579339
1 Jan 2020 02:59:11.000,350.740,-84.912,22320.057726
1 Jan 2020 02:59:41.000,355.478,-85.335,22262.562683
1 Jan 2020 03:00:11.000,1.148,-85.728,22214.228022
1 Jan 2020 03:00:41.000,7.920,-86.078,22175.168638
1 Jan 2020 03:01:11.000,15.917,-86.368,22145.479276
1 Jan 2020 03:01:41.000,25.123,-86.582,22125.234249
1 Jan 2020 03:02:11.000,35.282,-86.701,22114.486847
1 Jan 2020 03:02:41.000,45.865,-86.715,22113.269010
1 Jan 2020 03:03:11.000,56.194,-86.622,22121.591046
1 Jan 2020 03:03:41.000,65.680,-86.432,22139.441632
1 Jan 2020 03:04:11.000,73.992,-86.159,22166.787945
1 Jan 2020 03:04:41.000,81.060,-85.822,22203.575630
1 Jan 2020 03:05:11.000,86.978,-85.438,22249.729549
1 Jan 2020 03:05:41.000,91.912,-85.020,22305.154059
1 Jan 2020 03:06:11.000,96.033,-84.580,22369.733847
1 Jan 2020 03:06:41.000,99.496,-84.124,22443.334152
1 Jan 2020 03:07:11.000,102.428,-83.661,22525.802408
1 Jan 2020 03:07:41.000,104.930,-83.195,22616.968700
1 Jan 2020 03:08:11.000,107.085,-82.729,22716.647111
1 Jan 2020 03:08:41.000,108.954,-82.267,22824.636077
1 Jan 2020 03:09:11.000,110.589,-81.811,22940.720630
1 Jan 2020 03:09:41.000,112.028,-81.364,23064.672868
1 Jan 2020 03:10:11.000,113.302,-80.926,23196.253549
1 Jan 2020 03:10:41.000,114.438,-80.501,23335.212437
1 Jan 2020 03:11:11.000,115.456,-80.088,23481.290781
1 Jan 2020 03:11:41.000,116.371,-79.688,23634.221665
1 Jan 2020 03:12:11.000,117.199,-79.304,23793.731364
1 Jan 2020 03:12:41.000,117.950,-78.934,23959.540753
1 Jan 2020 03:13:11.000,118.634,-78.581,24131.365254
1 Jan 2020 03:13:41.000,119.258,-78.243,24308.917534
1 Jan 2020 03:14:11.000,119.829,-77.923,24491.907373
1 Jan 2020 03:14:41.000,120.354,-77.620,24680.042842
1 Jan 2020 03:15:11.000,120.837,-77.333,24873.031155
1 Jan 2020 03:15:41.000,121.281,-77.065,25070.579455
1 Jan 2020 03:16:11.000,121.692,-76.813,25272.395883
1 Jan 2020 03:16:41.000,122.071,-76.580,25478.188861
1 Jan 2020 03:17:11.000,122.421,-76.363,25687.669748
1 Jan 2020 03:17:41.000,122.746,-76.165,25900.552013
1 Jan 2020 03:18:09.949,123.036,-75.989,26108.938055
1 Jan 2020 04:29:31.394,293.978,-75.982,26103.652968
1 Jan 2020 04:30:01.000,293.012,-76.143,25912.446025
1 Jan 2020 04:30:31.000,291.985,-76.318,25722.511517
1 Jan 2020 04:31:01.000,290.904,-76.505,25536.682741
1 Jan 2020 04:31:31.000,289.766,-76.704,25355.224301
1 Jan 2020 04:32:01.000,288.565,-76.914,25178.400292
1 Jan 2020 04:32:31.000,287.297,-77.136,25006.473639
1 Jan 2020 04:33:01.000,285.956,-77.367,24839.705127
1 Jan 2020 04:33:31.000,284.536,-77.608,24678.353743
1 Jan 2020 04:34:01.000,283.031,-77.856,24522.674225
1 Jan 2020 04:34:31.000,281.432,-78.113,24372.917342
1 Jan 2020 04:35:01.000,279.732,-78.375,24229.328745
1 Jan 2020 04:35:31.000,277.924,-78.642,24092.147828
1 Jan 2020 04:36:01.000,275.998,-78.912,23961.607736
1 Jan 2020 04:36:31.000,273.945,-79.184,23837.932994
1 Jan 2020 04:37:01.000,271.757,-79.455,23721.339497
1 Jan 2020 04:37:31.000,269.424,-79.725,23612.033303
1 Jan 2020 04:38:01.000,266.936,-79.989,23510.209460
1 Jan 2020 04:38:31.000,264.287,-80.247,23416.051885
1 Jan 2020 04:39:01.000,261.468,-80.495,23329.731167
1 Jan 2020 04:39:31.000,258.475,-80.731,23251.404537
1 Jan 2020 04:40:01.000,255.305,-80.951,23181.214663
1 Jan 2020 04:40:31.000,251.959,-81.154,23119.289390
1 Jan 2020 04:41:01.000,248.443,-81.335,23065.740198
1 Jan 2020 04:41:31.000,244.768,-81.493,23020.662101
1 Jan 2020 04:42:01.000,240.948,-81.625,22984.132868
1 Jan 2020 04:42:31.000,237.007,-81.727,22956.212860
1 Jan 2020 04:43:01.000,232.972,-81.799,22936.944158
1 Jan 2020 04:43:31.000,228.875,-81.839,22926.350644
1 Jan 2020 04:44:01.000,224.751,-81.847,22924.437732
1 Jan 2020 04:44:31.000,220.637,-81.821,22931.192408
1 Jan 2020 04:45:01.000,216.568,-81.763,22946.583146
1 Jan 2020 04:45:31.000,212.578,-81.675,22970.560207
1 Jan 2020 04:46:01.000,208.696,-81.557,23003.055933
1 Jan 2020 04:46:31.000,204.946,-81.412,23043.984992
1 Jan 2020 04:47:01.000,201.345,-81.242,23093.245084
1 Jan 2020 04:47:31.000,197.906,-81.051,23150.717403
1 Jan 2020 04:48:01.000,194.636,-80.841,23216.267436
1 Jan 2020 04:48:31.000,191.536,-80.615,23289.745339
1 Jan 2020 04:49:01.000,188.606,-80.376,23370.987293
1 Jan 2020 04:49:31.000,185.840,-80.126,23459.816024
1 Jan 2020 04:50:01.000,183.233,-79.869,23556.041803
1 Jan 2020 04:50:31.000,180.776,-79.607,23659.463574
1 Jan 2020 04:51:01.000,178.461,-79.342,23769.869222
1 Jan 2020 04:51:31.000,176.278,-79.075,23887.037587
1 Jan 2020 04:52:01.000,174.218,-78.810,24010.738782
1 Jan 2020 04:52:31.000,172.272,-78.547,24140.735331
1 Jan 2020 04:53:01.000,170.430,-78.288,24276.783346
1 Jan 2020 04:53:31.000,168.685,-78.034,24418.632667
1 Jan 2020 04:54:01.000,167.029,-77.787,24566.028966
1 Jan 2020 04:54:31.000,165.453,-77.547,24718.713850
1 Jan 2020 04:55:01.000,163.952,-77.316,24876.425900
1 Jan 2020 04:55:31.000,162.519,-77.094,25038.901470
1 Jan 2020 04:56:01.000,161.147,-76.882,25205.875450
1 Jan 2020 04:56:31.000,159.832,-76.681,25377.082245
1 Jan 2020 04:57:01.000,158.568,-76.490,25552.255366
1 Jan 2020 04:57:31.000,157.351,-76.311,25731.129646
1 Jan 2020 04:58:01.000,156.177,-76.144,25913.440746
1 Jan 2020 04:58:31.000,155.041,-75.988,26098.925938
1 Jan 2020 04:58:31.739,155.013,-75.984,26103.533080
1 Jan 2020 06:14:11.820,281.692,-75.982,26102.346960
1 Jan 2020 06:14:41.000,279.781,-76.047,26022.453472
1 Jan 2020 06:15:11.000,277.780,-76.112,25945.785227
1 Jan 2020 06:15:41.000,275.746,-76.175,25874.784246
1 Jan 2020 06:16:11.000,273.680,-76.234,25809.562629
1 Jan 2020 06:16:41.000,271.583,-76.290,25750.223173
1 Jan 2020 06:17:11.000,269.456,-76.341,25696.858877
1 Jan 2020 06:17:41.000,267.304,-76.387,25649.552938
1 Jan 2020 06:18:11.000,265.127,-76.429,25608.377835
1 Jan 2020 06:18:41.000,262.929,-76.465,25573.395418
1 Jan 2020 06:19:11.000,260.714,-76.495,25544.656548
1 Jan 2020 06:19:41.000,258.483,-76.518,25522.200832
1 Jan 2020 06:20:11.000,256.241,-76.535,25506.056634
1 Jan 2020 06:20:41.000,253.991,-76.546,25496.240663
1 Jan 2020 06:21:11.000,251.738,-76.549,25492.758098
1 Jan 2020 06:21:41.000,249.483,-76.546,25495.602510
1 Jan 2020 06:22:11.000,247.232,-76.537,25504.755894
1 Jan 2020 06:22:41.000,244.988,-76.520,25520.188731
1 Jan 2020 06:23:11.000,242.755,-76.497,25541.860115
1 Jan 2020 06:23:41.000,240.535,-76.468,25569.717937
1 Jan 2020 06:24:11.000,238.332,-76.433,25603.699096
1 Jan 2020 06:24:41.000,236.149,-76.393,25643.729816
1 Jan 2020 06:25:11.000,233.988,-76.347,25689.725761
1 Jan 2020 06:25:41.000,231.853,-76.297,25741.592649
1 Jan 2020 06:26:11.000,229.744,-76.243,25799.226459
1 Jan 2020 06:26:41.000,227.665,-76.185,25862.513885
1 Jan 2020 06:27:11.000,225.616,-76.124,25931.332774
1 Jan 2020 06:27:41.000,223.599,-76.060,26005.552691
1 Jan 2020 06:28:11.000,221.615,-75.995,26085.034991
1 Jan 2020 06:28:17.248,221.206,-75.981,26102.235930
1 Jan 2020 07:45:48.066,330.560,-75.988,26106.606449
1 Jan 2020 07:46:18.000,328.656,-76.068,26009.113448
1 Jan 2020 07:46:48.000,326.710,-76.147,25916.325265
1 Jan 2020 07:47:18.000,324.725,-76.226,25828.631277
1 Jan 2020 07:47:48.000,322.702,-76.303,25746.192871
1 Jan 2020 07:48:18.000,320.642,-76.378,25669.164466
1 Jan 2020 07:48:48.000,318.545,-76.450,25597.692881
1 Jan 2020 07:49:18.000,316.413,-76.518,25531.917128
1 Jan 2020 07:49:48.000,314.248,-76.582,25471.967373
1 Jan 2020 07:50:18.000,312.050,-76.641,25417.964776
1 Jan 2020 07:50:48.000,309.824,-76.695,25370.020928
1 Jan 2020 07:51:18.000,307.571,-76.743,25328.237353
1 Jan 2020 07:51:48.000,305.295,-76.784,25292.705257
1 Jan 2020 07:52:18.000,302.999,-76.819,25263.504880
1 Jan 2020 07:52:48.000,300.686,-76.846,25240.705341
1 Jan 2020 07:53:18.000,298.361,-76.866,25224.364291
1 Jan 2020 07:53:48.000,296.027,-76.878,25214.527672
1 Jan 2020 07:54:18.000,293.690,-76.882,25211.229491
1 Jan 2020 07:54:48.000,291.352,-76.877,25214.491696
1 Jan 2020 07:55:18.000,289.020,-76.865,25224.324076
1 Jan 2020 07:55:48.000,286.696,-76.845,25240.724220
1 Jan 2020 07:56:18.000,284.386,-76.818,25263.677592
1 Jan 2020 07:56:48.000,282.093,-76.783,25293.157378
1 Jan 2020 07:57:18.000,279.821,-76.741,25329.124928
1 Jan 2020 07:57:48.000,277.574,-76.692,25371.529734
1 Jan 2020 07:58:18.000,275.356,-76.637,25420.309701
1 Jan 2020 07:58:48.000,273.168,-76.576,25475.391530
1 Jan 2020 07:59:18.000,271.013,-76.511,25536.690626
1 Jan 2020 07:59:48.000,268.895,-76.441,25604.112064
1 Jan 2020 08:00:18.000,266.814,-76.367,25677.550592
1 Jan 2020 08:00:48.000,264.773,-76.290,25756.891165
1 Jan 2020 08:01:18.000,262.772,-76.211,25842.009403
1 Jan 2020 08:01:48.000,260.812,-76.129,25932.772256
1 Jan 2020 08:02:18.000,258.894,-76.047,26029.037829
1 Jan 2020 08:02:40.959,257.454,-75.984,26106.334994
1 Jan 2020 09:17:22.979,31.075,-75.994,26113.225546
1 Jan 2020 09:17:52.000,30.150,-76.152,25923.942619
1 Jan 2020 09:18:22.000,29.160,-76.330,25731.230052
1 Jan 2020 09:18:52.000,28.135,-76.521,25541.790851
1 Jan 2020 09:19:22.000,27.069,-76.726,25355.897405
1 Jan 2020 09:19:52.000,25.958,-76.944,25173.824040
1 Jan 2020 09:20:22.000,24.798,-77.174,24995.846482
1 Jan 2020 09:20:52.000,23.582,-77.418,24822.241262
1 Jan 2020 09:21:22.000,22.304,-77.673,24653.284836
1 Jan 2020 09:21:52.000,20.958,-77.940,24489.253871
1 Jan 2020 09:22:22.000,19.535,-78.218,24330.422998
1 Jan 2020 09:22:52.000,18.029,-78.505,24177.065015
1 Jan 2020 09:23:22.000,16.427,-78.801,24029.449781
1 Jan 2020 09:23:52.000,14.722,-79.106,23887.843309
1 Jan 2020 09:24:22.000,12.900,-79.416,23752.506597
1 Jan 2020 09:24:52.000,10.948,-79.732,23623.695557
1 Jan 2020 09:25:22.000,8.854,-80.050,23501.658605
1 Jan 2020 09:25:52.000,6.601,-80.370,23386.636558
1 Jan 2020 09:26:22.000,4.172,-80.689,23278.861329
1 Jan 2020 09:26:52.000,1.552,-81.003,23178.554696
1 Jan 2020 09:27:22.000,358.722,-81.312,23085.927895
1 Jan 2020 09:27:52.000,355.664,-81.610,23001.179545
1 Jan 2020 09:28:22.000,352.365,-81.896,22924.495309
1 Jan 2020 09:28:52.000,348.810,-82.164,22856.046621
1 Jan 2020 09:29:22.000,344.992,-82.411,22795.990121
1 Jan 2020 09:29:52.000,340.912,-82.632,22744.466173
1 Jan 2020 09:30:22.000,336.578,-82.823,22701.598456
1 Jan 2020 09:30:52.000,332.013,-82.981,22667.493085
1 Jan 2020 09:31:22.000,327.251,-83.100,22642.238132
1 Jan 2020 09:31:52.000,322.341,-83.179,22625.902830
1 Jan 2020 09:32:22.000,317.343,-83.215,22618.537334
1 Jan 2020 09:32:52.000,312.322,-83.207,22620.172395
1 Jan 2020 09:33:22.000,307.350,-83.155,22630.819070
1 Jan 2020 09:33:52.000,302.491,-83.060,22650.468796
1 Jan 2020 09:34:22.000,297.801,-82.926,22679.093386
1 Jan 2020 09:34:52.000,293.326,-82.754,22716.645326
1 Jan 2020 09:35:22.000,289.097,-82.549,22763.057734
1 Jan 2020 09:35:52.000,285.131,-82.316,22818.245302
1 Jan 2020 09:36:22.000,281.434,-82.058,22882.104513
1 Jan 2020 09:36:52.000,278.005,-81.780,22954.514509
1 Jan 2020 09:37:22.000,274.834,-81.486,23035.337238
1 Jan 2020 09:37:52.000,271.908,-81.179,23124.419134
1 Jan 2020 09:38:22.000,269.209,-80.863,23221.591438
1 Jan 2020 09:38:52.000,266.722,-80.542,23326.671471
1 Jan 2020 09:39:22.000,264.428,-80.218,23439.462879
1 Jan 2020 09:39:52.000,262.311,-79.893,23559.757751
1 Jan 2020 09:40:22.000,260.355,-79.570,23687.336952
1 Jan 2020 09:40:52.000,258.544,-79.251,23821.971348
1 Jan 2020 09:41:22.000,256.865,-78.937,23963.423134
1 Jan 2020 09:41:52.000,255.306,-78.631,24111.445813
1 Jan 2020 09:42:22.000,253.856,-78.333,24265.786806
1 Jan 2020 09:42:52.000,252.503,-78.044,24426.187406
1 Jan 2020 09:43:22.000,251.240,-77.766,24592.384006
1 Jan 2020 09:43:52.000,250.058,-77.500,24764.109022
1 Jan 2020 09:44:22.000,248.949,-77.245,24941.092094
1 Jan 2020 09:44:52.000,247.908,-77.004,25123.059673
1 Jan 2020 09:45:22.000,246.928,-76.775,25309.737665
1 Jan 2020 09:45:52.000,246.005,-76.560,25500.850934
1 Jan 2020 09:46:22.000,245.133,-76.360,25696.124289
1 Jan 2020 09:46:52.000,244.308,-76.173,25895.283115
1 Jan 2020 09:47:22.000,243.526,-76.001,26098.053942
1 Jan 2020 09:47:24.264,243.469,-75.989,26113.497800
1 Jan 2020 10:58:39.689,59.997,-75.997,26119.613806
1 Jan 2020 10:59:09.000,60.501,-76.171,25912.847719
1 Jan 2020 10:59:39.000,61.050,-76.365,25704.492153
1 Jan 2020 11:00:09.000,61.635,-76.576,25499.723748
1 Jan 2020 11:00:39.000,62.260,-76.803,25298.825445
1 Jan 2020 11:01:09.000,62.929,-77.046,25102.081956
1 Jan 2020 11:01:39.000,63.645,-77.305,24909.779185
1 Jan 2020 11:02:09.000,64.415,-77.580,24722.203596
1 Jan 2020 11:02:39.000,65.243,-77.870,24539.641207
1 Jan 2020 11:03:09.000,66.136,-78.175,24362.378106
1 Jan 2020 11:03:39.000,67.101,-78.494,24190.697723
1 Jan 2020 11:04:09.000,68.148,-78.827,24024.881246
1 Jan 2020 11:04:39.000,69.287,-79.174,23865.206377
1 Jan 2020 11:05:09.000,70.528,-79.532,23711.946104
1 Jan 2020 11:05:39.000,71.887,-79.901,23565.368694
1 Jan 2020 11:06:09.000,73.378,-80.280,23425.735086
1 Jan 2020 11:06:39.000,75.020,-80.667,23293.298827
1 Jan 2020 11:07:09.000,76.836,-81.061,23168.304686
1 Jan 2020 11:07:39.000,78.851,-81.459,23050.987274
1 Jan 2020 11:08:09.000,81.095,-81.859,22941.570836
1 Jan 2020 11:08:39.000,83.603,-82.257,22840.266669
1 Jan 2020 11:09:09.000,86.414,-82.651,22747.272961
1 Jan 2020 11:09:39.000,89.574,-83.037,22662.773296
1 Jan 2020 11:10:09.000,93.131,-83.410,22586.936216
1 Jan 2020 11:10:39.000,97.136,-83.763,22519.913275
1 Jan 2020 11:11:09.000,101.636,-84.092,22461.838759
1 Jan 2020 11:11:39.000,106.667,-84.387,22412.828585
1 Jan 2020 11:12:09.000,112.243,-84.642,22372.979956
1 Jan 2020 11:12:39.000,118.344,-84.848,22342.370106
1 Jan 2020 11:13:09.000,124.898,-84.998,22321.056212
1 Jan 2020 11:13:39.000,131.780,-85.084,22309.074870
1 Jan 2020 11:14:09.000,138.816,-85.103,22306.441971
1 Jan 2020 11:14:39.000,145.809,-85.054,22313.152364
1 Jan 2020 11:15:09.000,152.567,-84.939,22329.180044
1 Jan 2020 11:15:39.000,158.939,-84.765,22354.478315
1 Jan 2020 11:16:09.000,164.824,-84.537,22388.979939
1 Jan 2020 11:16:39.000,170.175,-84.265,22432.597774
1 Jan 2020 11:17:09.000,174.990,-83.955,22485.225217
1 Jan 2020 11:17:39.000,179.295,-83.617,22546.737010
1 Jan 2020 11:18:09.000,183.133,-83.257,22616.989614
1 Jan 2020 11:18:39.000,186.553,-82.881,22695.822681
1 Jan 2020 11:19:09.000,189.605,-82.495,22783.059628
1 Jan 2020 11:19:39.000,192.337,-82.101,22878.508920
1 Jan 2020 11:20:09.000,194.791,-81.706,22981.964532
1 Jan 2020 11:20:39.000,197.005,-81.310,23093.207974
1 Jan 2020 11:21:09.000,199.010,-80.918,23212.008850
1 Jan 2020 11:21:39.000,200.836,-80.531,23338.126167
1 Jan 2020 11:22:09.000,202.506,-80.151,23471.309736
1 Jan 2020 11:22:39.000,204.040,-79.780,23611.300378
1 Jan 2020 11:23:09.000,205.456,-79.420,23757.832456
1 Jan 2020 11:23:39.000,206.770,-79.070,23910.634059
1 Jan 2020 11:24:09.000,207.993,-78.733,24069.428291
1 Jan 2020 11:24:39.000,209.136,-78.409,24233.934296
1 Jan 2020 11:25:09.000,210.210,-78.099,24403.868512
1 Jan 2020 11:25:39.000,211.223,-77.803,24578.944436
1 Jan 2020 11:26:09.000,212.181,-77.522,24758.875205
1 Jan 2020 11:26:39.000,213.092,-77.255,24943.373257
1 Jan 2020 11:27:09.000,213.960,-77.005,25132.151353
1 Jan 2020 11:27:39.000,214.790,-76.769,25324.923262
1 Jan 2020 11:28:09.000,215.587,-76.550,25521.404375
1 Jan 2020 11:28:39.000,216.354,-76.346,25721.312276
1 Jan 2020 11:29:09.000,217.095,-76.158,25924.367241
1 Jan 2020 11:29:37.489,217.777,-75.993,26119.857744
1 Jan 2020 12:43:15.702,75.748,-75.998,26122.587197
1 Jan 2020 12:43:45.000,77.461,-76.097,26002.089308
1 Jan 2020 12:44:15.000,79.265,-76.200,25883.772646
1 Jan 2020 12:44:45.000,81.118,-76.305,25770.762846
1 Jan 2020 12:45:15.000,83.023,-76.410,25663.233754
1 Jan 2020 12:45:45.000,84.978,-76.514,25561.352169
1 Jan 2020 12:46:15.000,86.985,-76.618,25465.277074
1 Jan 2020 12:46:45.000,89.043,-76.719,25375.159690
1 Jan 2020 12:47:15.000,91.151,-76.816,25291.141898
1 Jan 2020 12:47:45.000,93.309,-76.911,25213.356339
1 Jan 2020 12:48:15.000,95.514,-77.000,25141.925697
1 Jan 2020 12:48:45.000,97.765,-77.083,25076.962061
1 Jan 2020 12:49:15.000,100.059,-77.161,25018.566918
1 Jan 2020 12:49:45.000,102.393,-77.231,24966.829971
1 Jan 2020 12:50:15.000,104.764,-77.293,24921.829227
1 Jan 2020 12:50:45.000,107.166,-77.347,24883.630513
1 Jan 2020 12:51:15.000,109.597,-77.392,24852.287097
1 Jan 2020 12:51:45.000,112.050,-77.428,24827.839719
1 Jan 2020 12:52:15.000,114.521,-77.453,24810.315947
1 Jan 2020 12:52:45.000,117.004,-77.469,24799.730349
1 Jan 2020 12:53:15.000,119.493,-77.474,24796.084337
1 Jan 2020 12:53:45.000,121.982,-77.470,24799.366142
1 Jan 2020 12:54:15.000,124.466,-77.455,24809.550923
1 Jan 2020 12:54:45.000,126.940,-77.430,24826.600771
1 Jan 2020 12:55:15.000,129.397,-77.395,24850.464970
1 Jan 2020 12:55:45.000,131.832,-77.351,24881.080200
1 Jan 2020 12:56:15.000,134.242,-77.298,24918.370873
1 Jan 2020 12:56:45.000,136.621,-77.237,24962.249311
1 Jan 2020 12:57:15.000,138.966,-77.169,25012.616368
1 Jan 2020 12:57:45.000,141.274,-77.094,25069.361728
1 Jan 2020 12:58:15.000,143.541,-77.012,25132.364414
1 Jan 2020 12:58:45.000,145.766,-76.925,25201.493395
1 Jan 2020 12:59:15.000,147.946,-76.834,25276.607782
1 Jan 2020 12:59:45.000,150.081,-76.739,25357.557907
1 Jan 2020 13:00:15.000,152.170,-76.641,25444.185591
1 Jan 2020 13:00:45.000,154.211,-76.541,25536.324823
1 Jan 2020 13:01:15.000,156.206,-76.440,25633.802388
1 Jan 2020 13:01:45.000,158.154,-76.338,25736.438625
1 Jan 2020 13:02:15.000,160.056,-76.237,25844.047485
1 Jan 2020 13:02:45.000,161.913,-76.136,25956.437994
1 Jan 2020 13:03:15.000,163.727,-76.037,26073.414311
1 Jan 2020 13:03:27.291,164.457,-75.998,26122.618375
1 Jan 2020 14:21:20.722,55.829,-75.994,26120.029033
1 Jan 2020 14:21:50.000,57.819,-76.043,26060.566632
1 Jan 2020 14:22:20.000,59.883,-76.089,26005.100521
1 Jan 2020 14:22:50.000,61.971,-76.132,25955.267053
1 Jan 2020 14:23:20.000,64.080,-76.171,25911.161632
1 Jan 2020 14:23:50.000,66.210,-76.205,25872.870153
1 Jan 2020 14:24:20.000,68.356,-76.235,25840.468627
1 Jan 2020 14:24:50.000,70.518,-76.259,25814.023025
1 Jan 2020 14:25:20.000,72.691,-76.278,25793.588779
1 Jan 2020 14:25:50.000,74.872,-76.292,25779.210714
1 Jan 2020 14:26:20.000,77.060,-76.300,25770.922828
1 Jan 2020 14:26:50.000,79.250,-76.302,25768.748154
1 Jan 2020 14:27:20.000,81.440,-76.299,25772.698639
1 Jan 2020 14:27:50.000,83.626,-76.289,25782.775124
1 Jan 2020 14:28:20.000,85.804,-76.274,25798.967328
1 Jan 2020 14:28:50.000,87.973,-76.253,25821.253900
1 Jan 2020 14:29:20.000,90.129,-76.227,25849.602552
1 Jan 2020 14:29:50.000,92.269,-76.196,25883.970002
1 Jan 2020 14:30:20.000,94.391,-76.160,25924.302439
1 Jan 2020 14:30:50.000,96.491,-76.120,25970.535562
1 Jan 2020 14:31:20.000,98.569,-76.076,26022.594884
1 Jan 2020 14:31:50.000,100.621,-76.028,26080.396033
1 Jan 2020 14:32:09.138,101.916,-75.996,26120.226277
1 Jan 2020 15:49:07.319,343.717,-75.987,26113.700617
1 Jan 2020 15:49:37.000,345.042,-76.128,25944.769342
1 Jan 2020 15:50:07.000,346.426,-76.280,25777.436155
1 Jan 2020 15:50:37.000,347.856,-76.440,25613.783773
1 Jan 2020 15:51:07.000,349.338,-76.610,25454.063762
1 Jan 2020 15:51:37.000,350.875,-76.787,25298.527519
1 Jan 2020 15:52:07.000,352.472,-76.971,25147.425677
1 Jan 2020 15:52:37.000,354.133,-77.162,25001.007457
1 Jan 2020 15:53:07.000,355.863,-77.358,24859.519777
1 Jan 2020 15:53:37.000,357.667,-77.560,24723.207390
1 Jan 2020 15:54:07.000,359.550,-77.765,24592.310825
1 Jan 2020 15:54:37.000,1.517,-77.972,24467.066477
1 Jan 2020 15:55:07.000,3.572,-78.181,24347.705567
1 Jan 2020 15:55:37.000,5.722,-78.390,24234.453299
1 Jan 2020 15:56:07.000,7.970,-78.597,24127.527836
1 Jan 2020 15:56:37.000,10.320,-78.801,24027.140103
1 Jan 2020 15:57:07.000,12.777,-79.000,23933.491874
1 Jan 2020 15:57:37.000,15.342,-79.193,23846.775596
1 Jan 2020 15:58:07.000,18.017,-79.376,23767.173345
1 Jan 2020 15:58:37.000,20.801,-79.550,23694.855873
1 Jan 2020 15:59:07.000,23.694,-79.711,23629.982201
1 Jan 2020 15:59:37.000,26.691,-79.857,23572.698196
1 Jan 2020 16:00:07.000,29.785,-79.988,23523.136263
1 Jan 2020 16:00:37.000,32.969,-80.100,23481.414512
1 Jan 2020 16:01:07.000,36.231,-80.193,23447.636293
1 Jan 2020 16:01:37.000,39.557,-80.265,23421.889376
1 Jan 2020 16:02:07.000,42.931,-80.315,23404.245663
1 Jan 2020 16:02:37.000,46.337,-80.342,23394.760759
1 Jan 2020 16:03:07.000,49.755,-80.346,23393.473621
1 Jan 2020 16:03:37.000,53.166,-80.327,23400.406392
1 Jan 2020 16:04:07.000,56.551,-80.284,23415.564267
1 Jan 2020 16:04:37.000,59.891,-80.218,23438.935544
1 Jan 2020 16:05:07.000,63.171,-80.131,23470.491447
1 Jan 2020 16:05:37.000,66.374,-80.024,23510.186662
1 Jan 2020 16:06:07.000,69.489,-79.897,23557.959383
1 Jan 2020 16:06:37.000,72.504,-79.754,23613.731834
1 Jan 2020 16:07:07.000,75.414,-79.595,23677.410261
1 Jan 2020 16:07:37.000,78.211,-79.422,23748.886119
1 Jan 2020 16:08:07.000,80.894,-79.238,23828.036230
1 Jan 2020 16:08:37.000,83.461,-79.044,23914.723703
1 Jan 2020 16:09:07.000,85.913,-78.842,24008.798035
1 Jan 2020 16:09:37.000,88.251,-78.635,24110.096769
1 Jan 2020 16:10:07.000,90.478,-78.423,24218.445698
1 Jan 2020 16:10:37.000,92.599,-78.210,24333.659841
1 Jan 2020 16:11:07.000,94.617,-77.995,24455.544513
1 Jan 2020 16:11:37.000,96.537,-77.782,24583.895270
1 Jan 2020 16:12:07.000,98.364,-77.571,24718.500125
1 Jan 2020 16:12:37.000,100.103,-77.363,24859.139513
1 Jan 2020 16:13:07.000,101.759,-77.160,25005.587354
1 Jan 2020 16:13:37.000,103.337,-76.962,25157.611883
1 Jan 2020 16:14:07.000,104.841,-76.772,25314.976743
1 Jan 2020 16:14:37.000,106.277,-76.589,25477.440637
1 Jan 2020 16:15:07.000,107.648,-76.414,25644.759751
1 Jan 2020 16:15:37.000,108.958,-76.248,25816.687366
1 Jan 2020 16:16:07.000,110.212,-76.091,25992.974806
1 Jan 2020 16:16:27.143,111.024,-75.992,26113.662836
1 Jan 2020 17:28:07.856,307.269,-75.983,26106.945560
1 Jan 2020 17:28:37.000,307.245,-76.162,25895.052541
1 Jan 2020 17:29:07.000,307.208,-76.364,25679.843925
1 Jan 2020 17:29:37.000,307.159,-76.583,25467.864221
1 Jan 2020 17:30:07.000,307.097,-76.821,25259.401570
1 Jan 2020 17:30:37.000,307.022,-77.078,25054.747127
1 Jan 2020 17:31:07.000,306.932,-77.352,24854.194555
1 Jan 2020 17:31:37.000,306.826,-77.646,24658.039455
1 Jan 2020 17:32:07.000,306.702,-77.957,24466.578443
1 Jan 2020 17:32:37.000,306.560,-78.288,24280.109661
1 Jan 2020 17:33:07.000,306.396,-78.636,24098.930198
1 Jan 2020 17:33:37.000,306.209,-79.003,23923.336486
1 Jan 2020 17:34:07.000,305.995,-79.388,23753.623104
1 Jan 2020 17:34:37.000,305.751,-79.790,23590.081569
1 Jan 2020 17:35:07.000,305.472,-80.210,23433.000341
1 Jan 2020 17:35:37.000,305.153,-80.646,23282.662209
1 Jan 2020 17:36:07.000,304.787,-81.099,23139.344203
1 Jan 2020 17:36:37.000,304.366,-81.568,23003.316160
1 Jan 2020 17:37:07.000,303.879,-82.052,22874.839286
1 Jan 2020 17:37:37.000,303.310,-82.550,22754.165887
1 Jan 2020 17:38:07.000,302.641,-83.061,22641.536645
1 Jan 2020 17:38:37.000,301.846,-83.584,22537.180363
1 Jan 2020 17:39:07.000,300.888,-84.119,22441.312311
1 Jan 2020 17:39:37.000,299.716,-84.663,22354.133666
1 Jan 2020 17:40:07.000,298.254,-85.215,22275.829321
1 Jan 2020 17:40:37.000,296.385,-85.772,22206.567455
1 Jan 2020 17:41:07.000,293.920,-86.332,22146.498196
1 Jan 2020 17:41:37.000,290.540,-86.890,22095.753103
1 Jan 2020 17:42:07.000,285.665,-87.438,22054.443607
1 Jan 2020 17:42:37.000,278.175,-87.963,22022.660746
1 Jan 2020 17:43:07.000,265.830,-88.433,22000.474378
1 Jan 2020 17:43:37.000,244.912,-88.778,21987.932868
1 Jan 2020 17:44:07.000,215.150,-88.872,21985.062468
1 Jan 2020 17:44:37.000,188.207,-88.661,21991.867336
1 Jan 2020 17:45:07.000,171.208,-88.253,22008.329488
1 Jan 2020 17:45:37.000,161.177,-87.756,22034.408783
1 Jan 2020 17:46:07.000,154.907,-87.220,22070.043375
1 Jan 2020 17:46:37.000,150.701,-86.667,22115.150041
1 Jan 2020 17:47:07.000,147.705,-86.109,22169.624878
1 Jan 2020 17:47:37.000,145.467,-85.550,22233.343574
1 Jan 2020 17:48:07.000,143.730,-84.995,22306.162835
1 Jan 2020 17:48:37.000,142.341,-84.447,22387.920929
1 Jan 2020 17:49:07.000,141.202,-83.907,22478.438955
1 Jan 2020 17:49:37.000,140.246,-83.378,22577.521293
1 Jan 2020 17:50:07.000,139.431,-82.860,22684.957717
1 Jan 2020 17:50:37.000,138.723,-82.355,22800.523980
1 Jan 2020 17:51:07.000,138.101,-81.864,22923.983402
1 Jan 2020 17:51:37.000,137.546,-81.387,23055.087323
1 Jan 2020 17:52:07.000,137.046,-80.926,23193.577545
1 Jan 2020 17:52:37.000,136.591,-80.481,23339.186794
1 Jan 2020 17:53:07.000,136.173,-80.052,23491.640136
1 Jan 2020 17:53:37.000,135.785,-79.640,23650.656440
1 Jan 2020 17:54:07.000,135.423,-79.246,23815.948432
1 Jan 2020 17:54:37.000,135.081,-78.869,23987.225416
1 Jan 2020 17:55:07.000,134.758,-78.510,24164.193247
1 Jan 2020 17:55:37.000,134.449,-78.170,24346.555579
1 Jan 2020 17:56:07.000,134.153,-77.848,24534.014780
1 Jan 2020 17:56:37.000,133.867,-77.544,24726.273093
1 Jan 2020 17:57:07.000,133.590,-77.258,24923.032224
1 Jan 2020 17:57:37.000,133.319,-76.991,25123.995850
1 Jan 2020 17:58:07.000,133.055,-76.743,25328.869095
1 Jan 2020 17:58:37.000,132.795,-76.512,25537.359413
1 Jan 2020 17:59:07.000,132.538,-76.300,25749.177124
1 Jan 2020 17:59:37.000,132.284,-76.106,25964.035883
1 Jan 2020 17:59:56.699,132.118,-75.987,26106.636114
1 Jan 2020 19:12:08.351,288.272,-75.982,26102.550734
1 Jan 2020 19:12:38.000,286.851,-76.114,25943.509678
1 Jan 2020 19:13:08.000,285.358,-76.255,25787.109170
1 Jan 2020 19:13:38.000,283.807,-76.402,25635.485432
1 Jan 2020 19:14:08.000,282.194,-76.554,25488.863796
1 Jan 2020 19:14:38.000,280.517,-76.711,25347.465625
1 Jan 2020 19:15:08.000,278.773,-76.872,25211.507623
1 Jan 2020 19:15:38.000,276.959,-77.036,25081.200877
1 Jan 2020 19:16:08.000,275.071,-77.201,24956.751101
1 Jan 2020 19:16:38.000,273.108,-77.367,24838.356418
1 Jan 2020 19:17:08.000,271.067,-77.532,24726.207595
1 Jan 2020 19:17:38.000,268.947,-77.696,24620.487044
1 Jan 2020 19:18:08.000,266.746,-77.856,24521.367892
1 Jan 2020 19:18:38.000,264.462,-78.012,24429.013959
1 Jan 2020 19:19:08.000,262.098,-78.162,24343.577942
1 Jan 2020 19:19:38.000,259.652,-78.305,24265.201456
1 Jan 2020 19:20:08.000,257.128,-78.439,24194.014181
1 Jan 2020 19:20:38.000,254.528,-78.564,24130.133103
1 Jan 2020 19:21:08.000,251.857,-78.676,24073.662476
1 Jan 2020 19:21:38.000,249.120,-78.777,24024.692459
1 Jan 2020 19:22:08.000,246.323,-78.863,23983.299214
1 Jan 2020 19:22:38.000,243.475,-78.935,23949.544298
1 Jan 2020 19:23:08.000,240.585,-78.991,23923.474605
1 Jan 2020 19:23:38.000,237.662,-79.031,23905.121670
1 Jan 2020 19:24:08.000,234.718,-79.055,23894.501802
1 Jan 2020 19:24:38.000,231.763,-79.061,23891.615875
1 Jan 2020 19:25:08.000,228.810,-79.051,23896.449419
1 Jan 2020 19:25:38.000,225.869,-79.023,23908.972519
1 Jan 2020 19:26:08.000,222.951,-78.979,23929.140087
1 Jan 2020 19:26:38.000,220.066,-78.920,23956.892087
1 Jan 2020 19:27:08.000,217.225,-78.845,23992.153744
1 Jan 2020 19:27:38.000,214.435,-78.756,24034.836053
1 Jan 2020 19:28:08.000,211.703,-78.654,24084.836154
1 Jan 2020 19:28:38.000,209.036,-78.541,24142.037860
1 Jan 2020 19:29:08.000,206.438,-78.416,24206.312326
1 Jan 2020 19:29:38.000,203.912,-78.283,24277.518294
1 Jan 2020 19:30:08.000,201.460,-78.142,24355.503297
1 Jan 2020 19:30:38.000,199.085,-77.994,24440.104013
1 Jan 2020 19:31:08.000,196.786,-77.841,24531.147075
1 Jan 2020 19:31:38.000,194.563,-77.684,24628.449961
1 Jan 2020 19:32:08.000,192.414,-77.525,24731.821217
1 Jan 2020 19:32:38.000,190.339,-77.364,24841.062022
1 Jan 2020 19:33:08.000,188.334,-77.203,24955.966447
1 Jan 2020 19:33:38.000,186.397,-77.043,25076.322343
1 Jan 2020 19:34:08.000,184.525,-76.885,25201.912100
1 Jan 2020 19:34:38.000,182.717,-76.729,25332.513581
1 Jan 2020 19:35:08.000,180.967,-76.578,25467.900086
1 Jan 2020 19:35:38.000,179.274,-76.431,25607.842168
1 Jan 2020 19:36:08.000,177.635,-76.289,25752.107565
1 Jan 2020 19:36:38.000,176.045,-76.153,25900.462024
1 Jan 2020 19:37:08.000,174.502,-76.023,26052.669906
1 Jan 2020 19:37:17.675,174.014,-75.983,26102.537844
1 Jan 2020 20:55:17.104,285.200,-75.983,26103.255773
1 Jan 2020 20:55:47.000,283.140,-76.022,26055.656765
1 Jan 2020 20:56:17.000,281.053,-76.056,26013.613407
1 Jan 2020 20:56:47.000,278.948,-76.087,25977.373582
1 Jan 2020 20:57:17.000,276.827,-76.113,25946.999655
1 Jan 2020 20:57:47.000,274.693,-76.134,25922.543756
1 Jan 2020 20:58:17.000,272.548,-76.150,25904.047543
1 Jan 2020 20:58:47.000,270.396,-76.161,25891.542146
1 Jan 2020 20:59:17.000,268.239,-76.167,25885.047853
1 Jan 2020 20:59:47.000,266.081,-76.167,25884.574163
1 Jan 2020 21:00:17.000,263.923,-76.162,25890.119704
1 Jan 2020 21:00:47.000,261.770,-76.152,25901.672262
1 Jan 2020 21:01:17.000,259.624,-76.136,25919.208768
1 Jan 2020 21:01:47.000,257.488,-76.116,25942.695471
1 Jan 2020 21:02:17.000,255.365,-76.090,25972.088034
1 Jan 2020 21:02:47.000,253.256,-76.061,26007.331722
1 Jan 2020 21:03:17.000,251.166,-76.026,26048.361623
1 Jan 2020 21:03:47.000,249.095,-75.988,26095.102985
1 Jan 2020 21:03:51.815,248.764,-75.982,26103.131789
1 Jan 2020 22:22:04.966,357.468,-75.990,26108.898663
1 Jan 2020 22:22:34.000,355.871,-76.102,25973.907385
1 Jan 2020 22:23:04.000,354.175,-76.222,25838.424060
1 Jan 2020 22:23:34.000,352.431,-76.345,25707.226187
1 Jan 2020 22:24:04.000,350.637,-76.473,25580.533306
1 Jan 2020 22:24:34.000,348.790,-76.602,25458.561844
1 Jan 2020 22:25:04.000,346.888,-76.734,25341.524473
1 Jan 2020 22:25:34.000,344.929,-76.866,25229.629307
1 Jan 2020 22:26:04.000,342.912,-76.998,25123.079824
1 Jan 2020 22:26:34.000,340.836,-77.130,25022.073269
1 Jan 2020 22:27:04.000,338.700,-77.259,24926.800563
1 Jan 2020 22:27:34.000,336.502,-77.385,24837.445451
1 Jan 2020 22:28:04.000,334.244,-77.508,24754.183794
1 Jan 2020 22:28:34.000,331.926,-77.625,24677.182767
1 Jan 2020 22:29:04.000,329.549,-77.736,24606.600609
1 Jan 2020 22:29:34.000,327.116,-77.839,24542.585285
1 Jan 2020 22:30:04.000,324.629,-77.935,24485.274300
1 Jan 2020 22:30:34.000,322.092,-78.021,24434.793972
1 Jan 2020 22:31:04.000,319.509,-78.096,24391.258809
1 Jan 2020 22:31:34.000,316.887,-78.161,24354.771171
1 Jan 2020 22:32:04.000,314.230,-78.214,24325.420480
1 Jan 2020 22:32:34.000,311.545,-78.254,24303.283010
1 Jan 2020 22:33:04.000,308.841,-78.281,24288.421459
1 Jan 2020 22:33:34.000,306.125,-78.295,24280.884664
1 Jan 2020 22:34:04.000,303.405,-78.295,24280.707301
1 Jan 2020 22:34:34.000,300.689,-78.282,24287.909788
1 Jan 2020 22:35:04.000,297.986,-78.255,24302.498163
1 Jan 2020 22:35:34.000,295.304,-78.215,24324.464058
1 Jan 2020 22:36:04.000,292.650,-78.162,24353.784840
1 Jan 2020 22:36:34.000,290.031,-78.097,24390.423411
1 Jan 2020 22:37:04.000,287.454,-78.020,24434.328871
1 Jan 2020 22:37:34.000,284.925,-77.933,24485.436479
1 Jan 2020 22:38:04.000,282.449,-77.836,24543.668059
1 Jan 2020 22:38:34.000,280.030,-77.730,24608.932527
1 Jan 2020 22:39:04.000,277.670,-77.616,24681.125785
1 Jan 2020 22:39:34.000,275.374,-77.496,24760.132029
1 Jan 2020 22:40:04.000,273.142,-77.370,24845.823763
1 Jan 2020 22:40:34.000,270.975,-77.240,24938.062511
1 Jan 2020 22:41:04.000,268.874,-77.107,25036.699608
1 Jan 2020 22:41:34.000,266.839,-76.971,25141.576129
1 Jan 2020 22:42:04.000,264.869,-76.835,25252.524608
1 Jan 2020 22:42:34.000,262.963,-76.698,25369.369020
1 Jan 2020 22:43:04.000,261.120,-76.562,25491.925632
1 Jan 2020 22:43:34.000,259.339,-76.428,25620.003697
1 Jan 2020 22:44:04.000,257.616,-76.297,25753.406369
1 Jan 2020 22:44:34.000,255.951,-76.169,25891.930442
1 Jan 2020 22:45:04.000,254.340,-76.046,26035.368415
1 Jan 2020 22:45:18.974,253.557,-75.986,26108.734196
1 Jan 2020 23:58:02.824,43.900,-75.995,26115.725491
1 Jan 2020 23:58:32.000,43.458,-76.170,25908.190866
1 Jan 2020 23:59:02.000,42.992,-76.366,25697.584396
1 Jan 2020 23:59:32.000,42.513,-76.580,25490.088776
2 Jan 2020 00:00:02.000,42.019,-76.812,25285.989316
2 Jan 2020 00:00:32.000,41.507,-77.060,25085.574435
2 Jan 2020 00:01:02.000,40.974,-77.327,24889.135169
2 Jan 2020 00:01:32.000,40.417,-77.611,24696.964618
2 Jan 2020 00:02:02.000,39.833,-77.912,24509.357339
2 Jan 2020 00:02:32.000,39.218,-78.230,24326.608344
2 Jan 2020 00:03:02.000,38.565,-78.566,24149.013649
2 Jan 2020 00:03:32.000,37.871,-78.919,23976.867532
2 Jan 2020 00:04:02.000,37.127,-79.288,23810.462960
2 Jan 2020 00:04:32.000,36.327,-79.673,23650.090335
2 Jan 2020 00:05:02.000,35.460,-80.074,23496.036269
2 Jan 2020 00:05:32.000,34.514,-80.489,23348.583477
2 Jan 2020 00:06:02.000,33.475,-80.919,23208.008249
2 Jan 2020 00:06:32.000,32.326,-81.361,23074.580268
2 Jan 2020 00:07:02.000,31.043,-81.816,22948.561187
2 Jan 2020 00:07:32.000,29.601,-82.281,22830.203207
2 Jan 2020 00:08:02.000,27.962,-82.755,22719.748714
2 Jan 2020 00:08:32.000,26.081,-83.236,22617.427727
2 Jan 2020 00:09:02.000,23.899,-83.721,22523.457571
2 Jan 2020 00:09:32.000,21.336,-84.208,22438.041312
2 Jan 2020 00:10:02.000,18.288,-84.691,22361.367140
2 Jan 2020 00:10:32.000,14.616,-85.167,22293.606407
2 Jan 2020 00:11:02.000,10.137,-85.628,22234.913160
2 Jan 2020 00:11:32.000,4.612,-86.063,22185.422948
2 Jan 2020 00:12:02.000,357.758,-86.460,22145.252275
2 Jan 2020 00:12:32.000,349.293,-86.799,22114.497330
2 Jan 2020 00:13:02.000,339.067,-87.058,22093.233703
2 Jan 2020 00:13:32.000,327.291,-87.211,22081.515780
2 Jan 2020 00:14:02.000,314.718,-87.240,22079.376417
2 Jan 2020 00:14:32.000,302.467,-87.140,22086.826633
2 Jan 2020 00:15:02.000,291.504,-86.924,22103.855610
2 Jan 2020 00:15:32.000,282.274,-86.617,22130.430830
2 Jan 2020 00:16:02.000,274.757,-86.242,22166.498039
2 Jan 2020 00:16:32.000,268.706,-85.821,22211.981987
2 Jan 2020 00:17:02.000,263.829,-85.369,22266.786724
2 Jan 2020 00:17:32.000,259.865,-84.897,22330.796433
2 Jan 2020 00:18:02.000,256.608,-84.414,22403.875666
2 Jan 2020 00:18:32.000,253.899,-83.927,22485.870993
2 Jan 2020 00:19:02.000,251.620,-83.438,22576.611471
2 Jan 2020 00:19:32.000,249.682,-82.953,22675.910005
2 Jan 2020 00:20:02.000,248.017,-82.473,22783.563720
2 Jan 2020 00:20:32.000,246.573,-82.001,22899.356218
2 Jan 2020 00:21:02.000,245.312,-81.539,23023.058061
2 Jan 2020 00:21:32.000,244.202,-81.089,23154.428383
2 Jan 2020 00:22:02.000,243.218,-80.651,23293.215256
2 Jan 2020 00:22:32.000,242.342,-80.227,23439.158183
2 Jan 2020 00:23:02.000,241.558,-79.817,23591.988459
2 Jan 2020 00:23:32.000,240.852,-79.423,23751.430548
2 Jan 2020 00:24:02.000,240.216,-79.044,23917.203505
2 Jan 2020 00:24:32.000,239.638,-78.682,24089.020933
2 Jan 2020 00:25:02.000,239.114,-78.337,24266.593698
2 Jan 2020 00:25:32.000,238.636,-78.010,24449.629804
2 Jan 2020 00:26:02.000,238.200,-77.699,24637.835583
2 Jan 2020 00:26:32.000,237.801,-77.406,24830.916556
2 Jan 2020 00:27:02.000,237.435,-77.131,25028.578227
2 Jan 2020 00:27:32.000,237.100,-76.874,25230.527159
2 Jan 2020 00:28:02.000,236.793,-76.635,25436.470255
2 Jan 2020 00:28:32.000,236.511,-76.413,25646.117432
2 Jan 2020 00:29:02.000,236.252,-76.210,25859.180789
2 Jan 2020 00:29:32.000,236.014,-76.023,26075.375435
2 Jan 2020 00:29:37.600,235.972,-75.990,26116.053437
2 Jan 2020 01:41:04.151,66.758,-75.997,26121.241768
2 Jan 2020 01:41:34.000,67.792,-76.156,25931.694767
2 Jan 2020 01:42:04.000,68.882,-76.328,25745.107847
2 Jan 2020 01:42:34.000,70.026,-76.511,25562.710400
2 Jan 2020 01:43:04.000,71.230,-76.706,25384.763849
2 Jan 2020 01:43:34.000,72.497,-76.911,25211.528715
2 Jan 2020 01:44:04.000,73.833,-77.126,25043.263952
2 Jan 2020 01:44:34.000,75.243,-77.350,24880.225952
2 Jan 2020 01:45:04.000,76.733,-77.582,24722.668894
2 Jan 2020 01:45:34.000,78.310,-77.822,24570.842282
2 Jan 2020 01:46:04.000,79.981,-78.068,24424.991226
2 Jan 2020 01:46:34.000,81.751,-78.319,24285.355296
2 Jan 2020 01:47:04.000,83.630,-78.573,24152.167392
2 Jan 2020 01:47:34.000,85.624,-78.830,24025.653746
2 Jan 2020 01:48:04.000,87.741,-79.087,23906.031598
2 Jan 2020 01:48:34.000,89.990,-79.342,23793.509184
2 Jan 2020 01:49:04.000,92.378,-79.594,23688.284561
2 Jan 2020 01:49:34.000,94.911,-79.841,23590.544469
2 Jan 2020 01:50:04.000,97.596,-80.079,23500.464224
2 Jan 2020 01:50:34.000,100.437,-80.307,23418.205598
2 Jan 2020 01:51:04.000,103.436,-80.521,23343.916801
2 Jan 2020 01:51:34.000,106.593,-80.720,23277.731350
2 Jan 2020 01:52:04.000,109.905,-80.901,23219.767821
2 Jan 2020 01:52:34.000,113.362,-81.061,23170.128411
2 Jan 2020 01:53:04.000,116.953,-81.197,23128.898863
2 Jan 2020 01:53:34.000,120.660,-81.308,23096.147755
2 Jan 2020 01:54:04.000,124.463,-81.391,23071.926375
2 Jan 2020 01:54:34.000,128.336,-81.446,23056.267943
2 Jan 2020 01:55:04.000,132.250,-81.471,23049.187722
2 Jan 2020 01:55:34.000,136.174,-81.466,23050.682814
2 Jan 2020 01:56:04.000,140.078,-81.430,23060.732234
2 Jan 2020 01:56:34.000,143.932,-81.366,23079.296902
2 Jan 2020 01:57:04.000,147.708,-81.273,23106.319962
2 Jan 2020 01:57:34.000,151.383,-81.154,23141.727130
2 Jan 2020 01:58:04.000,154.937,-81.010,23185.426947
2 Jan 2020 01:58:34.000,158.357,-80.845,23237.311543
2 Jan 2020 01:59:04.000,161.633,-80.660,23297.257096
2 Jan 2020 01:59:34.000,164.757,-80.458,23365.124655
2 Jan 2020 02:00:04.000,167.730,-80.242,23440.760521
2 Jan 2020 02:00:34.000,170.551,-80.014,23523.997604
2 Jan 2020 02:01:04.000,173.224,-79.777,23614.655945
2 Jan 2020 02:01:34.000,175.754,-79.534,23712.543701
2 Jan 2020 02:02:04.000,178.149,-79.285,23817.458256
2 Jan 2020 02:02:34.000,180.414,-79.034,23929.186486
2 Jan 2020 02:03:04.000,182.559,-78.783,24047.506736
2 Jan 2020 02:03:34.000,184.590,-78.532,24172.189113
2 Jan 2020 02:04:04.000,186.517,-78.284,24302.996611
2 Jan 2020 02:04:34.000,188.346,-78.041,24439.686234
2 Jan 2020 02:05:04.000,190.084,-77.802,24582.009141
2 Jan 2020 02:05:34.000,191.740,-77.569,24729.712678
2 Jan 2020 02:06:04.000,193.320,-77.344,24882.540472
2 Jan 2020 02:06:34.000,194.829,-77.128,25040.233433
2 Jan 2020 02:07:04.000,196.274,-76.920,25202.530522
2 Jan 2020 02:07:34.000,197.660,-76.721,25369.169478
2 Jan 2020 02:08:04.000,198.992,-76.533,25539.887762
2 Jan 2020 02:08:34.000,200.275,-76.356,25714.422161
2 Jan 2020 02:09:04.000,201.512,-76.189,25892.510909
2 Jan 2020 02:09:34.000,202.709,-76.033,26073.893214
2 Jan 2020 02:09:41.759,203.012,-75.995,26121.306346
2 Jan 2020 03:25:41.977,78.381,-75.997,26122.351765
2 Jan 2020 03:26:11.000,80.302,-76.058,26047.871555
2 Jan 2020 03:26:41.000,82.320,-76.118,25976.378290
2 Jan 2020 03:27:11.000,84.370,-76.176,25910.583324
2 Jan 2020 03:27:41.000,86.450,-76.230,25850.591152
2 Jan 2020 03:28:11.000,88.559,-76.280,25796.496760
2 Jan 2020 03:28:41.000,90.693,-76.326,25748.385168
2 Jan 2020 03:29:11.000,92.851,-76.367,25706.331424
2 Jan 2020 03:29:41.000,95.030,-76.402,25670.399768
2 Jan 2020 03:30:11.000,97.227,-76.432,25640.643724
2 Jan 2020 03:30:41.000,99.438,-76.456,25617.105778
2 Jan 2020 03:31:11.000,101.662,-76.474,25599.817164
2 Jan 2020 03:31:41.000,103.893,-76.486,25588.797869
2 Jan 2020 03:32:11.000,106.130,-76.491,25584.056316
2 Jan 2020 03:32:41.000,108.367,-76.489,25585.589490
2 Jan 2020 03:33:11.000,110.602,-76.481,25593.382899
2 Jan 2020 03:33:41.000,112.831,-76.467,25607.410652
2 Jan 2020 03:34:11.000,115.051,-76.446,25627.635524
2 Jan 2020 03:34:41.000,117.258,-76.419,25654.009161
2 Jan 2020 03:35:11.000,119.450,-76.387,25686.472257
2 Jan 2020 03:35:41.000,121.623,-76.349,25724.954809
2 Jan 2020 03:36:11.000,123.774,-76.307,25769.376455
2 Jan 2020 03:36:41.000,125.902,-76.259,25819.646593
2 Jan 2020 03:37:11.000,128.004,-76.208,25875.665047
2 Jan 2020 03:37:41.000,130.079,-76.153,25937.322269
2 Jan 2020 03:38:11.000,132.124,-76.095,26004.499807
2 Jan 2020 03:38:41.000,134.138,-76.035,26077.070754
2 Jan 2020 03:38:58.731,135.314,-75.998,26122.445022
2 Jan 2020 04:56:34.030,26.071,-75.991,26117.931498
2 Jan 2020 04:57:04.000,27.952,-76.076,26015.307052
2 Jan 2020 04:57:34.000,29.875,-76.160,25917.405273
2 Jan 2020 04:58:04.000,31.838,-76.244,25824.506151
2 Jan 2020 04:58:34.000,33.841,-76.327,25736.779069
2 Jan 2020 04:59:04.000,35.884,-76.408,25654.386888
2 Jan 2020 04:59:34.000,37.966,-76.487,25577.485374
2 Jan 2020 05:00:04.000,40.086,-76.562,25506.222538
2 Jan 2020 05:00:34.000,42.243,-76.634,25440.738475
2 Jan 2020 05:01:04.000,44.435,-76.701,25381.164223
2 Jan 2020 05:01:34.000,46.660,-76.763,25327.621659
2 Jan 2020 05:02:04.000,48.915,-76.819,25280.222901
2 Jan 2020 05:02:34.000,51.198,-76.868,25239.069811
2 Jan 2020 05:03:04.000,53.505,-76.911,25204.253724
2 Jan 2020 05:03:34.000,55.833,-76.946,25175.854808
2 Jan 2020 05:04:04.000,58.177,-76.974,25153.941894
2 Jan 2020 05:04:34.000,60.534,-76.993,25138.572129
2 Jan 2020 05:05:04.000,62.899,-77.005,25129.790734
2 Jan 2020 05:05:34.000,65.267,-77.007,25127.630773
2 Jan 2020 05:06:04.000,67.635,-77.002,25132.113040
2 Jan 2020 05:06:34.000,69.996,-76.988,25143.245956
2 Jan 2020 05:07:04.000,72.348,-76.966,25161.025535
2 Jan 2020 05:07:34.000,74.684,-76.935,25185.435469
2 Jan 2020 05:08:04.000,77.002,-76.897,25216.446967
2 Jan 2020 05:08:34.000,79.297,-76.852,25254.019235
2 Jan 2020 05:09:04.000,81.564,-76.799,25298.099441
2 Jan 2020 05:09:34.000,83.802,-76.740,25348.623013
2 Jan 2020 05:10:04.000,86.006,-76.675,25405.514028
2 Jan 2020 05:10:34.000,88.175,-76.605,25468.685127
2 Jan 2020 05:11:04.000,90.306,-76.531,25538.038512
2 Jan 2020 05:11:34.000,92.396,-76.453,25613.465957
2 Jan 2020 05:12:04.000,94.445,-76.371,25694.849353
2 Jan 2020 05:12:34.000,96.452,-76.287,25782.061186
2 Jan 2020 05:13:04.000,98.415,-76.201,25874.965222
2 Jan 2020 05:13:34.000,100.334,-76.115,25973.416323
2 Jan 2020 05:14:04.000,102.210,-76.028,26077.262030
2 Jan 2020 05:14:15.424,102.913,-75.995,26118.193207
2 Jan 2020 06:28:40.742,327.284,-75.986,26111.215061
2 Jan 2020 06:29:10.000,328.164,-76.148,25917.880649
2 Jan 2020 06:29:40.000,329.097,-76.328,25722.574715
2 Jan 2020 06:30:10.000,330.063,-76.523,25530.505761
2 Jan 2020 06:30:40.000,331.068,-76.731,25341.947730
2 Jan 2020 06:31:10.000,332.115,-76.954,25157.176712
2 Jan 2020 06:31:40.000,333.210,-77.190,24976.470413
2 Jan 2020 06:32:10.000,334.357,-77.439,24800.107576
2 Jan 2020 06:32:40.000,335.564,-77.701,24628.367096
2 Jan 2020 06:33:10.000,336.836,-77.975,24461.528334
2 Jan 2020 06:33:40.000,338.182,-78.261,24299.868850
2 Jan 2020 06:34:10.000,339.610,-78.558,24143.664622
2 Jan 2020 06:34:40.000,341.130,-78.865,23993.188937
2 Jan 2020 06:35:10.000,342.753,-79.180,23848.711486
2 Jan 2020 06:35:40.000,344.490,-79.503,23710.497181
2 Jan 2020 06:36:10.000,346.356,-79.833,23578.806099
2 Jan 2020 06:36:40.000,348.367,-80.166,23453.891032
2 Jan 2020 06:37:10.000,350.538,-80.502,23335.997385
2 Jan 2020 06:37:40.000,352.888,-80.839,23225.361856
2 Jan 2020 06:38:10.000,355.437,-81.173,23122.211178
2 Jan 2020 06:38:40.000,358.207,-81.502,23026.761707
2 Jan 2020 06:39:10.000,1.220,-81.823,22939.217293
2 Jan 2020 06:39:40.000,4.495,-82.131,22859.768925
2 Jan 2020 06:40:10.000,8.054,-82.424,22788.593428
2 Jan 2020 06:40:40.000,11.909,-82.696,22725.852873
2 Jan 2020 06:41:10.000,16.069,-82.942,22671.693035
2 Jan 2020 06:41:40.000,20.531,-83.159,22626.242961
2 Jan 2020 06:42:10.000,25.276,-83.340,22589.614052
2 Jan 2020 06:42:40.000,30.273,-83.481,22561.899557
2 Jan 2020 06:43:10.000,35.467,-83.579,22543.173711
2 Jan 2020 06:43:40.000,40.790,-83.631,22533.491482
2 Jan 2020 06:44:10.000,46.161,-83.634,22532.888196
2 Jan 2020 06:44:40.000,51.495,-83.589,22541.379240
2 Jan 2020 06:45:10.000,56.710,-83.497,22558.960066
2 Jan 2020 06:45:40.000,61.732,-83.361,22585.606190
2 Jan 2020 06:46:10.000,66.508,-83.184,22621.273454
2 Jan 2020 06:46:40.000,70.999,-82.971,22665.897975
2 Jan 2020 06:47:10.000,75.184,-82.726,22719.397060
2 Jan 2020 06:47:40.000,79.057,-82.455,22781.669419
2 Jan 2020 06:48:10.000,82.626,-82.162,22852.596028
2 Jan 2020 06:48:40.000,85.902,-81.852,22932.040281
2 Jan 2020 06:49:10.000,88.904,-81.529,23019.849653
2 Jan 2020 06:49:40.000,91.654,-81.197,23115.856048
2 Jan 2020 06:50:10.000,94.172,-80.859,23219.877077
2 Jan 2020 06:50:40.000,96.481,-80.518,23331.716307
2 Jan 2020 06:51:10.000,98.599,-80.177,23451.165411
2 Jan 2020 06:51:40.000,100.547,-79.838,23578.004509
2 Jan 2020 06:52:10.000,102.341,-79.503,23712.003419
2 Jan 2020 06:52:40.000,103.996,-79.174,23852.923010
2 Jan 2020 06:53:10.000,105.527,-78.853,24000.515192
2 Jan 2020 06:53:40.000,106.947,-78.540,24154.525567
2 Jan 2020 06:54:10.000,108.265,-78.238,24314.693401
2 Jan 2020 06:54:40.000,109.492,-77.947,24480.752874
2 Jan 2020 06:55:10.000,110.636,-77.667,24652.434031
2 Jan 2020 06:55:40.000,111.706,-77.400,24829.464006
2 Jan 2020 06:56:10.000,112.708,-77.147,25011.566619
2 Jan 2020 06:56:40.000,113.648,-76.907,25198.465065
2 Jan 2020 06:57:10.000,114.532,-76.681,25389.881422
2 Jan 2020 06:57:40.000,115.365,-76.470,25585.537658
2 Jan 2020 06:58:10.000,116.150,-76.273,25785.156280
2 Jan 2020 06:58:40.000,116.892,-76.091,25988.460924
2 Jan 2020 06:58:57.839,117.314,-75.991,26110.986912
2 Jan 2020 08:10:11.048,299.153,-75.983,26104.881979
2 Jan 2020 08:10:41.000,298.575,-76.159,25895.362406
2 Jan 2020 08:11:11.000,297.961,-76.352,25688.873553
2 Jan 2020 08:11:41.000,297.307,-76.561,25486.034468
2 Jan 2020 08:12:11.000,296.611,-76.785,25287.126096
2 Jan 2020 08:12:41.000,295.868,-77.025,25092.430905
2 Jan 2020 08:13:11.000,295.073,-77.280,24902.232299
2 Jan 2020 08:13:41.000,294.222,-77.551,24716.813978
2 Jan 2020 08:14:11.000,293.308,-77.836,24536.458917
2 Jan 2020 08:14:41.000,292.325,-78.136,24361.449894
2 Jan 2020 08:15:11.000,291.264,-78.449,24192.066735
2 Jan 2020 08:15:41.000,290.117,-78.774,24028.586745
2 Jan 2020 08:16:11.000,288.873,-79.112,23871.283456
2 Jan 2020 08:16:41.000,287.520,-79.461,23720.425407
2 Jan 2020 08:17:11.000,286.045,-79.820,23576.276134
2 Jan 2020 08:17:41.000,284.433,-80.186,23439.091584
2 Jan 2020 08:18:11.000,282.663,-80.560,23309.120055
2 Jan 2020 08:18:41.000,280.716,-80.938,23186.600828
2 Jan 2020 08:19:11.000,278.568,-81.319,23071.762809
2 Jan 2020 08:19:41.000,276.190,-81.700,22964.824330
2 Jan 2020 08:20:11.000,273.552,-82.078,22865.990613
2 Jan 2020 08:20:41.000,270.619,-82.449,22775.453629
2 Jan 2020 08:21:11.000,267.355,-82.810,22693.390635
2 Jan 2020 08:21:41.000,263.722,-83.154,22619.963769
2 Jan 2020 08:22:11.000,259.684,-83.479,22555.318151
2 Jan 2020 08:22:41.000,255.212,-83.776,22499.581637
2 Jan 2020 08:23:11.000,250.291,-84.039,22452.863765
2 Jan 2020 08:23:41.000,244.927,-84.263,22415.255438
2 Jan 2020 08:24:11.000,239.155,-84.439,22386.827730
2 Jan 2020 08:24:41.000,233.050,-84.561,22367.631831
2 Jan 2020 08:25:11.000,226.721,-84.626,22357.698569
2 Jan 2020 08:25:41.000,220.306,-84.631,22357.038309
2 Jan 2020 08:26:11.000,213.955,-84.575,22365.640675
2 Jan 2020 08:26:41.000,207.807,-84.460,22383.474756
2 Jan 2020 08:27:11.000,201.976,-84.292,22410.489305
2 Jan 2020 08:27:41.000,196.539,-84.077,22446.612908
2 Jan 2020 08:28:11.000,191.538,-83.820,22491.754647
2 Jan 2020 08:28:41.000,186.979,-83.529,22545.804558
2 Jan 2020 08:29:11.000,182.852,-83.211,22608.634446
2 Jan 2020 08:29:41.000,179.126,-82.872,22680.098270
2 Jan 2020 08:30:11.000,175.767,-82.517,22760.033606
2 Jan 2020 08:30:41.000,172.737,-82.151,22848.262234
2 Jan 2020 08:31:11.000,170.000,-81.777,22944.591392
2 Jan 2020 08:31:41.000,167.520,-81.401,23048.814252
2 Jan 2020 08:32:11.000,165.266,-81.024,23160.711905
2 Jan 2020 08:32:41.000,163.210,-80.650,23280.053918
2 Jan 2020 08:33:11.000,161.327,-80.280,23406.599615
2 Jan 2020 08:33:41.000,159.596,-79.916,23540.099453
2 Jan 2020 08:34:11.000,157.998,-79.561,23680.295221
2 Jan 2020 08:34:41.000,156.517,-79.215,23826.922521
2 Jan 2020 08:35:11.000,155.140,-78.879,23979.710941
2 Jan 2020 08:35:41.000,153.853,-78.555,24138.385314
2 Jan 2020 08:36:11.000,152.646,-78.244,24302.666717
2 Jan 2020 08:36:41.000,151.510,-77.946,24472.273694
2 Jan 2020 08:37:11.000,150.436,-77.662,24646.922021
2 Jan 2020 08:37:41.000,149.419,-77.391,24826.327222
2 Jan 2020 08:38:11.000,148.451,-77.136,25010.204238
2 Jan 2020 08:38:41.000,147.527,-76.895,25198.268418
2 Jan 2020 08:39:11.000,146.642,-76.669,25390.236183
2 Jan 2020 08:39:41.000,145.792,-76.458,25585.825628
2 Jan 2020 08:40:11.000,144.973,-76.263,25784.757066
2 Jan 2020 08:40:41.000,144.182,-76.083,25986.753524
2 Jan 2020 08:40:58.332,143.736,-75.986,26104.742053
2 Jan 2020 09:54:49.203,283.775,-75.982,26102.120432
2 Jan 2020 09:55:19.000,281.999,-76.078,25985.065662
2 Jan 2020 09:55:49.000,280.162,-76.176,25872.393043
2 Jan 2020 09:56:19.000,278.278,-76.275,25765.089021
2 Jan 2020 09:56:49.000,276.344,-76.373,25663.319115
2 Jan 2020 09:57:19.000,274.363,-76.471,25567.241425
2 Jan 2020 09:57:49.000,272.333,-76.566,25477.005897
2 Jan 2020 09:58:19.000,270.255,-76.659,25392.754368
2 Jan 2020 09:58:49.000,268.130,-76.748,25314.619072
2 Jan 2020 09:59:19.000,265.960,-76.833,25242.722738
2 Jan 2020 09:59:49.000,263.747,-76.913,25177.177921
2 Jan 2020 10:00:19.000,261.493,-76.988,25118.086414
2 Jan 2020 10:00:49.000,259.201,-77.055,25065.539244
2 Jan 2020 10:01:19.000,256.874,-77.115,25019.615597
2 Jan 2020 10:01:49.000,254.516,-77.168,24980.382916
2 Jan 2020 10:02:19.000,252.131,-77.212,24947.896473
2 Jan 2020 10:02:49.000,249.724,-77.248,24922.199053
2 Jan 2020 10:03:19.000,247.300,-77.274,24903.320993
2 Jan 2020 10:03:49.000,244.863,-77.291,24891.279654
2 Jan 2020 10:04:19.000,242.419,-77.298,24886.079599
2 Jan 2020 10:04:49.000,239.973,-77.296,24887.712495
2 Jan 2020 10:05:19.000,237.531,-77.284,24896.157147
2 Jan 2020 10:05:49.000,235.098,-77.263,24911.379610
2 Jan 2020 10:06:19.000,232.679,-77.232,24933.333294
2 Jan 2020 10:06:49.000,230.278,-77.193,24961.959220
2 Jan 2020 10:07:19.000,227.901,-77.145,24997.186271
2 Jan 2020 10:07:49.000,225.551,-77.090,25038.931559
2 Jan 2020 10:08:19.000,223.232,-77.027,25087.100605
2 Jan 2020 10:08:49.000,220.948,-76.958,25141.588020
2 Jan 2020 10:09:19.000,218.701,-76.882,25202.277791
2 Jan 2020 10:09:49.000,216.493,-76.802,25269.043809
2 Jan 2020 10:10:19.000,214.326,-76.717,25341.750481
2 Jan 2020 10:10:49.000,212.202,-76.628,25420.252921
2 Jan 2020 10:11:19.000,210.121,-76.537,25504.398043
2 Jan 2020 10:11:49.000,208.085,-76.443,25594.024805
2 Jan 2020 10:12:19.000,206.093,-76.348,25688.964890
2 Jan 2020 10:12:49.000,204.146,-76.252,25789.043309
2 Jan 2020 10:13:19.000,202.242,-76.157,25894.079149
2 Jan 2020 10:13:49.000,200.381,-76.062,26003.885613
2 Jan 2020 10:14:14.837,198.813,-75.982,26102.131078
2 Jan 2020 11:32:00.162,307.619,-75.985,26104.901039
2 Jan 2020 11:32:30.000,305.603,-76.038,26039.998905
2 Jan 2020 11:33:00.000,303.549,-76.088,25980.199822
2 Jan 2020 11:33:30.000,301.469,-76.135,25925.983564
2 Jan 2020 11:34:00.000,299.365,-76.177,25877.453864
2 Jan 2020 11:34:30.000,297.240,-76.216,25834.705178
2 Jan 2020 11:35:00.000,295.095,-76.250,25797.822274
2 Jan 2020 11:35:30.000,292.934,-76.279,25766.880066
2 Jan 2020 11:36:00.000,290.758,-76.302,25741.943046
2 Jan 2020 11:36:30.000,288.571,-76.320,25723.065205
2 Jan 2020 11:37:00.000,286.376,-76.333,25710.289768
2 Jan 2020 11:37:30.000,284.176,-76.339,25703.649018
2 Jan 2020 11:38:00.000,281.974,-76.339,25703.164150
2 Jan 2020 11:38:30.000,279.774,-76.334,25708.845189
2 Jan 2020 11:39:00.000,277.579,-76.322,25720.690956
2 Jan 2020 11:39:30.000,275.392,-76.305,25738.689069
2 Jan 2020 11:40:00.000,273.216,-76.282,25762.816050
2 Jan 2020 11:40:30.000,271.054,-76.253,25793.037237
2 Jan 2020 11:41:00.000,268.910,-76.220,25829.307201
2 Jan 2020 11:41:30.000,266.785,-76.181,25871.569763
2 Jan 2020 11:42:00.000,264.682,-76.138,25919.758271
2 Jan 2020 11:42:30.000,262.604,-76.091,25973.795872
2 Jan 2020 11:43:00.000,260.553,-76.041,26033.595935
2 Jan 2020 11:43:30.000,258.530,-75.988,26099.061953
2 Jan 2020 11:43:32.471,258.364,-75.983,26104.702853
2 Jan 2020 13:00:12.487,18.544,-75.992,26111.316823
2 Jan 2020 13:00:42.000,17.273,-76.136,25939.515699
2 Jan 2020 13:01:12.000,15.938,-76.291,25768.214222
2 Jan 2020 13:01:42.000,14.557,-76.457,25600.526418
2 Jan 2020 13:02:12.000,13.125,-76.631,25436.707583
2 Jan 2020 13:02:42.000,11.639,-76.814,25277.013179
2 Jan 2020 13:03:12.000,10.093,-77.005,25121.698234
2 Jan 2020 13:03:42.000,8.483,-77.204,24971.016709
2 Jan 2020 13:04:12.000,6.804,-77.409,24825.220603
2 Jan 2020 13:04:42.000,5.050,-77.620,24684.560104
2 Jan 2020 13:05:12.000,3.216,-77.835,24549.281504
2 Jan 2020 13:05:42.000,1.296,-78.054,24419.627301
2 Jan 2020 13:06:12.000,359.285,-78.275,24295.835141
2 Jan 2020 13:06:42.000,357.176,-78.497,24178.136967
2 Jan 2020 13:07:12.000,354.965,-78.719,24066.757965
2 Jan 2020 13:07:42.000,352.644,-78.938,23961.916381
2 Jan 2020 13:08:12.000,350.211,-79.153,23863.821534
2 Jan 2020 13:08:42.000,347.661,-79.362,23772.673642
2 Jan 2020 13:09:12.000,344.990,-79.563,23688.662736
2 Jan 2020 13:09:42.000,342.198,-79.754,23611.967669
2 Jan 2020 13:10:12.000,339.285,-79.933,23542.755696
2 Jan 2020 13:10:42.000,336.253,-80.098,23481.180958
2 Jan 2020 13:11:12.000,333.108,-80.246,23427.384168
2 Jan 2020 13:11:42.000,329.857,-80.376,23381.491708
2 Jan 2020 13:12:12.000,326.511,-80.486,23343.615150
2 Jan 2020 13:12:42.000,323.084,-80.574,23313.850341
2 Jan 2020 13:13:12.000,319.594,-80.639,23292.277096
2 Jan 2020 13:13:42.000,316.058,-80.679,23278.958700
2 Jan 2020 13:14:12.000,312.499,-80.694,23273.941550
2 Jan 2020 13:14:42.000,308.937,-80.684,23277.254889
2 Jan 2020 13:15:12.000,305.396,-80.649,23288.910665
2 Jan 2020 13:15:42.000,301.898,-80.588,23308.903530
2 Jan 2020 13:16:12.000,298.461,-80.504,23337.210649
2 Jan 2020 13:16:42.000,295.104,-80.397,23373.792174
2 Jan 2020 13:17:12.000,291.842,-80.270,23418.591283
2 Jan 2020 13:17:42.000,288.688,-80.122,23471.534682
2 Jan 2020 13:18:12.000,285.650,-79.958,23532.532585
2 Jan 2020 13:18:42.000,282.735,-79.779,23601.479878
2 Jan 2020 13:19:12.000,279.946,-79.586,23678.256287
2 Jan 2020 13:19:42.000,277.284,-79.383,23762.727291
2 Jan 2020 13:20:12.000,274.750,-79.170,23854.744238
2 Jan 2020 13:20:42.000,272.340,-78.952,23954.146003
2 Jan 2020 13:21:12.000,270.050,-78.728,24060.759218
2 Jan 2020 13:21:42.000,267.878,-78.501,24174.399259
2 Jan 2020 13:22:12.000,265.816,-78.274,24294.871346
2 Jan 2020 13:22:42.000,263.861,-78.047,24421.970502
2 Jan 2020 13:23:12.000,262.006,-77.821,24555.483810
2 Jan 2020 13:23:42.000,260.246,-77.600,24695.190396
2 Jan 2020 13:24:12.000,258.575,-77.382,24840.862531
2 Jan 2020 13:24:42.000,256.987,-77.171,24992.266488
2 Jan 2020 13:25:12.000,255.477,-76.966,25149.163672
2 Jan 2020 13:25:42.000,254.040,-76.769,25311.310275
2 Jan 2020 13:26:12.000,252.671,-76.581,25478.459779
2 Jan 2020 13:26:42.000,251.366,-76.401,25650.362559
2 Jan 2020 13:27:12.000,250.120,-76.232,25826.766874
2 Jan 2020 13:27:42.000,248.930,-76.073,26007.419536
2 Jan 2020 13:27:58.965,248.279,-75.987,26111.364408
2 Jan 2020 14:39:35.062,53.813,-75.996,26118.036106
2 Jan 2020 14:40:05.000,53.905,-76.180,25900.578469
2 Jan 2020 14:40:35.000,54.013,-76.381,25685.660166
2 Jan 2020 14:41:05.000,54.136,-76.601,25474.017753
2 Jan 2020 14:41:35.000,54.276,-76.839,25265.939768
2 Jan 2020 14:42:05.000,54.435,-77.096,25061.717644
2 Jan 2020 14:42:35.000,54.613,-77.370,24861.645185
2 Jan 2020 14:43:05.000,54.812,-77.663,24666.017993
2 Jan 2020 14:43:35.000,55.036,-77.975,24475.132522
2 Jan 2020 14:44:05.000,55.285,-78.304,24289.286604
2 Jan 2020 14:44:35.000,55.564,-78.652,24108.776823
2 Jan 2020 14:45:05.000,55.877,-79.017,23933.898926
2 Jan 2020 14:45:35.000,56.226,-79.401,23764.946607
2 Jan 2020 14:46:05.000,56.618,-79.801,23602.210296
2 Jan 2020 14:46:35.000,57.060,-80.218,23445.977150
2 Jan 2020 14:47:05.000,57.559,-80.652,23296.528435
2 Jan 2020 14:47:35.000,58.125,-81.102,23154.139431
2 Jan 2020 14:48:05.000,58.770,-81.566,23019.078002
2 Jan 2020 14:48:35.000,59.511,-82.045,22891.603144
2 Jan 2020 14:49:05.000,60.368,-82.536,22771.964734
2 Jan 2020 14:49:35.000,61.369,-83.040,22660.400794
2 Jan 2020 14:50:05.000,62.550,-83.555,22557.137255
2 Jan 2020 14:50:35.000,63.961,-84.078,22462.386300
2 Jan 2020 14:51:05.000,65.673,-84.609,22376.345827
2 Jan 2020 14:51:35.000,67.788,-85.144,22299.197265
2 Jan 2020 14:52:05.000,70.455,-85.680,22231.105163
2 Jan 2020 14:52:35.000,73.907,-86.212,22172.215877
2 Jan 2020 14:53:05.000,78.507,-86.733,22122.657064
2 Jan 2020 14:53:35.000,84.841,-87.231,22082.536161
2 Jan 2020 14:54:05.000,93.838,-87.685,22051.940132
2 Jan 2020 14:54:35.000,106.773,-88.060,22030.934718
2 Jan 2020 14:55:05.000,124.521,-88.297,22019.564148
2 Jan 2020 14:55:35.000,145.351,-88.336,22017.850549
2 Jan 2020 14:56:05.000,164.581,-88.162,22025.793993
2 Jan 2020 14:56:35.000,179.186,-87.828,22043.372478
