STKdata/stk_70fov_4leo/Satellite-MEO_Satellite10200-To-Satellite-LEO_Satellite10000 AER.csv

"Time (UTCG)","Azimuth (deg)","Elevation (deg)","Range (km)"
1 Jan 2020 00:07:35.102,21.039,-75.993,26111.709623
1 Jan 2020 00:08:05.000,19.808,-76.142,25933.451476
1 Jan 2020 00:08:35.000,18.531,-76.302,25757.866267
1 Jan 2020 00:09:05.000,17.209,-76.473,25585.824077
1 Jan 2020 00:09:35.000,15.838,-76.653,25417.583902
1 Jan 2020 00:10:05.000,14.413,-76.843,25253.405266
1 Jan 2020 00:10:35.000,12.930,-77.042,25093.547644
1 Jan 2020 00:11:05.000,11.382,-77.250,24938.269823
1 Jan 2020 00:11:35.000,9.766,-77.465,24787.829011
1 Jan 2020 00:12:05.000,8.075,-77.687,24642.481018
1 Jan 2020 00:12:35.000,6.302,-77.914,24502.478128
1 Jan 2020 00:13:05.000,4.443,-78.146,24368.069221
1 Jan 2020 00:13:35.000,2.489,-78.382,24239.498704
1 Jan 2020 00:14:05.000,0.434,-78.619,24117.005645
1 Jan 2020 00:14:35.000,358.271,-78.857,24000.822690
1 Jan 2020 00:15:05.000,355.994,-79.093,23891.175905
1 Jan 2020 00:15:35.000,353.596,-79.327,23788.282693
1 Jan 2020 00:16:05.000,351.072,-79.556,23692.351639
1 Jan 2020 00:16:35.000,348.415,-79.777,23603.581377
1 Jan 2020 00:17:05.000,345.624,-79.990,23522.159544
1 Jan 2020 00:17:35.000,342.695,-80.190,23448.262364
1 Jan 2020 00:18:05.000,339.630,-80.377,23382.053019
1 Jan 2020 00:18:35.000,336.431,-80.547,23323.681327
1 Jan 2020 00:19:05.000,333.105,-80.699,23273.282772
1 Jan 2020 00:19:35.000,329.662,-80.830,23230.977995
1 Jan 2020 00:20:05.000,326.116,-80.938,23196.871780
1 Jan 2020 00:20:35.000,322.485,-81.021,23171.052722
1 Jan 2020 00:21:05.000,318.790,-81.078,23153.592656
1 Jan 2020 00:21:35.000,315.054,-81.107,23144.546273
1 Jan 2020 00:22:05.000,311.303,-81.109,23143.950759
1 Jan 2020 00:22:35.000,307.565,-81.083,23151.825635
1 Jan 2020 00:23:05.000,303.864,-81.029,23168.172693
1 Jan 2020 00:23:35.000,300.226,-80.949,23192.975787
1 Jan 2020 00:24:05.000,296.673,-80.844,23226.201240
1 Jan 2020 00:24:35.000,293.224,-80.714,23267.797867
1 Jan 2020 00:25:05.000,289.894,-80.564,23317.697448
1 Jan 2020 00:25:35.000,286.693,-80.393,23375.814702
1 Jan 2020 00:26:05.000,283.630,-80.205,23442.048415
1 Jan 2020 00:26:35.000,280.709,-80.003,23516.281615
1 Jan 2020 00:27:05.000,277.931,-79.788,23598.382484
1 Jan 2020 00:27:35.000,275.296,-79.563,23688.204474
1 Jan 2020 00:28:05.000,272.799,-79.331,23785.587977
1 Jan 2020 00:28:35.000,270.437,-79.092,23890.360573
1 Jan 2020 00:29:05.000,268.204,-78.851,24002.338035
1 Jan 2020 00:29:35.000,266.093,-78.607,24121.325458
1 Jan 2020 00:30:05.000,264.099,-78.364,24247.117228
1 Jan 2020 00:30:35.000,262.215,-78.122,24379.499333
1 Jan 2020 00:31:05.000,260.433,-77.884,24518.249366
1 Jan 2020 00:31:35.000,258.747,-77.651,24663.137660
1 Jan 2020 00:32:05.000,257.151,-77.423,24813.928183
1 Jan 2020 00:32:35.000,255.638,-77.202,24970.379713
1 Jan 2020 00:33:05.000,254.203,-76.989,25132.245493
1 Jan 2020 00:33:35.000,252.841,-76.784,25299.275817
1 Jan 2020 00:34:05.000,251.546,-76.590,25471.217639
1 Jan 2020 00:34:35.000,250.313,-76.405,25647.815604
1 Jan 2020 00:35:05.000,249.138,-76.231,25828.812744
1 Jan 2020 00:35:35.000,248.017,-76.068,26013.951136
1 Jan 2020 00:35:50.609,247.454,-75.988,26111.828311
1 Jan 2020 01:47:21.059,55.018,-75.996,26118.321387
1 Jan 2020 01:47:51.000,55.189,-76.179,25901.352139
1 Jan 2020 01:48:21.000,55.377,-76.381,25686.990446
1 Jan 2020 01:48:51.000,55.586,-76.600,25475.950929
1 Jan 2020 01:49:21.000,55.816,-76.837,25268.521701
1 Jan 2020 01:49:51.000,56.069,-77.092,25064.993623
1 Jan 2020 01:50:21.000,56.347,-77.365,24865.659778
1 Jan 2020 01:50:51.000,56.653,-77.656,24670.814886
1 Jan 2020 01:51:21.000,56.991,-77.966,24480.754348
1 Jan 2020 01:51:51.000,57.362,-78.293,24295.774773
1 Jan 2020 01:52:21.000,57.772,-78.638,24116.171333
1 Jan 2020 01:52:51.000,58.226,-79.000,23942.238172
1 Jan 2020 01:53:21.000,58.729,-79.380,23774.267188
1 Jan 2020 01:53:51.000,59.288,-79.776,23612.546812
1 Jan 2020 01:54:21.000,59.912,-80.188,23457.362005
1 Jan 2020 01:54:51.000,60.612,-80.616,23308.991628
1 Jan 2020 01:55:21.000,61.400,-81.058,23167.708357
1 Jan 2020 01:55:51.000,62.293,-81.515,23033.777248
1 Jan 2020 01:56:21.000,63.311,-81.984,22907.454300
1 Jan 2020 01:56:51.000,64.481,-82.465,22788.986201
1 Jan 2020 01:57:21.000,65.836,-82.957,22678.607607
1 Jan 2020 01:57:51.000,67.423,-83.456,22576.540919
1 Jan 2020 01:58:21.000,69.301,-83.962,22482.994641
1 Jan 2020 01:58:51.000,71.552,-84.471,22398.162855
1 Jan 2020 01:59:21.000,74.290,-84.980,22322.223064
1 Jan 2020 01:59:51.000,77.676,-85.485,22255.335800
1 Jan 2020 02:00:21.000,81.936,-85.977,22197.643331
1 Jan 2020 02:00:51.000,87.390,-86.448,22149.269187
1 Jan 2020 02:01:21.000,94.473,-86.882,22110.316661
1 Jan 2020 02:01:51.000,103.707,-87.259,22080.868587
1 Jan 2020 02:02:21.000,115.512,-87.548,22060.986614
1 Jan 2020 02:02:51.000,129.720,-87.712,22050.710948
1 Jan 2020 02:03:21.000,145.051,-87.722,22050.059788
1 Jan 2020 02:03:51.000,159.508,-87.578,22059.029402
1 Jan 2020 02:04:21.000,171.665,-87.304,22077.594129
1 Jan 2020 02:04:51.000,181.233,-86.937,22105.706418
1 Jan 2020 02:05:21.000,188.588,-86.509,22143.297325
1 Jan 2020 02:05:51.000,194.257,-86.043,22190.276885
1 Jan 2020 02:06:21.000,198.689,-85.554,22246.534845
1 Jan 2020 02:06:51.000,202.217,-85.052,22311.940971
1 Jan 2020 02:07:21.000,205.079,-84.545,22386.346498
1 Jan 2020 02:07:51.000,207.442,-84.037,22469.584696
1 Jan 2020 02:08:21.000,209.426,-83.532,22561.472154
1 Jan 2020 02:08:51.000,211.116,-83.033,22661.809243
1 Jan 2020 02:09:21.000,212.575,-82.543,22770.382226
1 Jan 2020 02:09:51.000,213.850,-82.062,22886.963844
1 Jan 2020 02:10:21.000,214.976,-81.593,23011.314894
1 Jan 2020 02:10:51.000,215.980,-81.137,23143.184688
1 Jan 2020 02:11:21.000,216.885,-80.694,23282.313451
1 Jan 2020 02:11:51.000,217.706,-80.266,23428.432786
1 Jan 2020 02:12:21.000,218.457,-79.854,23581.267064
1 Jan 2020 02:12:51.000,219.149,-79.457,23740.534854
1 Jan 2020 02:13:21.000,219.791,-79.077,23905.948983
1 Jan 2020 02:13:51.000,220.390,-78.714,24077.219190
1 Jan 2020 02:14:21.000,220.953,-78.368,24254.052098
1 Jan 2020 02:14:51.000,221.484,-78.039,24436.152425
1 Jan 2020 02:15:21.000,221.988,-77.729,24623.223884
1 Jan 2020 02:15:51.000,222.469,-77.436,24814.970006
1 Jan 2020 02:16:21.000,222.930,-77.160,25011.095242
1 Jan 2020 02:16:51.000,223.374,-76.903,25211.304320
1 Jan 2020 02:17:21.000,223.803,-76.664,25415.304879
1 Jan 2020 02:17:51.000,224.219,-76.442,25622.806719
1 Jan 2020 02:18:21.000,224.625,-76.238,25833.522633
1 Jan 2020 02:18:51.000,225.021,-76.051,26047.168871
1 Jan 2020 02:19:00.959,225.151,-75.992,26118.691825
1 Jan 2020 03:31:34.984,72.998,-75.998,26122.343991
1 Jan 2020 03:32:04.000,74.488,-76.118,25976.583034
1 Jan 2020 03:32:34.000,76.082,-76.249,25830.529515
1 Jan 2020 03:33:04.000,77.734,-76.384,25689.417002
1 Jan 2020 03:33:34.000,79.444,-76.522,25553.457628
1 Jan 2020 03:34:04.000,81.217,-76.664,25422.858628
1 Jan 2020 03:34:34.000,83.053,-76.808,25297.821655
1 Jan 2020 03:35:04.000,84.955,-76.953,25178.541862
1 Jan 2020 03:35:34.000,86.925,-77.098,25065.208114
1 Jan 2020 03:36:04.000,88.963,-77.243,24958.000889
1 Jan 2020 03:36:34.000,91.072,-77.385,24857.092507
1 Jan 2020 03:37:04.000,93.250,-77.524,24762.646200
1 Jan 2020 03:37:34.000,95.499,-77.658,24674.815259
1 Jan 2020 03:38:04.000,97.817,-77.787,24593.743021
1 Jan 2020 03:38:34.000,100.203,-77.909,24519.561239
1 Jan 2020 03:39:04.000,102.654,-78.023,24452.390142
1 Jan 2020 03:39:34.000,105.168,-78.127,24392.337703
1 Jan 2020 03:40:04.000,107.739,-78.222,24339.498996
1 Jan 2020 03:40:34.000,110.363,-78.305,24293.956196
1 Jan 2020 03:41:04.000,113.033,-78.376,24255.777446
1 Jan 2020 03:41:34.000,115.744,-78.435,24225.016999
1 Jan 2020 03:42:04.000,118.486,-78.479,24201.714756
1 Jan 2020 03:42:34.000,121.252,-78.510,24185.896263
1 Jan 2020 03:43:04.000,124.033,-78.526,24177.572242
1 Jan 2020 03:43:34.000,126.820,-78.528,24176.738753
1 Jan 2020 03:44:04.000,129.604,-78.515,24183.377144
1 Jan 2020 03:44:34.000,132.376,-78.487,24197.454169
1 Jan 2020 03:45:04.000,135.127,-78.446,24218.922083
1 Jan 2020 03:45:34.000,137.849,-78.391,24247.718938
1 Jan 2020 03:46:04.000,140.534,-78.324,24283.768868
1 Jan 2020 03:46:34.000,143.177,-78.245,24326.982523
1 Jan 2020 03:47:04.000,145.770,-78.154,24377.257284
1 Jan 2020 03:47:34.000,148.309,-78.053,24434.478066
1 Jan 2020 03:48:04.000,150.791,-77.944,24498.517669
1 Jan 2020 03:48:34.000,153.212,-77.826,24569.237413
1 Jan 2020 03:49:04.000,155.569,-77.702,24646.487873
1 Jan 2020 03:49:34.000,157.862,-77.572,24730.109118
1 Jan 2020 03:50:04.000,160.091,-77.438,24819.932017
1 Jan 2020 03:50:34.000,162.254,-77.301,24915.778543
1 Jan 2020 03:51:04.000,164.353,-77.161,25017.462589
1 Jan 2020 03:51:34.000,166.388,-77.021,25124.790694
1 Jan 2020 03:52:04.000,168.362,-76.880,25237.562937
1 Jan 2020 03:52:34.000,170.276,-76.740,25355.572982
1 Jan 2020 03:53:04.000,172.132,-76.602,25478.609790
1 Jan 2020 03:53:34.000,173.932,-76.467,25606.457661
1 Jan 2020 03:54:04.000,175.679,-76.335,25738.897067
1 Jan 2020 03:54:34.000,177.376,-76.207,25875.705311
1 Jan 2020 03:55:04.000,179.024,-76.084,26016.657158
1 Jan 2020 03:55:25.971,180.202,-75.997,26122.385295
1 Jan 2020 05:13:39.165,70.953,-75.996,26121.097442
1 Jan 2020 05:14:09.000,73.011,-76.033,26074.506230
1 Jan 2020 05:14:39.000,75.101,-76.068,26033.357344
1 Jan 2020 05:15:09.000,77.209,-76.097,25997.997295
1 Jan 2020 05:15:39.000,79.332,-76.123,25968.489940
1 Jan 2020 05:16:09.000,81.467,-76.143,25944.888940
1 Jan 2020 05:16:39.000,83.613,-76.159,25927.237517
1 Jan 2020 05:17:09.000,85.765,-76.169,25915.568378
1 Jan 2020 05:17:39.000,87.922,-76.174,25909.903420
1 Jan 2020 05:18:09.000,90.080,-76.174,25910.253753
1 Jan 2020 05:18:39.000,92.237,-76.169,25916.619626
1 Jan 2020 05:19:09.000,94.389,-76.158,25928.990448
1 Jan 2020 05:19:39.000,96.533,-76.142,25947.344746
1 Jan 2020 05:20:09.000,98.668,-76.121,25971.650370
1 Jan 2020 05:20:39.000,100.789,-76.095,26001.864551
1 Jan 2020 05:21:09.000,102.894,-76.065,26037.934096
1 Jan 2020 05:21:39.000,104.982,-76.030,26079.795602
1 Jan 2020 05:22:05.328,106.798,-75.997,26121.247242
1 Jan 2020 06:40:12.904,356.628,-75.988,26115.207262
1 Jan 2020 06:40:42.000,358.148,-76.108,25970.604038
1 Jan 2020 06:41:12.000,359.761,-76.238,25825.310054
1 Jan 2020 06:41:42.000,1.423,-76.373,25684.106668
1 Jan 2020 06:42:12.000,3.136,-76.512,25547.224087
1 Jan 2020 06:42:42.000,4.905,-76.656,25414.890344
1 Jan 2020 06:43:12.000,6.730,-76.803,25287.330666
1 Jan 2020 06:43:42.000,8.616,-76.952,25164.766655
1 Jan 2020 06:44:12.000,10.565,-77.103,25047.416247
1 Jan 2020 06:44:42.000,12.579,-77.255,24935.492024
1 Jan 2020 06:45:12.000,14.659,-77.406,24829.201151
1 Jan 2020 06:45:42.000,16.809,-77.555,24728.744468
1 Jan 2020 06:46:12.000,19.029,-77.702,24634.315745
1 Jan 2020 06:46:42.000,21.319,-77.844,24546.100803
1 Jan 2020 06:47:12.000,23.680,-77.981,24464.277285
1 Jan 2020 06:47:42.000,26.111,-78.112,24389.013121
1 Jan 2020 06:48:12.000,28.610,-78.235,24320.466346
1 Jan 2020 06:48:42.000,31.174,-78.349,24258.784267
1 Jan 2020 06:49:12.000,33.801,-78.452,24204.102720
1 Jan 2020 06:49:42.000,36.486,-78.545,24156.545708
1 Jan 2020 06:50:12.000,39.221,-78.625,24116.224391
1 Jan 2020 06:50:42.000,42.002,-78.691,24083.236840
1 Jan 2020 06:51:12.000,44.819,-78.743,24057.667473
1 Jan 2020 06:51:42.000,47.665,-78.781,24039.586634
1 Jan 2020 06:52:12.000,50.529,-78.803,24029.050258
1 Jan 2020 06:52:42.000,53.402,-78.809,24026.099541
1 Jan 2020 06:53:12.000,56.274,-78.799,24030.760777
1 Jan 2020 06:53:42.000,59.134,-78.774,24043.045261
1 Jan 2020 06:54:12.000,61.972,-78.733,24062.949067
1 Jan 2020 06:54:42.000,64.779,-78.678,24090.453316
1 Jan 2020 06:55:12.000,67.545,-78.607,24125.524138
1 Jan 2020 06:55:42.000,70.263,-78.524,24168.112890
1 Jan 2020 06:56:12.000,72.926,-78.427,24218.156545
1 Jan 2020 06:56:42.000,75.528,-78.319,24275.577538
1 Jan 2020 06:57:12.000,78.063,-78.201,24340.284875
1 Jan 2020 06:57:42.000,80.528,-78.074,24412.174137
1 Jan 2020 06:58:12.000,82.919,-77.938,24491.128108
1 Jan 2020 06:58:42.000,85.236,-77.796,24577.017527
1 Jan 2020 06:59:12.000,87.477,-77.649,24669.700997
1 Jan 2020 06:59:42.000,89.642,-77.498,24769.026669
1 Jan 2020 07:00:12.000,91.731,-77.343,24874.832246
1 Jan 2020 07:00:42.000,93.745,-77.188,24986.945852
1 Jan 2020 07:01:12.000,95.687,-77.032,25105.186954
1 Jan 2020 07:01:42.000,97.558,-76.877,25229.366285
1 Jan 2020 07:02:12.000,99.359,-76.723,25359.287774
1 Jan 2020 07:02:42.000,101.095,-76.572,25494.748488
1 Jan 2020 07:03:12.000,102.766,-76.426,25635.539546
1 Jan 2020 07:03:42.000,104.377,-76.283,25781.446830
1 Jan 2020 07:04:12.000,105.929,-76.146,25932.251927
1 Jan 2020 07:04:42.000,107.426,-76.015,26087.731815
1 Jan 2020 07:04:47.232,107.681,-75.993,26115.311012
1 Jan 2020 08:17:08.346,313.358,-75.984,26108.397057
1 Jan 2020 08:17:38.000,313.672,-76.164,25895.074094
1 Jan 2020 08:18:08.000,313.995,-76.364,25682.084905
1 Jan 2020 08:18:38.000,314.324,-76.581,25472.217282
1 Jan 2020 08:19:08.000,314.661,-76.816,25265.757845
1 Jan 2020 08:19:38.000,315.006,-77.069,25062.996405
1 Jan 2020 08:20:08.000,315.363,-77.341,24864.225478
1 Jan 2020 08:20:38.000,315.733,-77.630,24669.739732
1 Jan 2020 08:21:08.000,316.118,-77.938,24479.835093
1 Jan 2020 08:21:38.000,316.521,-78.264,24294.809220
1 Jan 2020 08:22:08.000,316.944,-78.608,24114.959028
1 Jan 2020 08:22:38.000,317.393,-78.969,23940.581050
1 Jan 2020 08:23:08.000,317.870,-79.349,23771.970266
1 Jan 2020 08:23:38.000,318.381,-79.745,23609.419175
1 Jan 2020 08:24:08.000,318.934,-80.158,23453.216508
1 Jan 2020 08:24:38.000,319.534,-80.588,23303.647316
1 Jan 2020 08:25:08.000,320.193,-81.034,23160.990133
1 Jan 2020 08:25:38.000,320.921,-81.494,23025.516983
1 Jan 2020 08:26:08.000,321.735,-81.969,22897.491892
1 Jan 2020 08:26:38.000,322.654,-82.458,22777.169442
1 Jan 2020 08:27:08.000,323.705,-82.959,22664.794427
1 Jan 2020 08:27:38.000,324.921,-83.470,22560.599231
1 Jan 2020 08:28:08.000,326.350,-83.991,22464.803515
1 Jan 2020 08:28:38.000,328.059,-84.520,22377.612617
1 Jan 2020 08:29:08.000,330.143,-85.054,22299.216941
1 Jan 2020 08:29:38.000,332.740,-85.589,22229.789930
1 Jan 2020 08:30:08.000,336.067,-86.122,22169.487608
1 Jan 2020 08:30:38.000,340.456,-86.645,22118.447348
1 Jan 2020 08:31:08.000,346.449,-87.148,22076.787334
1 Jan 2020 08:31:38.000,354.906,-87.612,22044.605232
1 Jan 2020 08:32:08.000,7.066,-88.004,22021.977910
1 Jan 2020 08:32:38.000,24.008,-88.271,22008.960812
1 Jan 2020 08:33:08.000,44.633,-88.348,22005.587636
1 Jan 2020 08:33:38.000,64.509,-88.209,22011.869980
1 Jan 2020 08:34:08.000,79.987,-87.898,22027.797367
1 Jan 2020 08:34:38.000,90.891,-87.479,22053.337352
1 Jan 2020 08:35:08.000,98.482,-87.001,22088.435517
1 Jan 2020 08:35:38.000,103.898,-86.489,22133.016175
1 Jan 2020 08:36:08.000,107.893,-85.962,22186.982694
1 Jan 2020 08:36:38.000,110.933,-85.427,22250.218328
1 Jan 2020 08:37:08.000,113.312,-84.890,22322.586476
1 Jan 2020 08:37:38.000,115.217,-84.357,22403.932325
1 Jan 2020 08:38:08.000,116.774,-83.829,22494.083347
1 Jan 2020 08:38:38.000,118.066,-83.309,22592.850670
1 Jan 2020 08:39:08.000,119.154,-82.799,22700.029483
1 Jan 2020 08:39:38.000,120.081,-82.300,22815.401287
1 Jan 2020 08:40:08.000,120.879,-81.815,22938.734420
1 Jan 2020 08:40:38.000,121.571,-81.342,23069.785682
1 Jan 2020 08:41:08.000,122.176,-80.885,23208.300720
1 Jan 2020 08:41:38.000,122.707,-80.442,23354.016543
1 Jan 2020 08:42:08.000,123.177,-80.016,23506.661901
1 Jan 2020 08:42:38.000,123.593,-79.607,23665.958683
1 Jan 2020 08:43:08.000,123.964,-79.214,23831.623355
1 Jan 2020 08:43:38.000,124.294,-78.839,24003.366934
1 Jan 2020 08:44:08.000,124.589,-78.482,24180.897720
1 Jan 2020 08:44:38.000,124.853,-78.142,24363.921178
1 Jan 2020 08:45:08.000,125.089,-77.821,24552.141150
1 Jan 2020 08:45:38.000,125.300,-77.518,24745.260720
1 Jan 2020 08:46:08.000,125.489,-77.234,24942.983019
1 Jan 2020 08:46:38.000,125.657,-76.968,25145.012309
1 Jan 2020 08:47:08.000,125.806,-76.720,25351.053274
1 Jan 2020 08:47:38.000,125.937,-76.490,25560.813692
1 Jan 2020 08:48:08.000,126.052,-76.279,25774.003616
1 Jan 2020 08:48:38.000,126.152,-76.085,25990.336199
1 Jan 2020 08:48:54.154,126.200,-75.988,26108.029278
1 Jan 2020 10:00:29.029,291.706,-75.982,26103.175285
1 Jan 2020 10:00:59.000,290.545,-76.135,25920.484361
1 Jan 2020 10:01:29.000,289.330,-76.298,25741.718458
1 Jan 2020 10:01:59.000,288.058,-76.472,25567.311076
1 Jan 2020 10:02:29.000,286.725,-76.655,25397.514600
1 Jan 2020 10:02:59.000,285.327,-76.847,25232.579667
1 Jan 2020 10:03:29.000,283.858,-77.048,25072.754489
1 Jan 2020 10:03:59.000,282.314,-77.255,24918.283860
1 Jan 2020 10:04:29.000,280.690,-77.469,24769.409471
1 Jan 2020 10:04:59.000,278.981,-77.688,24626.367497
1 Jan 2020 10:05:29.000,277.180,-77.911,24489.388862
1 Jan 2020 10:05:59.000,275.282,-78.137,24358.698121
1 Jan 2020 10:06:29.000,273.281,-78.364,24234.512378
1 Jan 2020 10:06:59.000,271.172,-78.591,24117.041273
1 Jan 2020 10:07:29.000,268.950,-78.816,24006.484785
1 Jan 2020 10:07:59.000,266.609,-79.038,23903.033227
1 Jan 2020 10:08:29.000,264.146,-79.253,23806.866157
1 Jan 2020 10:08:59.000,261.558,-79.462,23718.151332
1 Jan 2020 10:09:29.000,258.843,-79.660,23637.044623
1 Jan 2020 10:09:59.000,256.001,-79.847,23563.688091
1 Jan 2020 10:10:29.000,253.034,-80.020,23498.210008
1 Jan 2020 10:10:59.000,249.947,-80.177,23440.723866
1 Jan 2020 10:11:29.000,246.749,-80.315,23391.328186
1 Jan 2020 10:11:59.000,243.448,-80.434,23350.105286
1 Jan 2020 10:12:29.000,240.058,-80.531,23317.121269
1 Jan 2020 10:12:59.000,236.597,-80.604,23292.425464
1 Jan 2020 10:13:29.000,233.082,-80.654,23276.050360
1 Jan 2020 10:13:59.000,229.534,-80.678,23268.011035
1 Jan 2020 10:14:29.000,225.976,-80.677,23268.305314
1 Jan 2020 10:14:59.000,222.429,-80.651,23276.913706
1 Jan 2020 10:15:29.000,218.915,-80.600,23293.799517
1 Jan 2020 10:15:59.000,215.455,-80.526,23318.909007
1 Jan 2020 10:16:29.000,212.065,-80.428,23352.171733
1 Jan 2020 10:16:59.000,208.763,-80.309,23393.500982
1 Jan 2020 10:17:29.000,205.561,-80.171,23442.794048
1 Jan 2020 10:17:59.000,202.467,-80.016,23499.933072
1 Jan 2020 10:18:29.000,199.489,-79.845,23564.785507
1 Jan 2020 10:18:59.000,196.631,-79.661,23637.204951
1 Jan 2020 10:19:29.000,193.893,-79.465,23717.031529
1 Jan 2020 10:19:59.000,191.277,-79.261,23804.093248
1 Jan 2020 10:20:29.000,188.779,-79.049,23898.206483
1 Jan 2020 10:20:59.000,186.397,-78.832,23999.176934
1 Jan 2020 10:21:29.000,184.125,-78.612,24106.800689
1 Jan 2020 10:21:59.000,181.959,-78.391,24220.864458
1 Jan 2020 10:22:29.000,179.894,-78.169,24341.147460
1 Jan 2020 10:22:59.000,177.923,-77.949,24467.421678
1 Jan 2020 10:23:29.000,176.041,-77.732,24599.452905
1 Jan 2020 10:23:59.000,174.243,-77.519,24737.001607
1 Jan 2020 10:24:29.000,172.522,-77.310,24879.823993
1 Jan 2020 10:24:59.000,170.873,-77.108,25027.671933
1 Jan 2020 10:25:29.000,169.291,-76.913,25180.295063
1 Jan 2020 10:25:59.000,167.772,-76.725,25337.440651
1 Jan 2020 10:26:29.000,166.309,-76.546,25498.854514
1 Jan 2020 10:26:59.000,164.900,-76.375,25664.281680
1 Jan 2020 10:27:29.000,163.539,-76.214,25833.467004
1 Jan 2020 10:27:59.000,162.222,-76.063,26006.155743
1 Jan 2020 10:28:15.597,161.512,-75.984,26103.104412
1 Jan 2020 11:44:55.143,281.637,-75.982,26102.602852
1 Jan 2020 11:45:25.000,279.625,-76.036,26037.093398
1 Jan 2020 11:45:55.000,277.576,-76.086,25976.915111
1 Jan 2020 11:46:25.000,275.500,-76.133,25922.491664
1 Jan 2020 11:46:55.000,273.399,-76.176,25873.910393
1 Jan 2020 11:47:25.000,271.276,-76.214,25831.248761
1 Jan 2020 11:47:55.000,269.133,-76.248,25794.573991
1 Jan 2020 11:48:25.000,266.973,-76.277,25763.943049
1 Jan 2020 11:48:55.000,264.799,-76.300,25739.402004
1 Jan 2020 11:49:25.000,262.613,-76.318,25720.986113
1 Jan 2020 11:49:55.000,260.419,-76.330,25708.719603
1 Jan 2020 11:50:25.000,258.220,-76.335,25702.615551
1 Jan 2020 11:50:55.000,256.019,-76.335,25702.675891
1 Jan 2020 11:51:25.000,253.819,-76.329,25708.891295
1 Jan 2020 11:51:55.000,251.624,-76.317,25721.241295
1 Jan 2020 11:52:25.000,249.438,-76.299,25739.694339
1 Jan 2020 11:52:55.000,247.262,-76.276,25764.207960
1 Jan 2020 11:53:25.000,245.100,-76.247,25794.728834
1 Jan 2020 11:53:55.000,242.955,-76.214,25831.193158
1 Jan 2020 11:54:25.000,240.829,-76.175,25873.526811
1 Jan 2020 11:54:55.000,238.725,-76.133,25921.645678
1 Jan 2020 11:55:25.000,236.645,-76.086,25975.455983
1 Jan 2020 11:55:55.000,234.590,-76.036,26034.854745
1 Jan 2020 11:56:25.000,232.562,-75.984,26099.729823
1 Jan 2020 11:56:26.219,232.480,-75.981,26102.479364
1 Jan 2020 13:14:12.096,341.281,-75.989,26107.432244
1 Jan 2020 13:14:42.000,339.462,-76.082,25993.882689
1 Jan 2020 13:15:12.000,337.596,-76.177,25884.564377
1 Jan 2020 13:15:42.000,335.686,-76.273,25780.041764
1 Jan 2020 13:16:12.000,333.732,-76.369,25680.500983
1 Jan 2020 13:16:42.000,331.733,-76.464,25586.122620
1 Jan 2020 13:17:12.000,329.690,-76.557,25497.081115
1 Jan 2020 13:17:42.000,327.603,-76.648,25413.544037
1 Jan 2020 13:18:12.000,325.473,-76.737,25335.671944
1 Jan 2020 13:18:42.000,323.299,-76.821,25263.617078
1 Jan 2020 13:19:12.000,321.085,-76.901,25197.523262
1 Jan 2020 13:19:42.000,318.831,-76.976,25137.525211
1 Jan 2020 13:20:12.000,316.540,-77.045,25083.747928
1 Jan 2020 13:20:42.000,314.216,-77.107,25036.306418
1 Jan 2020 13:21:12.000,311.861,-77.161,24995.304842
1 Jan 2020 13:21:42.000,309.478,-77.208,24960.836316
1 Jan 2020 13:22:12.000,307.073,-77.246,24932.982440
1 Jan 2020 13:22:42.000,304.650,-77.275,24911.812924
1 Jan 2020 13:23:12.000,302.213,-77.295,24897.385324
1 Jan 2020 13:23:42.000,299.769,-77.306,24889.744696
1 Jan 2020 13:24:12.000,297.321,-77.307,24888.923462
1 Jan 2020 13:24:42.000,294.876,-77.298,24894.941242
1 Jan 2020 13:25:12.000,292.438,-77.280,24907.804817
1 Jan 2020 13:25:42.000,290.013,-77.253,24927.507925
1 Jan 2020 13:26:12.000,287.607,-77.216,24954.031547
1 Jan 2020 13:26:42.000,285.224,-77.171,24987.343845
1 Jan 2020 13:27:12.000,282.868,-77.117,25027.400357
1 Jan 2020 13:27:42.000,280.543,-77.055,25074.144305
1 Jan 2020 13:28:12.000,278.254,-76.987,25127.506471
1 Jan 2020 13:28:42.000,276.004,-76.912,25187.406087
1 Jan 2020 13:29:12.000,273.795,-76.831,25253.750832
1 Jan 2020 13:29:42.000,271.629,-76.745,25326.437330
1 Jan 2020 13:30:12.000,269.509,-76.655,25405.351739
1 Jan 2020 13:30:42.000,267.436,-76.561,25490.369682
1 Jan 2020 13:31:12.000,265.411,-76.465,25581.357584
1 Jan 2020 13:31:42.000,263.435,-76.367,25678.172668
1 Jan 2020 13:32:12.000,261.507,-76.269,25780.663651
1 Jan 2020 13:32:42.000,259.628,-76.170,25888.671319
1 Jan 2020 13:33:12.000,257.797,-76.071,26002.029310
1 Jan 2020 13:33:38.679,256.209,-75.985,26107.193459
1 Jan 2020 14:47:30.391,36.298,-75.994,26114.158339
1 Jan 2020 14:48:00.000,35.532,-76.163,25913.111319
1 Jan 2020 14:48:30.000,34.730,-76.350,25712.293958
1 Jan 2020 14:49:00.000,33.900,-76.551,25514.656154
1 Jan 2020 14:49:30.000,33.037,-76.768,25320.476330
1 Jan 2020 14:50:00.000,32.137,-77.000,25130.035433
1 Jan 2020 14:50:30.000,31.197,-77.248,24943.616414
1 Jan 2020 14:51:00.000,30.210,-77.509,24761.503664
1 Jan 2020 14:51:30.000,29.171,-77.786,24583.982123
1 Jan 2020 14:52:00.000,28.074,-78.076,24411.337638
1 Jan 2020 14:52:30.000,26.910,-78.380,24243.854641
1 Jan 2020 14:53:00.000,25.672,-78.697,24081.816405
1 Jan 2020 14:53:30.000,24.350,-79.025,23925.503913
1 Jan 2020 14:54:00.000,22.932,-79.365,23775.194948
1 Jan 2020 14:54:30.000,21.406,-79.716,23631.162876
1 Jan 2020 14:55:00.000,19.756,-80.075,23493.676625
1 Jan 2020 14:55:30.000,17.965,-80.442,23362.998123
1 Jan 2020 14:56:00.000,16.014,-80.814,23239.382220
1 Jan 2020 14:56:30.000,13.879,-81.190,23123.075311
1 Jan 2020 14:57:00.000,11.535,-81.567,23014.314023
1 Jan 2020 14:57:30.000,8.952,-81.943,22913.324810
1 Jan 2020 14:58:00.000,6.097,-82.314,22820.321677
1 Jan 2020 14:58:30.000,2.934,-82.677,22735.505825
1 Jan 2020 14:59:00.000,359.425,-83.026,22659.064257
1 Jan 2020 14:59:30.000,355.532,-83.358,22591.169171
1 Jan 2020 15:00:00.000,351.223,-83.665,22531.976267
1 Jan 2020 15:00:30.000,346.475,-83.943,22481.624302
1 Jan 2020 15:01:00.000,341.281,-84.184,22440.234065
1 Jan 2020 15:01:30.000,335.663,-84.381,22407.907859
1 Jan 2020 15:02:00.000,329.677,-84.527,22384.728490
1 Jan 2020 15:02:30.000,323.415,-84.617,22370.759000
1 Jan 2020 15:03:00.000,317.006,-84.648,22366.042210
1 Jan 2020 15:03:30.000,310.596,-84.618,22370.600405
1 Jan 2020 15:04:00.000,304.334,-84.528,22384.435235
1 Jan 2020 15:04:30.000,298.347,-84.382,22407.527705
1 Jan 2020 15:05:00.000,292.732,-84.185,22439.838398
1 Jan 2020 15:05:30.000,287.545,-83.943,22481.307419
1 Jan 2020 15:06:00.000,282.809,-83.664,22531.855260
1 Jan 2020 15:06:30.000,278.520,-83.355,22591.383031
1 Jan 2020 15:07:00.000,274.655,-83.021,22659.773319
1 Jan 2020 15:07:30.000,271.182,-82.668,22736.890361
1 Jan 2020 15:08:00.000,268.062,-82.302,22822.581715
1 Jan 2020 15:08:30.000,265.259,-81.927,22916.678638
1 Jan 2020 15:09:00.000,262.735,-81.548,23018.997404
1 Jan 2020 15:09:30.000,260.459,-81.166,23129.339590
1 Jan 2020 15:10:00.000,258.400,-80.786,23247.494266
1 Jan 2020 15:10:30.000,256.533,-80.409,23373.238392
1 Jan 2020 15:11:00.000,254.833,-80.038,23506.338114
1 Jan 2020 15:11:30.000,253.283,-79.674,23646.550179
1 Jan 2020 15:12:00.000,251.863,-79.319,23793.621958
1 Jan 2020 15:12:30.000,250.559,-78.975,23947.294180
1 Jan 2020 15:13:00.000,249.359,-78.642,24107.300939
1 Jan 2020 15:13:30.000,248.251,-78.321,24273.370997
1 Jan 2020 15:14:00.000,247.225,-78.014,24445.228792
1 Jan 2020 15:14:30.000,246.273,-77.720,24622.595715
1 Jan 2020 15:15:00.000,245.388,-77.441,24805.189713
1 Jan 2020 15:15:30.000,244.562,-77.177,24992.728077
1 Jan 2020 15:16:00.000,243.791,-76.927,25184.926953
1 Jan 2020 15:16:30.000,243.070,-76.694,25381.502390
1 Jan 2020 15:17:00.000,242.393,-76.476,25582.171024
1 Jan 2020 15:17:30.000,241.758,-76.274,25786.650689
1 Jan 2020 15:18:00.000,241.160,-76.088,25994.660988
1 Jan 2020 15:18:17.069,240.835,-75.989,26114.481884
1 Jan 2020 16:29:31.609,62.690,-75.997,26120.266515
1 Jan 2020 16:30:01.000,63.393,-76.166,25919.056302
1 Jan 2020 16:30:31.000,64.152,-76.354,25717.158289
1 Jan 2020 16:31:01.000,64.955,-76.556,25519.053708
1 Jan 2020 16:31:31.000,65.808,-76.773,25325.019573
1 Jan 2020 16:32:01.000,66.713,-77.004,25135.333810
1 Jan 2020 16:32:31.000,67.677,-77.250,24950.274650
1 Jan 2020 16:33:01.000,68.705,-77.509,24770.119952
1 Jan 2020 16:33:31.000,69.804,-77.780,24595.146174
1 Jan 2020 16:34:01.000,70.980,-78.065,24425.628871
1 Jan 2020 16:34:31.000,72.242,-78.360,24261.839933
1 Jan 2020 16:35:01.000,73.598,-78.667,24104.048006
1 Jan 2020 16:35:31.000,75.060,-78.983,23952.517239
1 Jan 2020 16:36:01.000,76.639,-79.307,23807.506070
1 Jan 2020 16:36:31.000,78.347,-79.639,23669.267209
1 Jan 2020 16:37:01.000,80.200,-79.975,23538.045103
1 Jan 2020 16:37:31.000,82.213,-80.315,23414.075881
1 Jan 2020 16:38:01.000,84.405,-80.657,23297.585842
1 Jan 2020 16:38:31.000,86.793,-80.997,23188.791127
1 Jan 2020 16:39:01.000,89.401,-81.333,23087.895493
1 Jan 2020 16:39:31.000,92.248,-81.662,22995.090037
1 Jan 2020 16:40:01.000,95.356,-81.980,22910.551817
1 Jan 2020 16:40:31.000,98.746,-82.284,22834.443478
1 Jan 2020 16:41:01.000,102.435,-82.569,22766.911378
1 Jan 2020 16:41:31.000,106.432,-82.830,22708.085361
1 Jan 2020 16:42:01.000,110.741,-83.063,22658.077709
1 Jan 2020 16:42:31.000,115.348,-83.262,22616.982853
1 Jan 2020 16:43:01.000,120.228,-83.424,22584.876135
1 Jan 2020 16:43:31.000,125.336,-83.543,22561.813764
1 Jan 2020 16:44:01.000,130.609,-83.616,22547.832294
1 Jan 2020 16:44:31.000,135.970,-83.642,22542.948537
1 Jan 2020 16:45:01.000,141.334,-83.620,22547.159178
1 Jan 2020 16:45:31.000,146.617,-83.549,22560.440981
1 Jan 2020 16:46:01.000,151.742,-83.434,22582.750902
1 Jan 2020 16:46:31.000,156.646,-83.276,22614.026251
1 Jan 2020 16:47:01.000,161.283,-83.080,22654.185221
1 Jan 2020 16:47:31.000,165.628,-82.852,22703.127316
1 Jan 2020 16:48:01.000,169.668,-82.594,22760.734078
1 Jan 2020 16:48:31.000,173.405,-82.314,22826.869448
1 Jan 2020 16:49:01.000,176.850,-82.015,22901.381084
1 Jan 2020 16:49:31.000,180.020,-81.701,22984.100922
1 Jan 2020 16:50:01.000,182.934,-81.376,23074.846343
1 Jan 2020 16:50:31.000,185.614,-81.045,23173.420631
1 Jan 2020 16:51:01.000,188.083,-80.710,23279.614826
1 Jan 2020 16:51:31.000,190.360,-80.373,23393.208269
1 Jan 2020 16:52:01.000,192.465,-80.038,23513.969826
1 Jan 2020 16:52:31.000,194.416,-79.706,23641.659203
1 Jan 2020 16:53:01.000,196.230,-79.379,23776.027161
1 Jan 2020 16:53:31.000,197.921,-79.059,23916.817885
1 Jan 2020 16:54:01.000,199.501,-78.747,24063.769181
1 Jan 2020 16:54:31.000,200.984,-78.444,24216.613704
1 Jan 2020 16:55:01.000,202.378,-78.151,24375.079938
1 Jan 2020 16:55:31.000,203.694,-77.870,24538.893401
1 Jan 2020 16:56:01.000,204.940,-77.601,24707.776450
1 Jan 2020 16:56:31.000,206.122,-77.344,24881.450728
1 Jan 2020 16:57:01.000,207.248,-77.100,25059.636878
1 Jan 2020 16:57:31.000,208.323,-76.869,25242.055535
1 Jan 2020 16:58:01.000,209.353,-76.652,25428.427996
1 Jan 2020 16:58:31.000,210.343,-76.450,25618.476834
1 Jan 2020 16:59:01.000,211.295,-76.261,25811.926462
1 Jan 2020 16:59:31.000,212.215,-76.086,26008.503638
1 Jan 2020 16:59:47.892,212.720,-75.994,26120.463572
1 Jan 2020 18:14:14.278,77.081,-75.997,26122.583111
1 Jan 2020 18:14:44.000,78.923,-76.084,26017.661902
1 Jan 2020 18:15:14.000,80.825,-76.171,25917.066508
1 Jan 2020 18:15:44.000,82.771,-76.257,25821.959230
1 Jan 2020 18:16:14.000,84.761,-76.342,25732.488129
1 Jan 2020 18:16:44.000,86.794,-76.424,25648.793103
1 Jan 2020 18:17:14.000,88.868,-76.504,25571.005232
1 Jan 2020 18:17:44.000,90.984,-76.581,25499.246795
1 Jan 2020 18:18:14.000,93.138,-76.653,25433.629964
1 Jan 2020 18:18:44.000,95.329,-76.720,25374.256894
1 Jan 2020 18:19:14.000,97.555,-76.781,25321.219157
1 Jan 2020 18:19:44.000,99.812,-76.836,25274.597260
1 Jan 2020 18:20:14.000,102.097,-76.885,25234.460644
1 Jan 2020 18:20:44.000,104.406,-76.926,25200.866837
1 Jan 2020 18:21:14.000,106.737,-76.960,25173.861560
1 Jan 2020 18:21:44.000,109.084,-76.985,25153.478426
1 Jan 2020 18:22:14.000,111.443,-77.003,25139.738746
1 Jan 2020 18:22:44.000,113.810,-77.012,25132.651580
1 Jan 2020 18:23:14.000,116.179,-77.012,25132.213444
1 Jan 2020 18:23:44.000,118.547,-77.004,25138.408499
1 Jan 2020 18:24:14.000,120.909,-76.988,25151.208568
1 Jan 2020 18:24:44.000,123.260,-76.964,25170.573279
1 Jan 2020 18:25:14.000,125.595,-76.932,25196.450186
1 Jan 2020 18:25:44.000,127.912,-76.892,25228.775069
1 Jan 2020 18:26:14.000,130.206,-76.845,25267.472177
1 Jan 2020 18:26:44.000,132.474,-76.792,25312.454568
1 Jan 2020 18:27:14.000,134.712,-76.732,25363.624541
1 Jan 2020 18:27:44.000,136.918,-76.667,25420.873805
1 Jan 2020 18:28:14.000,139.090,-76.597,25484.084282
1 Jan 2020 18:28:44.000,141.226,-76.523,25553.128359
1 Jan 2020 18:29:14.000,143.324,-76.446,25627.869452
1 Jan 2020 18:29:44.000,145.383,-76.366,25708.162535
1 Jan 2020 18:30:14.000,147.403,-76.284,25793.854811
1 Jan 2020 18:30:44.000,149.383,-76.200,25884.785789
1 Jan 2020 18:31:14.000,151.323,-76.115,25980.788567
1 Jan 2020 18:31:44.000,153.223,-76.031,26081.689942
1 Jan 2020 18:31:55.790,153.958,-75.998,26122.644851
1 Jan 2020 19:49:31.312,44.716,-75.993,26119.285473
1 Jan 2020 19:50:01.000,46.690,-76.054,26044.407676
1 Jan 2020 19:50:31.000,48.716,-76.114,25974.026985
1 Jan 2020 19:51:01.000,50.773,-76.171,25909.090093
1 Jan 2020 19:51:31.000,52.858,-76.224,25849.720518
1 Jan 2020 19:52:01.000,54.969,-76.274,25796.033155
1 Jan 2020 19:52:31.000,57.106,-76.320,25748.133782
1 Jan 2020 19:53:01.000,59.266,-76.360,25706.118871
1 Jan 2020 19:53:31.000,61.446,-76.396,25670.074855
1 Jan 2020 19:54:01.000,63.643,-76.426,25640.078024
1 Jan 2020 19:54:31.000,65.855,-76.451,25616.194145
1 Jan 2020 19:55:01.000,68.078,-76.469,25598.478185
1 Jan 2020 19:55:31.000,70.309,-76.481,25586.974123
1 Jan 2020 19:56:01.000,72.545,-76.487,25581.714686
1 Jan 2020 19:56:31.000,74.782,-76.486,25582.721273
1 Jan 2020 19:57:01.000,77.016,-76.478,25590.003848
1 Jan 2020 19:57:31.000,79.244,-76.464,25603.560935
1 Jan 2020 19:58:01.000,81.463,-76.444,25623.379488
1 Jan 2020 19:58:31.000,83.668,-76.418,25649.435143
1 Jan 2020 19:59:01.000,85.858,-76.386,25681.692207
1 Jan 2020 19:59:31.000,88.028,-76.348,25720.103836
1 Jan 2020 20:00:01.000,90.177,-76.305,25764.612317
1 Jan 2020 20:00:31.000,92.301,-76.258,25815.149000
1 Jan 2020 20:01:01.000,94.397,-76.206,25871.635038
1 Jan 2020 20:01:31.000,96.465,-76.151,25933.981412
1 Jan 2020 20:02:01.000,98.503,-76.092,26002.089367
1 Jan 2020 20:02:31.000,100.508,-76.031,26075.850794
1 Jan 2020 20:02:47.777,101.615,-75.996,26119.522879
1 Jan 2020 21:18:47.072,336.998,-75.987,26112.777525
1 Jan 2020 21:19:17.000,338.181,-76.139,25931.041620
1 Jan 2020 21:19:47.000,339.407,-76.302,25752.088679
1 Jan 2020 21:20:17.000,340.676,-76.477,25576.619025
1 Jan 2020 21:20:47.000,341.994,-76.663,25404.894099
1 Jan 2020 21:21:17.000,343.365,-76.858,25237.176177
1 Jan 2020 21:21:47.000,344.793,-77.064,25073.727795
1 Jan 2020 21:22:17.000,346.284,-77.278,24914.811131
1 Jan 2020 21:22:47.000,347.843,-77.501,24760.687109
1 Jan 2020 21:23:17.000,349.477,-77.731,24611.615605
1 Jan 2020 21:23:47.000,351.192,-77.968,24467.853297
1 Jan 2020 21:24:17.000,352.995,-78.211,24329.653801
1 Jan 2020 21:24:47.000,354.894,-78.458,24197.266595
1 Jan 2020 21:25:17.000,356.895,-78.708,24070.936150
1 Jan 2020 21:25:47.000,359.008,-78.959,23950.900823
1 Jan 2020 21:26:17.000,1.239,-79.211,23837.392720
1 Jan 2020 21:26:47.000,3.596,-79.460,23730.635549
1 Jan 2020 21:27:17.000,6.088,-79.705,23630.844472
1 Jan 2020 21:27:47.000,8.720,-79.944,23538.224937
1 Jan 2020 21:28:17.000,11.499,-80.175,23452.971598
1 Jan 2020 21:28:47.000,14.428,-80.394,23375.267893
1 Jan 2020 21:29:17.000,17.510,-80.600,23305.284337
1 Jan 2020 21:29:47.000,20.743,-80.790,23243.178183
1 Jan 2020 21:30:17.000,24.122,-80.961,23189.092398
1 Jan 2020 21:30:47.000,27.639,-81.111,23143.155141
1 Jan 2020 21:31:17.000,31.281,-81.237,23105.478652
1 Jan 2020 21:31:47.000,35.030,-81.337,23076.158904
1 Jan 2020 21:32:17.000,38.862,-81.409,23055.274975
1 Jan 2020 21:32:47.000,42.753,-81.453,23042.888634
1 Jan 2020 21:33:17.000,46.673,-81.467,23039.043901
1 Jan 2020 21:33:47.000,50.590,-81.450,23043.766863
1 Jan 2020 21:34:17.000,54.475,-81.404,23057.065561
1 Jan 2020 21:34:47.000,58.299,-81.328,23078.929760
1 Jan 2020 21:35:17.000,62.033,-81.225,23109.331290
1 Jan 2020 21:35:47.000,65.657,-81.095,23148.224061
1 Jan 2020 21:36:17.000,69.151,-80.942,23195.544499
1 Jan 2020 21:36:47.000,72.502,-80.767,23251.211512
1 Jan 2020 21:37:17.000,75.701,-80.573,23315.127582
1 Jan 2020 21:37:47.000,78.744,-80.362,23387.178946
1 Jan 2020 21:38:17.000,81.628,-80.138,23467.236494
1 Jan 2020 21:38:47.000,84.355,-79.902,23555.155889
1 Jan 2020 21:39:17.000,86.929,-79.658,23650.779240
1 Jan 2020 21:39:47.000,89.356,-79.407,23753.935357
1 Jan 2020 21:40:17.000,91.643,-79.153,23864.440767
1 Jan 2020 21:40:47.000,93.795,-78.896,23982.100871
1 Jan 2020 21:41:17.000,95.823,-78.639,24106.709915
1 Jan 2020 21:41:47.000,97.732,-78.384,24238.053340
1 Jan 2020 21:42:17.000,99.532,-78.132,24375.907804
1 Jan 2020 21:42:47.000,101.229,-77.884,24520.042340
1 Jan 2020 21:43:17.000,102.831,-77.643,24670.219537
1 Jan 2020 21:43:47.000,104.345,-77.408,24826.195438
1 Jan 2020 21:44:17.000,105.777,-77.182,24987.721908
1 Jan 2020 21:44:47.000,107.133,-76.964,25154.546487
1 Jan 2020 21:45:17.000,108.418,-76.757,25326.413451
1 Jan 2020 21:45:47.000,109.639,-76.559,25503.064571
1 Jan 2020 21:46:17.000,110.799,-76.373,25684.239844
1 Jan 2020 21:46:47.000,111.904,-76.198,25869.678489
1 Jan 2020 21:47:17.000,112.957,-76.035,26059.118325
1 Jan 2020 21:47:25.371,113.242,-75.992,26112.657252
1 Jan 2020 22:58:50.582,304.019,-75.983,26106.137388
1 Jan 2020 22:59:20.000,303.789,-76.162,25893.590221
1 Jan 2020 22:59:50.000,303.534,-76.362,25679.880890
1 Jan 2020 23:00:20.000,303.256,-76.580,25469.527085
1 Jan 2020 23:00:50.000,302.953,-76.816,25262.815835
1 Jan 2020 23:01:20.000,302.623,-77.069,25060.036792
1 Jan 2020 23:01:50.000,302.263,-77.340,24861.481704
1 Jan 2020 23:02:20.000,301.871,-77.629,24667.443820
1 Jan 2020 23:02:50.000,301.441,-77.936,24478.216939
1 Jan 2020 23:03:20.000,300.972,-78.260,24294.095928
1 Jan 2020 23:03:50.000,300.456,-78.601,24115.374077
1 Jan 2020 23:04:20.000,299.890,-78.960,23942.343507
1 Jan 2020 23:04:50.000,299.265,-79.335,23775.293954
1 Jan 2020 23:05:20.000,298.573,-79.725,23614.511547
1 Jan 2020 23:05:50.000,297.805,-80.132,23460.278810
1 Jan 2020 23:06:20.000,296.947,-80.553,23312.872035
1 Jan 2020 23:06:50.000,295.986,-80.988,23172.561201
1 Jan 2020 23:07:20.000,294.903,-81.436,23039.608552
1 Jan 2020 23:07:50.000,293.674,-81.895,22914.267163
1 Jan 2020 23:08:20.000,292.270,-82.365,22796.780701
1 Jan 2020 23:08:50.000,290.653,-82.843,22687.380718
1 Jan 2020 23:09:20.000,288.776,-83.327,22586.286435
1 Jan 2020 23:09:50.000,286.573,-83.815,22493.703128
1 Jan 2020 23:10:20.000,283.962,-84.303,22409.821610
1 Jan 2020 23:10:50.000,280.832,-84.787,22334.816098
1 Jan 2020 23:11:20.000,277.034,-85.261,22268.843840
1 Jan 2020 23:11:50.000,272.372,-85.718,22212.043846
1 Jan 2020 23:12:20.000,266.601,-86.147,22164.536430
1 Jan 2020 23:12:50.000,259.431,-86.533,22126.421736
1 Jan 2020 23:13:20.000,250.599,-86.856,22097.779537
1 Jan 2020 23:13:50.000,240.018,-87.093,22078.668533
1 Jan 2020 23:14:20.000,228.014,-87.220,22069.126106
1 Jan 2020 23:14:50.000,215.450,-87.220,22069.167782
1 Jan 2020 23:15:20.000,203.451,-87.093,22078.787321
1 Jan 2020 23:15:50.000,192.872,-86.855,22097.956734
1 Jan 2020 23:16:20.000,184.038,-86.532,22126.626337
1 Jan 2020 23:16:50.000,176.858,-86.147,22164.725260
1 Jan 2020 23:17:20.000,171.066,-85.719,22212.161824
1 Jan 2020 23:17:50.000,166.377,-85.264,22268.824280
1 Jan 2020 23:18:20.000,162.541,-84.791,22334.581126
1 Jan 2020 23:18:50.000,159.366,-84.309,22409.282553
1 Jan 2020 23:19:20.000,156.702,-83.822,22492.761004
1 Jan 2020 23:19:50.000,154.440,-83.337,22584.832463
1 Jan 2020 23:20:20.000,152.495,-82.855,22685.296912
1 Jan 2020 23:20:50.000,150.804,-82.379,22793.940424
1 Jan 2020 23:21:20.000,149.318,-81.912,22910.535746
1 Jan 2020 23:21:50.000,148.000,-81.455,23034.843865
1 Jan 2020 23:22:20.000,146.821,-81.010,23166.614457
1 Jan 2020 23:22:50.000,145.757,-80.577,23305.588266
1 Jan 2020 23:23:20.000,144.790,-80.159,23451.497561
1 Jan 2020 23:23:50.000,143.905,-79.755,23604.067506
1 Jan 2020 23:24:20.000,143.088,-79.366,23763.017582
1 Jan 2020 23:24:50.000,142.331,-78.993,23928.061634
1 Jan 2020 23:25:20.000,141.625,-78.637,24098.910504
1 Jan 2020 23:25:50.000,140.963,-78.298,24275.271990
1 Jan 2020 23:26:20.000,140.338,-77.975,24456.852057
1 Jan 2020 23:26:50.000,139.746,-77.670,24643.355706
1 Jan 2020 23:27:20.000,139.182,-77.382,24834.487803
1 Jan 2020 23:27:50.000,138.643,-77.112,25029.954153
1 Jan 2020 23:28:20.000,138.126,-76.859,25229.460878
1 Jan 2020 23:28:50.000,137.627,-76.624,25432.717004
1 Jan 2020 23:29:20.000,137.144,-76.406,25639.433726
1 Jan 2020 23:29:50.000,136.674,-76.206,25849.325231
1 Jan 2020 23:30:20.000,136.217,-76.022,26062.109150
1 Jan 2020 23:30:26.119,136.125,-75.987,26105.843057
2 Jan 2020 00:43:08.958,286.427,-75.982,26102.300627
2 Jan 2020 00:43:38.000,284.894,-76.099,25961.184639
2 Jan 2020 00:44:08.000,283.258,-76.224,25820.142317
2 Jan 2020 00:44:38.000,281.565,-76.353,25684.112748
2 Jan 2020 00:45:08.000,279.814,-76.485,25553.301117
2 Jan 2020 00:45:38.000,278.004,-76.620,25427.907295
2 Jan 2020 00:46:08.000,276.131,-76.756,25308.125170
2 Jan 2020 00:46:38.000,274.195,-76.893,25194.141748
2 Jan 2020 00:47:08.000,272.194,-77.029,25086.137352
2 Jan 2020 00:47:38.000,270.129,-77.163,24984.283597
2 Jan 2020 00:48:08.000,267.997,-77.295,24888.743614
2 Jan 2020 00:48:38.000,265.800,-77.423,24799.671152
2 Jan 2020 00:49:08.000,263.538,-77.545,24717.209782
2 Jan 2020 00:49:38.000,261.212,-77.662,24641.492876
2 Jan 2020 00:50:08.000,258.825,-77.772,24572.642079
2 Jan 2020 00:50:38.000,256.380,-77.873,24510.767380
2 Jan 2020 00:51:08.000,253.879,-77.966,24455.966431
2 Jan 2020 00:51:38.000,251.329,-78.048,24408.323974
2 Jan 2020 00:52:08.000,248.734,-78.119,24367.911844
2 Jan 2020 00:52:38.000,246.100,-78.178,24334.787960
2 Jan 2020 00:53:08.000,243.434,-78.224,24308.996470
2 Jan 2020 00:53:38.000,240.743,-78.258,24290.567413
2 Jan 2020 00:54:08.000,238.035,-78.278,24279.516513
2 Jan 2020 00:54:38.000,235.319,-78.285,24275.845266
2 Jan 2020 00:55:08.000,232.603,-78.278,24279.540641
2 Jan 2020 00:55:38.000,229.894,-78.258,24290.575343
2 Jan 2020 00:56:08.000,227.202,-78.225,24308.907885
2 Jan 2020 00:56:38.000,224.532,-78.178,24334.482818
2 Jan 2020 00:57:08.000,221.894,-78.120,24367.230905
2 Jan 2020 00:57:38.000,219.292,-78.050,24407.069583
2 Jan 2020 00:58:08.000,216.733,-77.969,24453.903287
2 Jan 2020 00:58:38.000,214.222,-77.879,24507.623920
2 Jan 2020 00:59:08.000,211.762,-77.780,24568.111446
2 Jan 2020 00:59:38.000,209.358,-77.672,24635.234113
2 Jan 2020 01:00:08.000,207.011,-77.558,24708.849519
2 Jan 2020 01:00:38.000,204.723,-77.439,24788.804937
2 Jan 2020 01:01:08.000,202.496,-77.315,24874.938038
2 Jan 2020 01:01:38.000,200.329,-77.187,24967.077694
2 Jan 2020 01:02:08.000,198.223,-77.057,25065.044183
2 Jan 2020 01:02:38.000,196.176,-76.925,25168.650599
2 Jan 2020 01:03:08.000,194.189,-76.793,25277.703095
2 Jan 2020 01:03:38.000,192.258,-76.661,25392.001689
2 Jan 2020 01:04:08.000,190.383,-76.530,25511.340968
2 Jan 2020 01:04:38.000,188.562,-76.402,25635.510931
2 Jan 2020 01:05:08.000,186.793,-76.277,25764.296985
2 Jan 2020 01:05:38.000,185.073,-76.155,25897.481596
2 Jan 2020 01:06:08.000,183.400,-76.037,26034.844245
2 Jan 2020 01:06:22.427,182.612,-75.982,26102.324508
2 Jan 2020 02:24:34.881,291.304,-75.984,26103.788614
2 Jan 2020 02:25:04.000,289.297,-76.021,26057.400064
2 Jan 2020 02:25:34.000,287.210,-76.056,26015.220771
2 Jan 2020 02:26:04.000,285.104,-76.087,25978.814205
2 Jan 2020 02:26:34.000,282.983,-76.113,25948.247256
2 Jan 2020 02:27:04.000,280.849,-76.134,25923.576680
2 Jan 2020 02:27:34.000,278.704,-76.150,25904.848851
2 Jan 2020 02:28:04.000,276.552,-76.162,25892.099667
2 Jan 2020 02:28:34.000,274.395,-76.168,25885.354246
2 Jan 2020 02:29:04.000,272.237,-76.168,25884.626941
2 Jan 2020 02:29:34.000,270.079,-76.163,25889.921245
2 Jan 2020 02:30:04.000,267.926,-76.153,25901.229804
2 Jan 2020 02:30:34.000,265.779,-76.138,25918.534365
2 Jan 2020 02:31:04.000,263.643,-76.117,25941.805961
2 Jan 2020 02:31:34.000,261.519,-76.092,25971.004969
2 Jan 2020 02:32:04.000,259.411,-76.062,26006.081281
2 Jan 2020 02:32:34.000,257.320,-76.028,26046.974513
2 Jan 2020 02:33:04.000,255.249,-75.990,26093.614327
2 Jan 2020 02:33:10.017,254.836,-75.982,26103.652822
2 Jan 2020 03:51:09.995,6.056,-75.991,26109.768017
2 Jan 2020 03:51:39.000,4.580,-76.114,25961.286529
2 Jan 2020 03:52:09.000,3.007,-76.248,25811.421244
2 Jan 2020 03:52:39.000,1.386,-76.388,25665.561426
2 Jan 2020 03:53:09.000,359.712,-76.534,25523.942210
2 Jan 2020 03:53:39.000,357.983,-76.684,25386.796958
2 Jan 2020 03:54:09.000,356.195,-76.838,25254.356633
2 Jan 2020 03:54:39.000,354.346,-76.996,25126.849138
2 Jan 2020 03:55:09.000,352.433,-77.155,25004.498440
2 Jan 2020 03:55:39.000,350.452,-77.316,24887.524611
2 Jan 2020 03:56:09.000,348.401,-77.477,24776.141945
2 Jan 2020 03:56:39.000,346.277,-77.638,24670.558981
2 Jan 2020 03:57:09.000,344.080,-77.796,24570.977538
2 Jan 2020 03:57:39.000,341.807,-77.951,24477.591829
2 Jan 2020 03:58:09.000,339.457,-78.101,24390.588157
2 Jan 2020 03:58:39.000,337.031,-78.245,24310.143423
2 Jan 2020 03:59:09.000,334.530,-78.381,24236.424860
2 Jan 2020 03:59:39.000,331.955,-78.509,24169.589171
2 Jan 2020 04:00:09.000,329.309,-78.627,24109.781741
2 Jan 2020 04:00:39.000,326.597,-78.733,24057.136260
2 Jan 2020 04:01:09.000,323.824,-78.827,24011.773619
2 Jan 2020 04:01:39.000,320.997,-78.907,23973.801638
2 Jan 2020 04:02:09.000,318.124,-78.972,23943.314456
2 Jan 2020 04:02:39.000,315.214,-79.022,23920.392042
2 Jan 2020 04:03:09.000,312.276,-79.055,23905.099838
2 Jan 2020 04:03:39.000,309.323,-79.072,23897.488334
2 Jan 2020 04:04:09.000,306.364,-79.072,23897.592883
2 Jan 2020 04:04:39.000,303.411,-79.054,23905.433541
2 Jan 2020 04:05:09.000,300.476,-79.020,23921.014825
2 Jan 2020 04:05:39.000,297.570,-78.969,23944.325898
2 Jan 2020 04:06:09.000,294.702,-78.903,23975.340516
2 Jan 2020 04:06:39.000,291.884,-78.821,24014.017294
2 Jan 2020 04:07:09.000,289.122,-78.725,24060.299603
2 Jan 2020 04:07:39.000,286.424,-78.616,24114.116361
2 Jan 2020 04:08:09.000,283.796,-78.496,24175.382096
2 Jan 2020 04:08:39.000,281.242,-78.365,24243.997478
2 Jan 2020 04:09:09.000,278.766,-78.225,24319.849985
2 Jan 2020 04:09:39.000,276.371,-78.077,24402.813819
2 Jan 2020 04:10:09.000,274.058,-77.922,24492.751480
2 Jan 2020 04:10:39.000,271.826,-77.763,24589.513791
2 Jan 2020 04:11:09.000,269.676,-77.600,24692.940744
2 Jan 2020 04:11:39.000,267.607,-77.435,24802.862419
2 Jan 2020 04:12:09.000,265.616,-77.268,24919.098914
2 Jan 2020 04:12:39.000,263.701,-77.102,25041.462290
2 Jan 2020 04:13:09.000,261.861,-76.938,25169.756540
2 Jan 2020 04:13:39.000,260.092,-76.775,25303.778538
2 Jan 2020 04:14:09.000,258.391,-76.617,25443.318789
2 Jan 2020 04:14:39.000,256.756,-76.462,25588.162429
2 Jan 2020 04:15:09.000,255.184,-76.313,25738.088915
2 Jan 2020 04:15:39.000,253.671,-76.169,25892.874257
2 Jan 2020 04:16:09.000,252.214,-76.033,26052.290688
2 Jan 2020 04:16:19.604,251.712,-75.986,26109.704163
2 Jan 2020 05:28:32.361,47.902,-75.995,26116.628097
2 Jan 2020 05:29:02.000,47.653,-76.176,25902.509290
2 Jan 2020 05:29:32.000,47.399,-76.376,25688.617864
2 Jan 2020 05:30:02.000,47.142,-76.595,25477.863825
2 Jan 2020 05:30:32.000,46.881,-76.831,25270.534914
2 Jan 2020 05:31:02.000,46.616,-77.086,25066.922062
2 Jan 2020 05:31:32.000,46.344,-77.359,24867.318899
2 Jan 2020 05:32:02.000,46.065,-77.651,24672.021201
2 Jan 2020 05:32:32.000,45.777,-77.961,24481.325988
2 Jan 2020 05:33:02.000,45.478,-78.289,24295.531999
2 Jan 2020 05:33:32.000,45.166,-78.636,24114.937202
2 Jan 2020 05:34:02.000,44.838,-79.001,23939.839149
2 Jan 2020 05:34:32.000,44.491,-79.383,23770.533809
2 Jan 2020 05:35:02.000,44.122,-79.784,23607.314623
2 Jan 2020 05:35:32.000,43.727,-80.201,23450.471209
2 Jan 2020 05:36:02.000,43.299,-80.636,23300.289461
2 Jan 2020 05:36:32.000,42.831,-81.087,23157.048675
2 Jan 2020 05:37:02.000,42.317,-81.553,23021.021568
2 Jan 2020 05:37:32.000,41.743,-82.035,22892.472776
2 Jan 2020 05:38:02.000,41.097,-82.531,22771.657397
2 Jan 2020 05:38:32.000,40.359,-83.040,22658.820652
2 Jan 2020 05:39:02.000,39.504,-83.562,22554.195241
2 Jan 2020 05:39:32.000,38.496,-84.095,22458.001026
2 Jan 2020 05:40:02.000,37.286,-84.638,22370.443427
2 Jan 2020 05:40:32.000,35.798,-85.189,22291.712813
2 Jan 2020 05:41:02.000,33.920,-85.745,22221.982459
2 Jan 2020 05:41:32.000,31.469,-86.304,22161.408085
2 Jan 2020 05:42:02.000,28.136,-86.862,22110.126628
2 Jan 2020 05:42:32.000,23.363,-87.411,22068.255709
2 Jan 2020 05:43:02.000,16.073,-87.938,22035.892284
2 Jan 2020 05:43:32.000,4.102,-88.413,22013.112387
2 Jan 2020 05:44:02.000,343.731,-88.769,21999.970494
2 Jan 2020 05:44:32.000,314.100,-88.882,21996.499217
2 Jan 2020 05:45:02.000,286.528,-88.686,22002.708948
2 Jan 2020 05:45:32.000,268.993,-88.285,22018.587893
2 Jan 2020 05:46:02.000,258.698,-87.790,22044.102191
2 Jan 2020 05:46:32.000,252.313,-87.254,22079.195921
2 Jan 2020 05:47:02.000,248.063,-86.701,22123.791811
2 Jan 2020 05:47:32.000,245.061,-86.142,22177.791579
2 Jan 2020 05:48:02.000,242.841,-85.582,22241.076771
2 Jan 2020 05:48:32.000,241.138,-85.026,22313.509044
2 Jan 2020 05:49:02.000,239.795,-84.477,22394.931808
2 Jan 2020 05:49:32.000,238.710,-83.936,22485.170746
2 Jan 2020 05:50:02.000,237.819,-83.405,22584.035192
2 Jan 2020 05:50:32.000,237.075,-82.886,22691.318553
2 Jan 2020 05:51:02.000,236.447,-82.379,22806.800569
2 Jan 2020 05:51:32.000,235.911,-81.886,22930.247846
2 Jan 2020 05:52:02.000,235.451,-81.407,23061.415497
2 Jan 2020 05:52:32.000,235.052,-80.944,23200.047535
2 Jan 2020 05:53:02.000,234.706,-80.497,23345.879390
2 Jan 2020 05:53:32.000,234.404,-80.066,23498.638304
2 Jan 2020 05:54:02.000,234.140,-79.653,23658.044729
2 Jan 2020 05:54:32.000,233.908,-79.256,23823.813773
2 Jan 2020 05:55:02.000,233.705,-78.878,23995.655178
2 Jan 2020 05:55:32.000,233.528,-78.518,24173.276053
2 Jan 2020 05:56:02.000,233.373,-78.175,24356.380763
2 Jan 2020 05:56:32.000,233.238,-77.852,24544.672136
2 Jan 2020 05:57:02.000,233.122,-77.546,24737.852334
2 Jan 2020 05:57:32.000,233.023,-77.260,24935.623656
2 Jan 2020 05:58:02.000,232.939,-76.991,25137.689621
2 Jan 2020 05:58:32.000,232.869,-76.742,25343.754262
2 Jan 2020 05:59:02.000,232.813,-76.510,25553.524789
2 Jan 2020 05:59:32.000,232.769,-76.297,25766.710773
2 Jan 2020 06:00:02.000,232.737,-76.102,25983.024967
2 Jan 2020 06:00:20.376,232.723,-75.991,26116.944740
2 Jan 2020 07:12:02.414,68.974,-75.997,26121.719523
2 Jan 2020 07:12:32.000,70.175,-76.145,25945.097222
2 Jan 2020 07:13:02.000,71.447,-76.305,25770.163938
2 Jan 2020 07:13:32.000,72.776,-76.473,25599.669330
2 Jan 2020 07:14:02.000,74.167,-76.651,25433.861660
2 Jan 2020 07:14:32.000,75.624,-76.837,25272.987032
2 Jan 2020 07:15:02.000,77.151,-77.030,25117.288705
2 Jan 2020 07:15:32.000,78.754,-77.229,24967.006100
2 Jan 2020 07:16:02.000,80.436,-77.434,24822.375101
2 Jan 2020 07:16:32.000,82.203,-77.643,24683.625662
2 Jan 2020 07:17:02.000,84.059,-77.855,24550.982070
2 Jan 2020 07:17:32.000,86.010,-78.069,24424.661834
2 Jan 2020 07:18:02.000,88.061,-78.284,24304.874629
2 Jan 2020 07:18:32.000,90.216,-78.497,24191.822279
2 Jan 2020 07:19:02.000,92.479,-78.707,24085.696613
2 Jan 2020 07:19:32.000,94.853,-78.913,23986.679474
2 Jan 2020 07:20:02.000,97.342,-79.113,23894.941660
2 Jan 2020 07:20:32.000,99.947,-79.304,23810.641933
2 Jan 2020 07:21:02.000,102.668,-79.485,23733.926938
2 Jan 2020 07:21:32.000,105.502,-79.653,23664.929376
2 Jan 2020 07:22:02.000,108.448,-79.808,23603.768041
2 Jan 2020 07:22:32.000,111.497,-79.946,23550.546894
2 Jan 2020 07:23:02.000,114.643,-80.067,23505.354906
2 Jan 2020 07:23:32.000,117.874,-80.168,23468.264915
2 Jan 2020 07:24:02.000,121.176,-80.248,23439.333652
2 Jan 2020 07:24:32.000,124.535,-80.307,23418.601243
2 Jan 2020 07:25:02.000,127.932,-80.342,23406.091183
2 Jan 2020 07:25:32.000,131.349,-80.354,23401.809848
2 Jan 2020 07:26:02.000,134.767,-80.343,23405.746689
2 Jan 2020 07:26:32.000,138.167,-80.309,23417.874223
2 Jan 2020 07:27:02.000,141.530,-80.251,23438.148169
2 Jan 2020 07:27:32.000,144.838,-80.173,23466.507684
2 Jan 2020 07:28:02.000,148.078,-80.073,23502.875712
2 Jan 2020 07:28:32.000,151.236,-79.955,23547.159459
2 Jan 2020 07:29:02.000,154.302,-79.819,23599.250681
2 Jan 2020 07:29:32.000,157.267,-79.667,23659.026562
2 Jan 2020 07:30:02.000,160.127,-79.502,23726.350174
2 Jan 2020 07:30:32.000,162.877,-79.325,23801.071229
2 Jan 2020 07:31:02.000,165.518,-79.138,23883.026970
2 Jan 2020 07:31:32.000,168.049,-78.943,23972.042445
2 Jan 2020 07:32:02.000,170.472,-78.742,24067.932107
2 Jan 2020 07:32:32.000,172.790,-78.537,24170.500175
2 Jan 2020 07:33:02.000,175.006,-78.329,24279.541628
2 Jan 2020 07:33:32.000,177.126,-78.120,24394.843255
2 Jan 2020 07:34:02.000,179.153,-77.912,24516.183857
2 Jan 2020 07:34:32.000,181.092,-77.705,24643.336121
2 Jan 2020 07:35:02.000,182.950,-77.501,24776.066818
2 Jan 2020 07:35:32.000,184.730,-77.301,24914.137800
2 Jan 2020 07:36:02.000,186.437,-77.106,25057.306811
2 Jan 2020 07:36:32.000,188.078,-76.917,25205.328485
2 Jan 2020 07:37:02.000,189.655,-76.735,25357.954233
2 Jan 2020 07:37:32.000,191.174,-76.561,25514.934227
2 Jan 2020 07:38:02.000,192.639,-76.394,25676.017232
2 Jan 2020 07:38:32.000,194.055,-76.237,25840.951439
2 Jan 2020 07:39:02.000,195.424,-76.088,26009.485060
2 Jan 2020 07:39:21.653,196.297,-75.996,26121.722188
2 Jan 2020 08:56:20.663,78.082,-75.997,26122.082123
2 Jan 2020 08:56:50.000,80.072,-76.046,26061.942109
2 Jan 2020 08:57:20.000,82.133,-76.093,26006.060451
2 Jan 2020 08:57:50.000,84.218,-76.136,25955.950040
2 Jan 2020 08:58:20.000,86.326,-76.175,25911.692069
2 Jan 2020 08:58:50.000,88.454,-76.209,25873.357745
2 Jan 2020 08:59:20.000,90.600,-76.238,25841.007948
2 Jan 2020 08:59:50.000,92.761,-76.263,25814.693205
2 Jan 2020 09:00:20.000,94.934,-76.282,25794.453126
2 Jan 2020 09:00:50.000,97.116,-76.295,25780.316490
2 Jan 2020 09:01:20.000,99.304,-76.303,25772.301049
2 Jan 2020 09:01:50.000,101.494,-76.305,25770.413454
2 Jan 2020 09:02:20.000,103.684,-76.301,25774.649255
2 Jan 2020 09:02:50.000,105.871,-76.291,25784.992853
2 Jan 2020 09:03:20.000,108.051,-76.276,25801.417619
2 Jan 2020 09:03:50.000,110.221,-76.255,25823.885985
2 Jan 2020 09:04:20.000,112.378,-76.229,25852.349637
2 Jan 2020 09:04:50.000,114.520,-76.197,25886.749579
2 Jan 2020 09:05:20.000,116.643,-76.162,25927.016559
2 Jan 2020 09:05:50.000,118.747,-76.122,25973.071233
2 Jan 2020 09:06:20.000,120.827,-76.078,26024.824508
2 Jan 2020 09:06:50.000,122.884,-76.030,26082.177888
2 Jan 2020 09:07:09.390,124.199,-75.998,26122.177705
2 Jan 2020 10:25:02.356,15.569,-75.990,26117.082537
2 Jan 2020 10:25:32.000,17.342,-76.087,25999.715468
2 Jan 2020 10:26:02.000,19.180,-76.187,25885.413941
2 Jan 2020 10:26:32.000,21.062,-76.288,25775.810134
2 Jan 2020 10:27:02.000,22.990,-76.390,25671.097049
2 Jan 2020 10:27:32.000,24.964,-76.491,25571.462620
2 Jan 2020 10:28:02.000,26.984,-76.592,25477.089090
2 Jan 2020 10:28:32.000,29.052,-76.691,25388.152279
2 Jan 2020 10:29:02.000,31.166,-76.787,25304.821443
2 Jan 2020 10:29:32.000,33.326,-76.880,25227.257907
2 Jan 2020 10:30:02.000,35.531,-76.969,25155.614966
2 Jan 2020 10:30:32.000,37.779,-77.053,25090.037152
2 Jan 2020 10:31:02.000,40.069,-77.131,25030.659593
2 Jan 2020 10:31:32.000,42.397,-77.202,24977.607716
2 Jan 2020 10:32:02.000,44.761,-77.267,24930.996312
2 Jan 2020 10:32:32.000,47.157,-77.323,24890.929323
2 Jan 2020 10:33:02.000,49.581,-77.371,24857.499311
2 Jan 2020 10:33:32.000,52.028,-77.409,24830.787030
2 Jan 2020 10:34:02.000,54.494,-77.439,24810.861138
2 Jan 2020 10:34:32.000,56.973,-77.458,24797.777754
2 Jan 2020 10:35:02.000,59.460,-77.467,24791.580296
2 Jan 2020 10:35:32.000,61.949,-77.466,24792.299256
2 Jan 2020 10:36:02.000,64.434,-77.455,24799.952103
2 Jan 2020 10:36:32.000,66.909,-77.434,24814.543048
2 Jan 2020 10:37:02.000,69.369,-77.403,24836.063249
2 Jan 2020 10:37:32.000,71.809,-77.362,24864.490722
2 Jan 2020 10:38:02.000,74.223,-77.312,24899.790484
2 Jan 2020 10:38:32.000,76.607,-77.253,24941.914822
2 Jan 2020 10:39:02.000,78.956,-77.186,24990.803142
2 Jan 2020 10:39:32.000,81.267,-77.112,25046.382807
2 Jan 2020 10:40:02.000,83.536,-77.031,25108.569116
2 Jan 2020 10:40:32.000,85.760,-76.944,25177.265779
2 Jan 2020 10:41:02.000,87.938,-76.852,25252.365487
2 Jan 2020 10:41:32.000,90.067,-76.756,25333.749830
2 Jan 2020 10:42:02.000,92.146,-76.656,25421.290617
2 Jan 2020 10:42:32.000,94.174,-76.554,25514.849879
2 Jan 2020 10:43:02.000,96.151,-76.450,25614.280555
2 Jan 2020 10:43:32.000,98.077,-76.346,25719.427076
2 Jan 2020 10:44:02.000,99.952,-76.241,25830.126163
2 Jan 2020 10:44:32.000,101.777,-76.137,25946.206612
2 Jan 2020 10:45:02.000,103.552,-76.035,26067.491112
2 Jan 2020 10:45:13.975,104.247,-75.994,26117.314996
2 Jan 2020 11:58:51.046,322.224,-75.985,26110.276747
2 Jan 2020 11:59:21.000,322.941,-76.158,25904.817370
2 Jan 2020 11:59:51.000,323.683,-76.347,25701.922586
2 Jan 2020 12:00:21.000,324.451,-76.551,25502.185609
2 Jan 2020 12:00:51.000,325.249,-76.772,25305.885977
2 Jan 2020 12:01:21.000,326.080,-77.008,25113.305901
2 Jan 2020 12:01:51.000,326.949,-77.259,24924.729758
2 Jan 2020 12:02:21.000,327.860,-77.526,24740.443525
2 Jan 2020 12:02:51.000,328.820,-77.808,24560.733898
2 Jan 2020 12:03:21.000,329.835,-78.104,24385.888668
2 Jan 2020 12:03:51.000,330.911,-78.415,24216.194379
2 Jan 2020 12:04:21.000,332.057,-78.740,24051.936605
2 Jan 2020 12:04:51.000,333.282,-79.078,23893.398814
2 Jan 2020 12:05:21.000,334.598,-79.428,23740.861455
2 Jan 2020 12:05:51.000,336.018,-79.789,23594.600738
2 Jan 2020 12:06:21.000,337.556,-80.160,23454.888625
2 Jan 2020 12:06:51.000,339.230,-80.540,23321.990231
2 Jan 2020 12:07:21.000,341.061,-80.928,23196.163755
2 Jan 2020 12:07:51.000,343.073,-81.320,23077.659090
2 Jan 2020 12:08:21.000,345.294,-81.716,22966.716483
2 Jan 2020 12:08:51.000,347.756,-82.112,22863.566142
2 Jan 2020 12:09:21.000,350.497,-82.505,22768.425899
2 Jan 2020 12:09:51.000,353.560,-82.891,22681.500863
2 Jan 2020 12:10:21.000,356.992,-83.267,22602.981982
2 Jan 2020 12:10:51.000,0.844,-83.627,22533.045439
2 Jan 2020 12:11:21.000,5.164,-83.964,22471.850895
2 Jan 2020 12:11:51.000,9.996,-84.272,22419.541035
2 Jan 2020 12:12:21.000,15.364,-84.543,22376.240507
2 Jan 2020 12:12:51.000,21.265,-84.770,22342.055392
2 Jan 2020 12:13:21.000,27.650,-84.942,22317.072132
2 Jan 2020 12:13:51.000,34.418,-85.055,22301.357256
2 Jan 2020 12:14:21.000,41.415,-85.102,22294.956886
2 Jan 2020 12:14:51.000,48.448,-85.080,22297.896412
2 Jan 2020 12:15:21.000,55.322,-84.992,22310.180345
2 Jan 2020 12:15:51.000,61.862,-84.841,22331.792302
2 Jan 2020 12:16:21.000,67.947,-84.633,22362.695205
2 Jan 2020 12:16:51.000,73.506,-84.377,22402.831222
2 Jan 2020 12:17:21.000,78.519,-84.080,22452.122602
2 Jan 2020 12:17:51.000,83.002,-83.751,22510.471912
2 Jan 2020 12:18:21.000,86.992,-83.396,22577.762886
2 Jan 2020 12:18:51.000,90.535,-83.023,22653.860604
2 Jan 2020 12:19:21.000,93.683,-82.637,22738.613158
2 Jan 2020 12:19:51.000,96.484,-82.242,22831.852042
2 Jan 2020 12:20:21.000,98.983,-81.843,22933.393477
2 Jan 2020 12:20:51.000,101.219,-81.444,23043.038709
2 Jan 2020 12:21:21.000,103.227,-81.046,23160.576214
2 Jan 2020 12:21:51.000,105.037,-80.652,23285.782111
2 Jan 2020 12:22:21.000,106.674,-80.265,23418.421473
2 Jan 2020 12:22:51.000,108.161,-79.886,23558.249769
2 Jan 2020 12:23:21.000,109.515,-79.517,23705.012894
2 Jan 2020 12:23:51.000,110.753,-79.159,23858.449932
2 Jan 2020 12:24:21.000,111.888,-78.813,24018.293183
2 Jan 2020 12:24:51.000,112.933,-78.480,24184.269482
2 Jan 2020 12:25:21.000,113.896,-78.161,24356.101229
2 Jan 2020 12:25:51.000,114.786,-77.856,24533.507687
2 Jan 2020 12:26:21.000,115.612,-77.567,24716.204591
2 Jan 2020 12:26:51.000,116.380,-77.292,24903.906970
2 Jan 2020 12:27:21.000,117.094,-77.034,25096.328665
2 Jan 2020 12:27:51.000,117.761,-76.791,25293.183391
2 Jan 2020 12:28:21.000,118.385,-76.564,25494.185434
2 Jan 2020 12:28:51.000,118.969,-76.354,25699.050282
2 Jan 2020 12:29:21.000,119.516,-76.160,25907.495193
2 Jan 2020 12:29:49.703,120.009,-75.990,26110.018054
2 Jan 2020 13:41:03.819,296.517,-75.982,26104.227561
2 Jan 2020 13:41:33.000,295.760,-76.148,25906.740847
2 Jan 2020 13:42:03.000,294.939,-76.333,25707.250474
2 Jan 2020 13:42:33.000,294.072,-76.532,25511.616783
2 Jan 2020 13:43:03.000,293.153,-76.745,25320.114025
2 Jan 2020 13:43:33.000,292.178,-76.972,25133.017079
2 Jan 2020 13:44:03.000,291.143,-77.212,24950.600826
2 Jan 2020 13:44:33.000,290.041,-77.465,24773.139480
2 Jan 2020 13:45:03.000,288.865,-77.730,24600.905540
2 Jan 2020 13:45:33.000,287.610,-78.007,24434.170292
2 Jan 2020 13:46:03.000,286.267,-78.294,24273.201044
2 Jan 2020 13:46:33.000,284.826,-78.591,24118.261555
2 Jan 2020 13:47:03.000,283.278,-78.897,23969.610777
2 Jan 2020 13:47:33.000,281.611,-79.209,23827.501661
2 Jan 2020 13:48:03.000,279.815,-79.527,23692.181136
2 Jan 2020 13:48:33.000,277.874,-79.850,23563.887606
2 Jan 2020 13:49:03.000,275.774,-80.174,23442.850907
2 Jan 2020 13:49:33.000,273.500,-80.498,23329.290820
2 Jan 2020 13:50:03.000,271.034,-80.820,23223.416752
2 Jan 2020 13:50:33.000,268.360,-81.136,23125.425576
2 Jan 2020 13:51:03.000,265.459,-81.443,23035.501358
2 Jan 2020 13:51:33.000,262.317,-81.739,22953.814032
2 Jan 2020 13:52:03.000,258.918,-82.018,22880.519050
2 Jan 2020 13:52:33.000,255.254,-82.278,22815.755569
2 Jan 2020 13:53:03.000,251.321,-82.514,22759.646263
2 Jan 2020 13:53:33.000,247.124,-82.721,22712.296317
2 Jan 2020 13:54:03.000,242.681,-82.896,22673.793176
2 Jan 2020 13:54:33.000,238.020,-83.035,22644.205376
