STKdata/stk_70fov_4leo/Satellite-MEO_Satellite10202-To-Satellite-LEO_Satellite10000 AER.csv

"Time (UTCG)","Azimuth (deg)","Elevation (deg)","Range (km)"
1 Jan 2020 00:00:00.000,108.761,-78.701,24089.346468
1 Jan 2020 00:00:30.000,111.511,-78.798,24042.206630
1 Jan 2020 00:01:00.000,114.319,-78.880,24002.657149
1 Jan 2020 00:01:30.000,117.176,-78.948,23970.756079
1 Jan 2020 00:02:00.000,120.072,-79.001,23946.546528
1 Jan 2020 00:02:30.000,122.998,-79.036,23930.056364
1 Jan 2020 00:03:00.000,125.943,-79.056,23921.298270
1 Jan 2020 00:03:30.000,128.895,-79.058,23920.269330
1 Jan 2020 00:04:00.000,131.844,-79.043,23926.951273
1 Jan 2020 00:04:30.000,134.778,-79.012,23941.310499
1 Jan 2020 00:05:00.000,137.686,-78.964,23963.298244
1 Jan 2020 00:05:30.000,140.558,-78.901,23992.850823
1 Jan 2020 00:06:00.000,143.385,-78.823,24029.889972
1 Jan 2020 00:06:30.000,146.159,-78.731,24074.323236
1 Jan 2020 00:07:00.000,148.874,-78.627,24126.044515
1 Jan 2020 00:07:30.000,151.523,-78.511,24184.934298
1 Jan 2020 00:08:00.000,154.103,-78.385,24250.860662
1 Jan 2020 00:08:30.000,156.610,-78.250,24323.679640
1 Jan 2020 00:09:00.000,159.042,-78.107,24403.235960
1 Jan 2020 00:09:30.000,161.398,-77.959,24489.363875
1 Jan 2020 00:10:00.000,163.678,-77.805,24581.887405
1 Jan 2020 00:10:30.000,165.883,-77.648,24680.621818
1 Jan 2020 00:11:00.000,168.014,-77.489,24785.373922
1 Jan 2020 00:11:30.000,170.072,-77.328,24895.942958
1 Jan 2020 00:12:00.000,172.061,-77.168,25012.121367
1 Jan 2020 00:12:30.000,173.982,-77.009,25133.695747
1 Jan 2020 00:13:00.000,175.838,-76.852,25260.446864
1 Jan 2020 00:13:30.000,177.633,-76.698,25392.151486
1 Jan 2020 00:14:00.000,179.370,-76.548,25528.582380
1 Jan 2020 00:14:30.000,181.050,-76.402,25669.509177
1 Jan 2020 00:15:00.000,182.679,-76.262,25814.699039
1 Jan 2020 00:15:30.000,184.258,-76.128,25963.917287
1 Jan 2020 00:16:00.000,185.791,-76.001,26116.928005
1 Jan 2020 00:16:01.030,185.842,-75.997,26122.243898
1 Jan 2020 01:34:02.238,74.665,-75.996,26121.439180
1 Jan 2020 01:34:32.000,76.716,-76.035,26073.943003
1 Jan 2020 01:35:02.000,78.804,-76.070,26031.774267
1 Jan 2020 01:35:32.000,80.911,-76.100,25995.408449
1 Jan 2020 01:36:02.000,83.033,-76.127,25964.908340
1 Jan 2020 01:36:32.000,85.168,-76.148,25940.326492
1 Jan 2020 01:37:02.000,87.313,-76.165,25921.704980
1 Jan 2020 01:37:32.000,89.467,-76.176,25909.075349
1 Jan 2020 01:38:02.000,91.625,-76.182,25902.458291
1 Jan 2020 01:38:32.000,93.785,-76.182,25901.863695
1 Jan 2020 01:39:02.000,95.944,-76.178,25907.290572
1 Jan 2020 01:39:32.000,98.099,-76.168,25918.727073
1 Jan 2020 01:40:02.000,100.247,-76.152,25936.150473
1 Jan 2020 01:40:32.000,102.385,-76.132,25959.527353
1 Jan 2020 01:41:02.000,104.511,-76.107,25988.813682
1 Jan 2020 01:41:32.000,106.621,-76.077,26023.955010
1 Jan 2020 01:42:02.000,108.714,-76.043,26064.886686
1 Jan 2020 01:42:32.000,110.787,-76.005,26111.534193
1 Jan 2020 01:42:38.028,111.201,-75.997,26121.589340
1 Jan 2020 03:00:51.209,2.437,-75.989,26115.797808
1 Jan 2020 03:01:21.000,4.074,-76.104,25977.207467
1 Jan 2020 03:01:51.000,5.769,-76.224,25841.696057
1 Jan 2020 03:02:21.000,7.511,-76.348,25710.469681
1 Jan 2020 03:02:51.000,9.305,-76.475,25583.747833
1 Jan 2020 03:03:21.000,11.151,-76.605,25461.746911
1 Jan 2020 03:03:51.000,13.052,-76.737,25344.679580
1 Jan 2020 03:04:21.000,15.010,-76.870,25232.753968
1 Jan 2020 03:04:51.000,17.026,-77.003,25126.173589
1 Jan 2020 03:05:21.000,19.101,-77.134,25025.135740
1 Jan 2020 03:05:51.000,21.237,-77.264,24929.831419
1 Jan 2020 03:06:21.000,23.434,-77.391,24840.444468
1 Jan 2020 03:06:51.000,25.692,-77.514,24757.150862
1 Jan 2020 03:07:21.000,28.010,-77.631,24680.117909
1 Jan 2020 03:07:51.000,30.387,-77.743,24609.504002
1 Jan 2020 03:08:21.000,32.820,-77.847,24545.457274
1 Jan 2020 03:08:51.000,35.308,-77.943,24488.115415
1 Jan 2020 03:09:21.000,37.845,-78.029,24437.604940
1 Jan 2020 03:09:51.000,40.429,-78.105,24394.040572
1 Jan 2020 03:10:21.000,43.053,-78.170,24357.524889
1 Jan 2020 03:10:51.000,45.711,-78.223,24328.147547
1 Jan 2020 03:11:21.000,48.397,-78.264,24305.985056
1 Jan 2020 03:11:51.000,51.103,-78.291,24291.100357
1 Jan 2020 03:12:21.000,53.821,-78.305,24283.542531
1 Jan 2020 03:12:51.000,56.543,-78.306,24283.346499
1 Jan 2020 03:13:21.000,59.261,-78.293,24290.532924
1 Jan 2020 03:13:51.000,61.966,-78.266,24305.108081
1 Jan 2020 03:14:21.000,64.651,-78.226,24327.063836
1 Jan 2020 03:14:51.000,67.307,-78.173,24356.377779
1 Jan 2020 03:15:21.000,69.928,-78.108,24393.013025
1 Jan 2020 03:15:51.000,72.507,-78.032,24436.918872
1 Jan 2020 03:16:21.000,75.038,-77.945,24488.030768
1 Jan 2020 03:16:51.000,77.517,-77.848,24546.270703
1 Jan 2020 03:17:21.000,79.938,-77.742,24611.547747
1 Jan 2020 03:17:51.000,82.300,-77.628,24683.757929
1 Jan 2020 03:18:21.000,84.598,-77.508,24762.785558
1 Jan 2020 03:18:51.000,86.832,-77.382,24848.503228
1 Jan 2020 03:19:21.000,89.001,-77.252,24940.772526
1 Jan 2020 03:19:51.000,91.103,-77.119,25039.444832
1 Jan 2020 03:20:21.000,93.140,-76.983,25144.361238
1 Jan 2020 03:20:51.000,95.111,-76.846,25255.354275
1 Jan 2020 03:21:21.000,97.018,-76.709,25372.247887
1 Jan 2020 03:21:51.000,98.862,-76.573,25494.858288
1 Jan 2020 03:22:21.000,100.645,-76.439,25622.994654
1 Jan 2020 03:22:51.000,102.368,-76.308,25756.460038
1 Jan 2020 03:23:21.000,104.034,-76.180,25895.051108
1 Jan 2020 03:23:51.000,105.645,-76.056,26038.560220
1 Jan 2020 03:24:06.782,106.471,-75.993,26115.959400
1 Jan 2020 04:36:49.414,316.067,-75.984,26109.002524
1 Jan 2020 04:37:19.000,316.512,-76.162,25898.564849
1 Jan 2020 04:37:49.000,316.976,-76.359,25687.996931
1 Jan 2020 04:38:19.000,317.452,-76.573,25480.539923
1 Jan 2020 04:38:49.000,317.944,-76.804,25276.478714
1 Jan 2020 04:39:19.000,318.453,-77.053,25076.101306
1 Jan 2020 04:39:49.000,318.983,-77.320,24879.698321
1 Jan 2020 04:40:19.000,319.537,-77.604,24687.562458
1 Jan 2020 04:40:49.000,320.118,-77.905,24499.987877
1 Jan 2020 04:41:19.000,320.730,-78.224,24317.269210
1 Jan 2020 04:41:49.000,321.379,-78.560,24139.702107
1 Jan 2020 04:42:19.000,322.069,-78.913,23967.580494
1 Jan 2020 04:42:49.000,322.809,-79.282,23801.197010
1 Jan 2020 04:43:19.000,323.605,-79.668,23640.841749
1 Jan 2020 04:43:49.000,324.467,-80.069,23486.801039
1 Jan 2020 04:44:19.000,325.407,-80.484,23339.357339
1 Jan 2020 04:44:49.000,326.440,-80.914,23198.786710
1 Jan 2020 04:45:19.000,327.583,-81.357,23065.358641
1 Jan 2020 04:45:49.000,328.857,-81.812,22939.334620
1 Jan 2020 04:46:19.000,330.292,-82.278,22820.966720
1 Jan 2020 04:46:49.000,331.921,-82.752,22710.497234
1 Jan 2020 04:47:19.000,333.791,-83.234,22608.156126
1 Jan 2020 04:47:49.000,335.961,-83.720,22514.160705
1 Jan 2020 04:48:19.000,338.510,-84.207,22428.714059
1 Jan 2020 04:48:49.000,341.542,-84.692,22352.004440
1 Jan 2020 04:49:19.000,345.197,-85.169,22284.203301
1 Jan 2020 04:49:49.000,349.658,-85.630,22225.464827
1 Jan 2020 04:50:19.000,355.164,-86.067,22175.924743
1 Jan 2020 04:50:49.000,2.003,-86.466,22135.699766
1 Jan 2020 04:51:19.000,10.462,-86.807,22104.886329
1 Jan 2020 04:51:49.000,20.701,-87.069,22083.560303
1 Jan 2020 04:52:19.000,32.517,-87.224,22071.776381
1 Jan 2020 04:52:49.000,45.154,-87.255,22069.567752
1 Jan 2020 04:53:19.000,57.478,-87.156,22076.945792
1 Jan 2020 04:53:49.000,68.504,-86.940,22093.900063
1 Jan 2020 04:54:19.000,77.778,-86.632,22120.398438
1 Jan 2020 04:54:49.000,85.322,-86.257,22156.387071
1 Jan 2020 04:55:19.000,91.386,-85.835,22201.791127
1 Jan 2020 04:55:49.000,96.269,-85.382,22256.515076
1 Jan 2020 04:56:19.000,100.234,-84.910,22320.443523
1 Jan 2020 04:56:49.000,103.489,-84.426,22393.441442
1 Jan 2020 04:57:19.000,106.195,-83.937,22475.355815
1 Jan 2020 04:57:49.000,108.470,-83.448,22566.016105
1 Jan 2020 04:58:19.000,110.404,-82.962,22665.235611
1 Jan 2020 04:58:49.000,112.065,-82.482,22772.811836
1 Jan 2020 04:59:19.000,113.505,-82.010,22888.528741
1 Jan 2020 04:59:49.000,114.762,-81.547,23012.157230
1 Jan 2020 05:00:19.000,115.868,-81.096,23143.456757
1 Jan 2020 05:00:49.000,116.848,-80.658,23282.175690
1 Jan 2020 05:01:19.000,117.721,-80.233,23428.053801
1 Jan 2020 05:01:49.000,118.502,-79.823,23580.822632
1 Jan 2020 05:02:19.000,119.204,-79.428,23740.206865
1 Jan 2020 05:02:49.000,119.838,-79.050,23905.925746
1 Jan 2020 05:03:19.000,120.413,-78.687,24077.693040
1 Jan 2020 05:03:49.000,120.934,-78.342,24255.219750
1 Jan 2020 05:04:19.000,121.410,-78.014,24438.213986
1 Jan 2020 05:04:49.000,121.844,-77.703,24626.382162
1 Jan 2020 05:05:19.000,122.240,-77.410,24819.429851
1 Jan 2020 05:05:49.000,122.604,-77.135,25017.062584
1 Jan 2020 05:06:19.000,122.937,-76.877,25218.986924
1 Jan 2020 05:06:49.000,123.242,-76.638,25424.909751
1 Jan 2020 05:07:19.000,123.523,-76.416,25634.540931
1 Jan 2020 05:07:49.000,123.780,-76.212,25847.592493
1 Jan 2020 05:08:19.000,124.016,-76.025,26063.779451
1 Jan 2020 05:08:25.170,124.062,-75.989,26108.605545
1 Jan 2020 06:19:50.395,293.202,-75.982,26103.495503
1 Jan 2020 06:20:20.000,292.175,-76.140,25915.663655
1 Jan 2020 06:20:50.000,291.084,-76.311,25729.226797
1 Jan 2020 06:21:20.000,289.938,-76.494,25546.977846
1 Jan 2020 06:21:50.000,288.733,-76.688,25369.177666
1 Jan 2020 06:22:20.000,287.465,-76.892,25196.086214
1 Jan 2020 06:22:50.000,286.128,-77.107,25027.961877
1 Jan 2020 06:23:20.000,284.716,-77.330,24865.060485
1 Jan 2020 06:23:50.000,283.225,-77.562,24707.635652
1 Jan 2020 06:24:20.000,281.647,-77.801,24555.936327
1 Jan 2020 06:24:50.000,279.977,-78.047,24410.207077
1 Jan 2020 06:25:20.000,278.206,-78.297,24270.686935
1 Jan 2020 06:25:50.000,276.328,-78.551,24137.608284
1 Jan 2020 06:26:20.000,274.334,-78.807,24011.196859
1 Jan 2020 06:26:50.000,272.218,-79.063,23891.669421
1 Jan 2020 06:27:20.000,269.971,-79.318,23779.233756
1 Jan 2020 06:27:50.000,267.585,-79.569,23674.087498
1 Jan 2020 06:28:20.000,265.055,-79.815,23576.416998
1 Jan 2020 06:28:50.000,262.374,-80.053,23486.397214
1 Jan 2020 06:29:20.000,259.538,-80.280,23404.189601
1 Jan 2020 06:29:50.000,256.544,-80.494,23329.942090
1 Jan 2020 06:30:20.000,253.394,-80.692,23263.787964
1 Jan 2020 06:30:50.000,250.092,-80.872,23205.845606
1 Jan 2020 06:31:20.000,246.644,-81.032,23156.217069
1 Jan 2020 06:31:50.000,243.063,-81.168,23114.987999
1 Jan 2020 06:32:20.000,239.367,-81.278,23082.226923
1 Jan 2020 06:32:50.000,235.576,-81.362,23057.985129
1 Jan 2020 06:33:20.000,231.715,-81.416,23042.295884
1 Jan 2020 06:33:50.000,227.814,-81.441,23035.174548
1 Jan 2020 06:34:20.000,223.903,-81.436,23036.618368
1 Jan 2020 06:34:50.000,220.011,-81.401,23046.606545
1 Jan 2020 06:35:20.000,216.168,-81.337,23065.100234
1 Jan 2020 06:35:50.000,212.403,-81.245,23092.042857
1 Jan 2020 06:36:20.000,208.737,-81.127,23127.360442
1 Jan 2020 06:36:50.000,205.190,-80.984,23170.961886
1 Jan 2020 06:37:20.000,201.776,-80.820,23222.739702
1 Jan 2020 06:37:50.000,198.506,-80.636,23282.570487
1 Jan 2020 06:38:20.000,195.385,-80.435,23350.315732
1 Jan 2020 06:38:50.000,192.416,-80.220,23425.822205
1 Jan 2020 06:39:20.000,189.597,-79.993,23508.923303
1 Jan 2020 06:39:50.000,186.924,-79.757,23599.439569
1 Jan 2020 06:40:20.000,184.394,-79.514,23697.179672
1 Jan 2020 06:40:50.000,182.000,-79.267,23801.941522
1 Jan 2020 06:41:20.000,179.733,-79.017,23913.512521
1 Jan 2020 06:41:50.000,177.587,-78.766,24031.671543
1 Jan 2020 06:42:20.000,175.554,-78.516,24156.189223
1 Jan 2020 06:42:50.000,173.626,-78.269,24286.829075
1 Jan 2020 06:43:20.000,171.795,-78.026,24423.348619
1 Jan 2020 06:43:50.000,170.054,-77.787,24565.499516
1 Jan 2020 06:44:20.000,168.396,-77.556,24713.029604
1 Jan 2020 06:44:50.000,166.814,-77.331,24865.682985
1 Jan 2020 06:45:20.000,165.302,-77.115,25023.201027
1 Jan 2020 06:45:50.000,163.855,-76.907,25185.323128
1 Jan 2020 06:46:20.000,162.466,-76.709,25351.787448
1 Jan 2020 06:46:50.000,161.132,-76.522,25522.331845
1 Jan 2020 06:47:20.000,159.846,-76.344,25696.693478
1 Jan 2020 06:47:50.000,158.606,-76.178,25874.610933
1 Jan 2020 06:48:20.000,157.407,-76.023,26055.823743
1 Jan 2020 06:48:27.787,157.102,-75.984,26103.364592
1 Jan 2020 08:04:27.658,281.568,-75.982,26102.425611
1 Jan 2020 08:04:57.000,279.625,-76.043,26027.610442
1 Jan 2020 08:05:27.000,277.607,-76.103,25956.645910
1 Jan 2020 08:05:57.000,275.556,-76.160,25891.382491
1 Jan 2020 08:06:27.000,273.476,-76.214,25831.923694
1 Jan 2020 08:06:57.000,271.368,-76.263,25778.363506
1 Jan 2020 08:07:27.000,269.235,-76.308,25730.785942
1 Jan 2020 08:07:57.000,267.078,-76.348,25689.265035
1 Jan 2020 08:08:27.000,264.900,-76.383,25653.864014
1 Jan 2020 08:08:57.000,262.705,-76.413,25624.635396
1 Jan 2020 08:09:27.000,260.496,-76.436,25601.620670
1 Jan 2020 08:09:57.000,258.275,-76.453,25584.850087
1 Jan 2020 08:10:27.000,256.046,-76.464,25574.342670
1 Jan 2020 08:10:57.000,253.813,-76.468,25570.105902
1 Jan 2020 08:11:27.000,251.579,-76.466,25572.135855
1 Jan 2020 08:11:57.000,249.348,-76.457,25580.417160
1 Jan 2020 08:12:27.000,247.122,-76.442,25594.923082
1 Jan 2020 08:12:57.000,244.907,-76.421,25615.615593
1 Jan 2020 08:13:27.000,242.704,-76.394,25642.445579
1 Jan 2020 08:13:57.000,240.517,-76.361,25675.353023
1 Jan 2020 08:14:27.000,238.349,-76.323,25714.267257
1 Jan 2020 08:14:57.000,236.203,-76.281,25759.107310
1 Jan 2020 08:15:27.000,234.080,-76.233,25809.782021
1 Jan 2020 08:15:57.000,231.982,-76.182,25866.190710
1 Jan 2020 08:16:27.000,229.913,-76.127,25928.223381
1 Jan 2020 08:16:57.000,227.873,-76.069,25995.761192
1 Jan 2020 08:17:27.000,225.863,-76.008,26068.676901
1 Jan 2020 08:17:40.153,224.992,-75.981,26102.308302
1 Jan 2020 09:35:14.635,334.204,-75.988,26106.883902
1 Jan 2020 09:35:44.000,332.363,-76.071,26005.864198
1 Jan 2020 09:36:14.000,330.442,-76.156,25907.428375
1 Jan 2020 09:36:44.000,328.481,-76.240,25813.986159
1 Jan 2020 09:37:14.000,326.479,-76.323,25725.707685
1 Jan 2020 09:37:44.000,324.438,-76.405,25642.756594
1 Jan 2020 09:38:14.000,322.358,-76.484,25565.289461
1 Jan 2020 09:38:44.000,320.239,-76.560,25493.455135
1 Jan 2020 09:39:14.000,318.083,-76.632,25427.394576
1 Jan 2020 09:39:44.000,315.892,-76.699,25367.239708
1 Jan 2020 09:40:14.000,313.668,-76.761,25313.113317
1 Jan 2020 09:40:44.000,311.413,-76.818,25265.128451
1 Jan 2020 09:41:14.000,309.130,-76.868,25223.387912
1 Jan 2020 09:41:44.000,306.822,-76.911,25187.983997
1 Jan 2020 09:42:14.000,304.494,-76.947,25158.997841
1 Jan 2020 09:42:44.000,302.149,-76.975,25136.499247
1 Jan 2020 09:43:14.000,299.790,-76.995,25120.546342
1 Jan 2020 09:43:44.000,297.424,-77.007,25111.185322
1 Jan 2020 09:44:14.000,295.053,-77.011,25108.450228
1 Jan 2020 09:44:44.000,292.683,-77.006,25112.362817
1 Jan 2020 09:45:14.000,290.319,-76.992,25122.932467
1 Jan 2020 09:45:44.000,287.964,-76.970,25140.156132
1 Jan 2020 09:46:14.000,285.624,-76.940,25164.018427
1 Jan 2020 09:46:44.000,283.303,-76.902,25194.491465
1 Jan 2020 09:47:14.000,281.005,-76.857,25231.535331
1 Jan 2020 09:47:44.000,278.734,-76.804,25275.098045
1 Jan 2020 09:48:14.000,276.492,-76.746,25325.115858
1 Jan 2020 09:48:44.000,274.284,-76.681,25381.513640
1 Jan 2020 09:49:14.000,272.111,-76.611,25444.204793
1 Jan 2020 09:49:44.000,269.977,-76.536,25513.092244
1 Jan 2020 09:50:14.000,267.883,-76.457,25588.068456
1 Jan 2020 09:50:44.000,265.830,-76.376,25669.015974
1 Jan 2020 09:51:14.000,263.820,-76.291,25755.807901
1 Jan 2020 09:51:44.000,261.853,-76.205,25848.308579
1 Jan 2020 09:52:14.000,259.930,-76.118,25946.373413
1 Jan 2020 09:52:44.000,258.051,-76.031,26049.850446
1 Jan 2020 09:52:59.840,257.077,-75.985,26106.614585
1 Jan 2020 11:07:24.328,32.877,-75.994,26113.560554
1 Jan 2020 11:07:54.000,31.989,-76.159,25917.228614
1 Jan 2020 11:08:24.000,31.061,-76.340,25721.680006
1 Jan 2020 11:08:54.000,30.098,-76.535,25529.372630
1 Jan 2020 11:09:24.000,29.098,-76.744,25340.581080
1 Jan 2020 11:09:54.000,28.055,-76.967,25155.582094
1 Jan 2020 11:10:24.000,26.965,-77.204,24974.654025
1 Jan 2020 11:10:54.000,25.821,-77.454,24798.076256
1 Jan 2020 11:11:24.000,24.619,-77.717,24626.128309
1 Jan 2020 11:11:54.000,23.351,-77.992,24459.090169
1 Jan 2020 11:12:24.000,22.010,-78.279,24297.239996
1 Jan 2020 11:12:54.000,20.586,-78.577,24140.854353
1 Jan 2020 11:13:24.000,19.071,-78.885,23990.207087
1 Jan 2020 11:13:54.000,17.452,-79.201,23845.568425
1 Jan 2020 11:14:24.000,15.719,-79.526,23707.203783
1 Jan 2020 11:14:54.000,13.856,-79.856,23575.373711
1 Jan 2020 11:15:24.000,11.849,-80.192,23450.331431
1 Jan 2020 11:15:54.000,9.680,-80.529,23332.322741
1 Jan 2020 11:16:24.000,7.331,-80.867,23221.584686
1 Jan 2020 11:16:54.000,4.781,-81.203,23118.344293
1 Jan 2020 11:17:24.000,2.008,-81.534,23022.818168
1 Jan 2020 11:17:54.000,358.992,-81.856,22935.210349
1 Jan 2020 11:18:24.000,355.709,-82.167,22855.711958
1 Jan 2020 11:18:54.000,352.140,-82.461,22784.499891
1 Jan 2020 11:19:24.000,348.270,-82.734,22721.736234
1 Jan 2020 11:19:54.000,344.090,-82.982,22667.566707
1 Jan 2020 11:20:24.000,339.605,-83.200,22622.120245
1 Jan 2020 11:20:54.000,334.830,-83.382,22585.508068
1 Jan 2020 11:21:24.000,329.800,-83.525,22557.823187
1 Jan 2020 11:21:54.000,324.569,-83.623,22539.139533
1 Jan 2020 11:22:24.000,319.208,-83.674,22529.511714
1 Jan 2020 11:22:54.000,313.798,-83.677,22528.974638
1 Jan 2020 11:23:24.000,308.427,-83.631,22537.543220
1 Jan 2020 11:23:54.000,303.180,-83.537,22555.212393
1 Jan 2020 11:24:24.000,298.130,-83.399,22581.957106
1 Jan 2020 11:24:54.000,293.332,-83.220,22617.732594
1 Jan 2020 11:25:24.000,288.825,-83.005,22662.474335
1 Jan 2020 11:25:54.000,284.628,-82.758,22716.098965
1 Jan 2020 11:26:24.000,280.748,-82.484,22778.504500
1 Jan 2020 11:26:54.000,277.177,-82.189,22849.571205
1 Jan 2020 11:27:24.000,273.901,-81.877,22929.161748
1 Jan 2020 11:27:54.000,270.901,-81.552,23017.122878
1 Jan 2020 11:28:24.000,268.156,-81.218,23113.285768
1 Jan 2020 11:28:54.000,265.643,-80.878,23217.467303
1 Jan 2020 11:29:24.000,263.341,-80.535,23329.470339
1 Jan 2020 11:29:54.000,261.230,-80.192,23449.085852
1 Jan 2020 11:30:24.000,259.290,-79.851,23576.093281
1 Jan 2020 11:30:54.000,257.503,-79.515,23710.261794
1 Jan 2020 11:31:24.000,255.856,-79.185,23851.351633
1 Jan 2020 11:31:54.000,254.332,-78.862,23999.114115
1 Jan 2020 11:32:24.000,252.921,-78.549,24153.294284
1 Jan 2020 11:32:54.000,251.610,-78.245,24313.630882
1 Jan 2020 11:33:24.000,250.390,-77.953,24479.857604
1 Jan 2020 11:33:54.000,249.252,-77.673,24651.704050
1 Jan 2020 11:34:24.000,248.189,-77.405,24828.896953
1 Jan 2020 11:34:54.000,247.194,-77.150,25011.159770
1 Jan 2020 11:35:24.000,246.260,-76.910,25198.215375
1 Jan 2020 11:35:54.000,245.382,-76.683,25389.785566
1 Jan 2020 11:36:24.000,244.556,-76.471,25585.592077
1 Jan 2020 11:36:54.000,243.776,-76.274,25785.357217
1 Jan 2020 11:37:24.000,243.040,-76.092,25988.804465
1 Jan 2020 11:37:42.188,242.613,-75.989,26113.821396
1 Jan 2020 12:48:56.645,60.917,-75.997,26119.851279
1 Jan 2020 12:49:26.000,61.489,-76.170,25914.589070
1 Jan 2020 12:49:56.000,62.108,-76.362,25708.156528
1 Jan 2020 12:50:26.000,62.767,-76.570,25505.376934
1 Jan 2020 12:50:56.000,63.469,-76.794,25306.531516
1 Jan 2020 12:51:26.000,64.218,-77.034,25111.903005
1 Jan 2020 12:51:56.000,65.019,-77.288,24921.775051
1 Jan 2020 12:52:26.000,65.876,-77.558,24736.431574
1 Jan 2020 12:52:56.000,66.797,-77.843,24556.155748
1 Jan 2020 12:53:26.000,67.788,-78.142,24381.230518
1 Jan 2020 12:53:56.000,68.856,-78.454,24211.935848
1 Jan 2020 12:54:26.000,70.011,-78.779,24048.549148
1 Jan 2020 12:54:56.000,71.263,-79.116,23891.344023
1 Jan 2020 12:55:26.000,72.624,-79.464,23740.589044
1 Jan 2020 12:55:56.000,74.108,-79.821,23596.547743
1 Jan 2020 12:56:26.000,75.730,-80.187,23459.476020
1 Jan 2020 12:56:56.000,77.509,-80.559,23329.622087
1 Jan 2020 12:57:26.000,79.466,-80.936,23207.225096
1 Jan 2020 12:57:56.000,81.624,-81.315,23092.513780
1 Jan 2020 12:58:26.000,84.012,-81.695,22985.706258
1 Jan 2020 12:58:56.000,86.660,-82.071,22887.007493
1 Jan 2020 12:59:26.000,89.602,-82.440,22796.609157
1 Jan 2020 12:59:56.000,92.874,-82.798,22714.688170
1 Jan 2020 13:00:26.000,96.513,-83.141,22641.406290
1 Jan 2020 13:00:56.000,100.554,-83.462,22576.908225
1 Jan 2020 13:01:26.000,105.025,-83.757,22521.321384
1 Jan 2020 13:01:56.000,109.939,-84.018,22474.754825
1 Jan 2020 13:02:26.000,115.290,-84.239,22437.298947
1 Jan 2020 13:02:56.000,121.039,-84.412,22409.024297
1 Jan 2020 13:03:26.000,127.115,-84.533,22389.981517
1 Jan 2020 13:03:56.000,133.408,-84.596,22380.200872
1 Jan 2020 13:04:26.000,139.782,-84.599,22379.692155
1 Jan 2020 13:04:56.000,146.091,-84.542,22388.444408
1 Jan 2020 13:05:26.000,152.198,-84.428,22406.426140
1 Jan 2020 13:05:56.000,157.992,-84.260,22433.585527
1 Jan 2020 13:06:26.000,163.397,-84.045,22469.850579
1 Jan 2020 13:06:56.000,168.373,-83.790,22515.129819
1 Jan 2020 13:07:26.000,172.911,-83.500,22569.312734
1 Jan 2020 13:07:56.000,177.025,-83.184,22632.270600
1 Jan 2020 13:08:26.000,180.740,-82.846,22703.856868
1 Jan 2020 13:08:56.000,184.093,-82.492,22783.908630
1 Jan 2020 13:09:26.000,187.119,-82.127,22872.247205
1 Jan 2020 13:09:56.000,189.855,-81.756,22968.679404
1 Jan 2020 13:10:26.000,192.335,-81.381,23072.997998
1 Jan 2020 13:10:56.000,194.590,-81.006,23184.983708
1 Jan 2020 13:11:26.000,196.648,-80.633,23304.405767
1 Jan 2020 13:11:56.000,198.534,-80.264,23431.023194
1 Jan 2020 13:12:26.000,200.268,-79.902,23564.586177
1 Jan 2020 13:12:56.000,201.870,-79.548,23704.836267
1 Jan 2020 13:13:26.000,203.354,-79.203,23851.508863
1 Jan 2020 13:13:56.000,204.736,-78.869,24004.333382
1 Jan 2020 13:14:26.000,206.027,-78.546,24163.034520
1 Jan 2020 13:14:56.000,207.238,-78.236,24327.333244
1 Jan 2020 13:15:26.000,208.378,-77.939,24496.948023
1 Jan 2020 13:15:56.000,209.455,-77.656,24671.594586
1 Jan 2020 13:16:26.000,210.477,-77.386,24850.988440
1 Jan 2020 13:16:56.000,211.448,-77.132,25034.844534
1 Jan 2020 13:17:26.000,212.376,-76.892,25222.878253
1 Jan 2020 13:17:56.000,213.264,-76.667,25414.806079
1 Jan 2020 13:18:26.000,214.118,-76.457,25610.346191
1 Jan 2020 13:18:56.000,214.940,-76.262,25809.219013
1 Jan 2020 13:19:26.000,215.735,-76.083,26011.147700
1 Jan 2020 13:19:42.010,216.149,-75.994,26120.063343
1 Jan 2020 14:33:35.489,76.224,-75.997,26122.602435
1 Jan 2020 14:34:05.000,77.986,-76.093,26006.911428
1 Jan 2020 14:34:35.000,79.825,-76.191,25894.461107
1 Jan 2020 14:35:05.000,81.712,-76.289,25787.382345
1 Jan 2020 14:35:35.000,83.648,-76.387,25685.840549
1 Jan 2020 14:36:05.000,85.632,-76.485,25589.993684
1 Jan 2020 14:36:35.000,87.664,-76.580,25499.991541
1 Jan 2020 14:37:05.000,89.744,-76.672,25415.975779
1 Jan 2020 14:37:35.000,91.871,-76.761,25338.078433
1 Jan 2020 14:38:05.000,94.043,-76.846,25266.422008
1 Jan 2020 14:38:35.000,96.258,-76.926,25201.118816
1 Jan 2020 14:39:05.000,98.514,-76.999,25142.270387
1 Jan 2020 14:39:35.000,100.807,-77.067,25089.967458
1 Jan 2020 14:40:05.000,103.136,-77.127,25044.288912
1 Jan 2020 14:40:35.000,105.495,-77.179,25005.301864
1 Jan 2020 14:41:05.000,107.880,-77.223,24973.061246
1 Jan 2020 14:41:35.000,110.288,-77.258,24947.609483
1 Jan 2020 14:42:05.000,112.714,-77.283,24928.976538
1 Jan 2020 14:42:35.000,115.151,-77.300,24917.179384
1 Jan 2020 14:43:05.000,117.595,-77.307,24912.222185
1 Jan 2020 14:43:35.000,120.041,-77.304,24914.096201
1 Jan 2020 14:44:05.000,122.483,-77.292,24922.779822
1 Jan 2020 14:44:35.000,124.916,-77.271,24938.238678
1 Jan 2020 14:45:05.000,127.334,-77.240,24960.425756
1 Jan 2020 14:45:35.000,129.734,-77.200,24989.281648
1 Jan 2020 14:46:05.000,132.111,-77.153,25024.734808
1 Jan 2020 14:46:35.000,134.460,-77.097,25066.701926
1 Jan 2020 14:47:05.000,136.778,-77.034,25115.088098
1 Jan 2020 14:47:35.000,139.061,-76.965,25169.787521
1 Jan 2020 14:48:05.000,141.308,-76.889,25230.683770
1 Jan 2020 14:48:35.000,143.515,-76.809,25297.650338
1 Jan 2020 14:49:05.000,145.680,-76.724,25370.551242
1 Jan 2020 14:49:35.000,147.803,-76.635,25449.241216
1 Jan 2020 14:50:05.000,149.883,-76.544,25533.566808
1 Jan 2020 14:50:35.000,151.918,-76.450,25623.366627
1 Jan 2020 14:51:05.000,153.909,-76.356,25718.472018
1 Jan 2020 14:51:35.000,155.856,-76.260,25818.707669
1 Jan 2020 14:52:05.000,157.758,-76.165,25923.892367
1 Jan 2020 14:52:35.000,159.618,-76.070,26033.839024
1 Jan 2020 14:52:58.364,161.037,-75.998,26122.643137
1 Jan 2020 16:10:44.994,52.197,-75.994,26119.789030
1 Jan 2020 16:11:14.000,54.156,-76.045,26056.364052
1 Jan 2020 16:11:44.000,56.209,-76.096,25996.140145
1 Jan 2020 16:12:14.000,58.287,-76.143,25941.492329
1 Jan 2020 16:12:44.000,60.390,-76.187,25892.525225
1 Jan 2020 16:13:14.000,62.515,-76.226,25849.334212
1 Jan 2020 16:13:44.000,64.660,-76.260,25812.005002
1 Jan 2020 16:14:14.000,66.822,-76.290,25780.613479
1 Jan 2020 16:14:44.000,68.998,-76.314,25755.225120
1 Jan 2020 16:15:14.000,71.186,-76.333,25735.894916
1 Jan 2020 16:15:44.000,73.382,-76.346,25722.667098
1 Jan 2020 16:16:14.000,75.583,-76.353,25715.574958
1 Jan 2020 16:16:44.000,77.787,-76.354,25714.640698
1 Jan 2020 16:17:14.000,79.989,-76.349,25719.875345
1 Jan 2020 16:17:44.000,82.186,-76.338,25731.278705
1 Jan 2020 16:18:14.000,84.376,-76.321,25748.839370
1 Jan 2020 16:18:44.000,86.555,-76.299,25772.534808
1 Jan 2020 16:19:14.000,88.719,-76.271,25802.331281
1 Jan 2020 16:19:44.000,90.867,-76.237,25838.184248
1 Jan 2020 16:20:14.000,92.995,-76.199,25880.038388
1 Jan 2020 16:20:44.000,95.101,-76.157,25927.827865
1 Jan 2020 16:21:14.000,97.183,-76.110,25981.476600
1 Jan 2020 16:21:44.000,99.238,-76.060,26040.898690
1 Jan 2020 16:22:14.000,101.265,-76.007,26105.998307
1 Jan 2020 16:22:20.136,101.677,-75.996,26120.004370
1 Jan 2020 17:38:59.074,341.396,-75.987,26113.394379
1 Jan 2020 17:39:29.000,342.683,-76.132,25939.140206
1 Jan 2020 17:39:59.000,344.016,-76.288,25767.808391
1 Jan 2020 17:40:29.000,345.395,-76.454,25600.088511
1 Jan 2020 17:40:59.000,346.824,-76.629,25436.235644
1 Jan 2020 17:41:29.000,348.308,-76.812,25276.505049
1 Jan 2020 17:41:59.000,349.852,-77.004,25121.151575
1 Jan 2020 17:42:29.000,351.460,-77.203,24970.429026
1 Jan 2020 17:42:59.000,353.137,-77.408,24824.589265
1 Jan 2020 17:43:29.000,354.888,-77.619,24683.882375
1 Jan 2020 17:43:59.000,356.720,-77.835,24548.554565
1 Jan 2020 17:44:29.000,358.637,-78.054,24418.848280
1 Jan 2020 17:44:59.000,0.646,-78.276,24295.001142
1 Jan 2020 17:45:29.000,2.753,-78.498,24177.245099
1 Jan 2020 17:45:59.000,4.962,-78.720,24065.805372
1 Jan 2020 17:46:29.000,7.280,-78.940,23960.900275
1 Jan 2020 17:46:59.000,9.712,-79.155,23862.739223
1 Jan 2020 17:47:29.000,12.261,-79.365,23771.522563
1 Jan 2020 17:47:59.000,14.930,-79.567,23687.440486
1 Jan 2020 17:48:29.000,17.720,-79.759,23610.672032
1 Jan 2020 17:48:59.000,20.633,-79.938,23541.384673
1 Jan 2020 17:49:29.000,23.664,-80.104,23479.732797
1 Jan 2020 17:49:59.000,26.810,-80.253,23425.857385
1 Jan 2020 17:50:29.000,30.062,-80.383,23379.885114
1 Jan 2020 17:50:59.000,33.409,-80.494,23341.927874
1 Jan 2020 17:51:29.000,36.837,-80.583,23312.081846
1 Jan 2020 17:51:59.000,40.330,-80.648,23290.427196
1 Jan 2020 17:52:29.000,43.869,-80.689,23277.027579
1 Jan 2020 17:52:59.000,47.432,-80.704,23271.929766
1 Jan 2020 17:53:29.000,50.997,-80.695,23275.163383
1 Jan 2020 17:53:59.000,54.542,-80.659,23286.740769
1 Jan 2020 17:54:29.000,58.045,-80.600,23306.656965
1 Jan 2020 17:54:59.000,61.486,-80.516,23334.889523
1 Jan 2020 17:55:29.000,64.847,-80.409,23371.398976
1 Jan 2020 17:55:59.000,68.114,-80.282,23416.128877
1 Jan 2020 17:56:29.000,71.272,-80.135,23469.006288
1 Jan 2020 17:56:59.000,74.314,-79.970,23529.941774
1 Jan 2020 17:57:29.000,77.234,-79.791,23598.830545
1 Jan 2020 17:57:59.000,80.026,-79.598,23675.552637
1 Jan 2020 17:58:29.000,82.691,-79.395,23759.973815
1 Jan 2020 17:58:59.000,85.229,-79.183,23851.945687
1 Jan 2020 17:59:29.000,87.641,-78.963,23951.307363
1 Jan 2020 17:59:59.000,89.933,-78.740,24057.885683
1 Jan 2020 18:00:29.000,92.108,-78.513,24171.496201
1 Jan 2020 18:00:59.000,94.171,-78.285,24291.944287
1 Jan 2020 18:01:29.000,96.128,-78.058,24419.025081
1 Jan 2020 18:01:59.000,97.984,-77.832,24552.525755
1 Jan 2020 18:02:29.000,99.746,-77.610,24692.225492
1 Jan 2020 18:02:59.000,101.418,-77.393,24837.896590
1 Jan 2020 18:03:29.000,103.007,-77.181,24989.305317
1 Jan 2020 18:03:59.000,104.517,-76.976,25146.213045
1 Jan 2020 18:04:29.000,105.955,-76.779,25308.375905
1 Jan 2020 18:04:59.000,107.324,-76.590,25475.547286
1 Jan 2020 18:05:29.000,108.629,-76.410,25647.477447
1 Jan 2020 18:05:59.000,109.875,-76.241,25823.914504
1 Jan 2020 18:06:29.000,111.066,-76.081,26004.605098
1 Jan 2020 18:06:46.736,111.745,-75.992,26113.327232
1 Jan 2020 19:18:21.572,306.155,-75.983,26106.679689
1 Jan 2020 19:18:51.000,306.062,-76.164,25892.954818
1 Jan 2020 19:19:21.000,305.952,-76.365,25678.031283
1 Jan 2020 19:19:51.000,305.827,-76.585,25466.376180
1 Jan 2020 19:20:21.000,305.685,-76.822,25258.277490
1 Jan 2020 19:20:51.000,305.524,-77.078,25054.026096
1 Jan 2020 19:21:21.000,305.344,-77.352,24853.915271
1 Jan 2020 19:21:51.000,305.142,-77.645,24658.240104
1 Jan 2020 19:22:21.000,304.916,-77.956,24467.296561
1 Jan 2020 19:22:51.000,304.663,-78.285,24281.382008
1 Jan 2020 19:23:21.000,304.381,-78.632,24100.792600
1 Jan 2020 19:23:51.000,304.066,-78.997,23925.823690
1 Jan 2020 19:24:21.000,303.713,-79.379,23756.768618
1 Jan 2020 19:24:51.000,303.317,-79.779,23593.917503
1 Jan 2020 19:25:21.000,302.871,-80.196,23437.557244
1 Jan 2020 19:25:51.000,302.368,-80.629,23287.968898
1 Jan 2020 19:26:21.000,301.798,-81.078,23145.427597
1 Jan 2020 19:26:51.000,301.148,-81.542,23010.201115
1 Jan 2020 19:27:21.000,300.402,-82.020,22882.548425
1 Jan 2020 19:27:51.000,299.540,-82.512,22762.719446
1 Jan 2020 19:28:21.000,298.534,-83.015,22650.952311
1 Jan 2020 19:28:51.000,297.347,-83.529,22547.473133
1 Jan 2020 19:29:21.000,295.930,-84.052,22452.494353
1 Jan 2020 19:29:51.000,294.213,-84.582,22366.214195
1 Jan 2020 19:30:21.000,292.096,-85.116,22288.814488
1 Jan 2020 19:30:51.000,289.428,-85.652,22220.460254
1 Jan 2020 19:31:21.000,285.983,-86.183,22161.298385
1 Jan 2020 19:31:51.000,281.404,-86.703,22111.457150
1 Jan 2020 19:32:21.000,275.118,-87.201,22071.044652
1 Jan 2020 19:32:51.000,266.225,-87.655,22040.148583
1 Jan 2020 19:33:21.000,253.494,-88.030,22018.835465
1 Jan 2020 19:33:51.000,236.061,-88.272,22007.150356
1 Jan 2020 19:34:21.000,215.511,-88.318,22005.116252
1 Jan 2020 19:34:51.000,196.336,-88.153,22012.734128
1 Jan 2020 19:35:21.000,181.622,-87.827,22029.982913
1 Jan 2020 19:35:51.000,171.244,-87.401,22056.819492
1 Jan 2020 19:36:21.000,163.961,-86.920,22093.179181
1 Jan 2020 19:36:51.000,158.713,-86.408,22138.976066
1 Jan 2020 19:37:21.000,154.804,-85.881,22194.103717
1 Jan 2020 19:37:51.000,151.798,-85.348,22258.435475
1 Jan 2020 19:38:21.000,149.419,-84.814,22331.825886
1 Jan 2020 19:38:51.000,147.491,-84.283,22414.111249
1 Jan 2020 19:39:21.000,145.895,-83.758,22505.110897
1 Jan 2020 19:39:51.000,144.549,-83.241,22604.627648
1 Jan 2020 19:40:21.000,143.396,-82.734,22712.449917
1 Jan 2020 19:40:51.000,142.394,-82.239,22828.352298
1 Jan 2020 19:41:21.000,141.512,-81.757,22952.097154
1 Jan 2020 19:41:51.000,140.728,-81.289,23083.435066
1 Jan 2020 19:42:21.000,140.023,-80.835,23222.107257
1 Jan 2020 19:42:51.000,139.383,-80.396,23367.846057
1 Jan 2020 19:43:21.000,138.798,-79.974,23520.376308
1 Jan 2020 19:43:51.000,138.257,-79.568,23679.416812
1 Jan 2020 19:44:21.000,137.755,-79.179,23844.680386
1 Jan 2020 19:44:51.000,137.286,-78.808,24015.876559
1 Jan 2020 19:45:21.000,136.844,-78.454,24192.711540
1 Jan 2020 19:45:51.000,136.425,-78.119,24374.889454
1 Jan 2020 19:46:21.000,136.026,-77.801,24562.113251
1 Jan 2020 19:46:51.000,135.643,-77.501,24754.085845
1 Jan 2020 19:47:21.000,135.276,-77.220,24950.509709
1 Jan 2020 19:47:51.000,134.920,-76.957,25151.089356
1 Jan 2020 19:48:21.000,134.575,-76.712,25355.530813
1 Jan 2020 19:48:51.000,134.238,-76.485,25563.542496
1 Jan 2020 19:49:21.000,133.909,-76.275,25774.835738
1 Jan 2020 19:49:51.000,133.585,-76.084,25989.125245
1 Jan 2020 19:50:07.251,133.412,-75.987,26106.356234
1 Jan 2020 21:02:28.516,287.639,-75.982,26102.457833
1 Jan 2020 21:02:58.000,286.176,-76.109,25949.121983
1 Jan 2020 21:03:28.000,284.633,-76.245,25797.697350
1 Jan 2020 21:03:58.000,283.032,-76.386,25651.130051
1 Jan 2020 21:04:28.000,281.371,-76.532,25509.639013
1 Jan 2020 21:04:58.000,279.647,-76.681,25373.438745
1 Jan 2020 21:05:28.000,277.857,-76.834,25242.738647
1 Jan 2020 21:05:58.000,275.998,-76.989,25117.742072
1 Jan 2020 21:06:28.000,274.070,-77.144,24998.646554
1 Jan 2020 21:06:58.000,272.068,-77.299,24885.641646
1 Jan 2020 21:07:28.000,269.993,-77.453,24778.909156
1 Jan 2020 21:07:58.000,267.843,-77.605,24678.622174
1 Jan 2020 21:08:28.000,265.617,-77.752,24584.944184
1 Jan 2020 21:08:58.000,263.315,-77.895,24498.029046
1 Jan 2020 21:09:28.000,260.939,-78.031,24418.019267
1 Jan 2020 21:09:58.000,258.489,-78.160,24345.046055
1 Jan 2020 21:10:28.000,255.969,-78.279,24279.228521
1 Jan 2020 21:10:58.000,253.382,-78.388,24220.672978
1 Jan 2020 21:11:28.000,250.734,-78.487,24169.472922
1 Jan 2020 21:11:58.000,248.029,-78.572,24125.707780
1 Jan 2020 21:12:28.000,245.275,-78.644,24089.443032
1 Jan 2020 21:12:58.000,242.479,-78.703,24060.729670
1 Jan 2020 21:13:28.000,239.651,-78.746,24039.604174
1 Jan 2020 21:13:58.000,236.800,-78.774,24026.087922
1 Jan 2020 21:14:28.000,233.935,-78.786,24020.187338
1 Jan 2020 21:14:58.000,231.067,-78.782,24021.893765
1 Jan 2020 21:15:28.000,228.206,-78.763,24031.183566
1 Jan 2020 21:15:58.000,225.361,-78.729,24048.018124
1 Jan 2020 21:16:28.000,222.544,-78.679,24072.344121
1 Jan 2020 21:16:58.000,219.761,-78.615,24104.093784
1 Jan 2020 21:17:28.000,217.022,-78.538,24143.185276
1 Jan 2020 21:17:58.000,214.332,-78.448,24189.522909
1 Jan 2020 21:18:28.000,211.699,-78.347,24242.997889
1 Jan 2020 21:18:58.000,209.127,-78.235,24303.488673
1 Jan 2020 21:19:28.000,206.620,-78.114,24370.861594
1 Jan 2020 21:19:58.000,204.180,-77.985,24444.971587
1 Jan 2020 21:20:28.000,201.809,-77.850,24525.662436
1 Jan 2020 21:20:58.000,199.509,-77.708,24612.768078
1 Jan 2020 21:21:28.000,197.279,-77.563,24706.112925
1 Jan 2020 21:21:58.000,195.119,-77.415,24805.512695
1 Jan 2020 21:22:28.000,193.027,-77.265,24910.775297
1 Jan 2020 21:22:58.000,191.003,-77.114,25021.701022
1 Jan 2020 21:23:28.000,189.044,-76.964,25138.084114
1 Jan 2020 21:23:58.000,187.147,-76.814,25259.712970
1 Jan 2020 21:24:28.000,185.312,-76.668,25386.370998
1 Jan 2020 21:24:58.000,183.533,-76.524,25517.837325
1 Jan 2020 21:25:28.000,181.810,-76.384,25653.887487
1 Jan 2020 21:25:58.000,180.139,-76.249,25794.294308
1 Jan 2020 21:26:28.000,178.518,-76.119,25938.827682
1 Jan 2020 21:26:58.000,176.942,-75.995,26087.256451
1 Jan 2020 21:27:01.032,176.786,-75.983,26102.467765
1 Jan 2020 22:45:08.468,286.845,-75.983,26103.422685
1 Jan 2020 22:45:38.000,284.808,-76.020,26057.450616
1 Jan 2020 22:46:08.000,282.720,-76.054,26016.431856
1 Jan 2020 22:46:38.000,280.613,-76.084,25981.211685
1 Jan 2020 22:47:08.000,278.492,-76.109,25951.852095
1 Jan 2020 22:47:38.000,276.357,-76.129,25928.404847
1 Jan 2020 22:48:08.000,274.213,-76.144,25910.911244
1 Jan 2020 22:48:38.000,272.062,-76.154,25899.402062
1 Jan 2020 22:49:08.000,269.907,-76.159,25893.897256
1 Jan 2020 22:49:38.000,267.750,-76.159,25894.406002
1 Jan 2020 22:50:08.000,265.596,-76.153,25900.926624
1 Jan 2020 22:50:38.000,263.445,-76.142,25913.446622
1 Jan 2020 22:51:08.000,261.303,-76.125,25931.942650
1 Jan 2020 22:51:38.000,259.171,-76.104,25956.380710
1 Jan 2020 22:52:08.000,257.052,-76.078,25986.716237
1 Jan 2020 22:52:38.000,254.948,-76.048,26022.894287
1 Jan 2020 22:53:08.000,252.862,-76.013,26064.849766
1 Jan 2020 22:53:32.467,251.176,-75.982,26103.293282
2 Jan 2020 00:11:44.864,0.426,-75.991,26109.194817
2 Jan 2020 00:12:14.000,358.861,-76.107,25969.066943
2 Jan 2020 00:12:44.000,357.205,-76.231,25828.691074
2 Jan 2020 00:13:14.000,355.499,-76.360,25692.505318
2 Jan 2020 00:13:44.000,353.743,-76.494,25560.734735
2 Jan 2020 00:14:14.000,351.932,-76.630,25433.601732
2 Jan 2020 00:14:44.000,350.066,-76.769,25311.325420
2 Jan 2020 00:15:14.000,348.141,-76.910,25194.120800
2 Jan 2020 00:15:44.000,346.155,-77.051,25082.198710
2 Jan 2020 00:16:14.000,344.107,-77.193,24975.764170
2 Jan 2020 00:16:44.000,341.995,-77.332,24875.016312
2 Jan 2020 00:17:14.000,339.818,-77.470,24780.147495
2 Jan 2020 00:17:44.000,337.576,-77.604,24691.342578
2 Jan 2020 00:18:14.000,335.269,-77.733,24608.778076
2 Jan 2020 00:18:44.000,332.897,-77.857,24532.621926
2 Jan 2020 00:19:14.000,330.462,-77.973,24463.032042
2 Jan 2020 00:19:44.000,327.967,-78.082,24400.156136
2 Jan 2020 00:20:14.000,325.413,-78.181,24344.130935
2 Jan 2020 00:20:44.000,322.807,-78.270,24295.081502
2 Jan 2020 00:21:14.000,320.152,-78.348,24253.120879
2 Jan 2020 00:21:44.000,317.455,-78.413,24218.349200
2 Jan 2020 00:22:14.000,314.722,-78.466,24190.853449
2 Jan 2020 00:22:44.000,311.962,-78.505,24170.706980
2 Jan 2020 00:23:14.000,309.183,-78.529,24157.969156
2 Jan 2020 00:23:44.000,306.393,-78.539,24152.685035
2 Jan 2020 00:24:14.000,303.601,-78.535,24154.885166
2 Jan 2020 00:24:44.000,300.817,-78.516,24164.585440
2 Jan 2020 00:25:14.000,298.050,-78.482,24181.787014
2 Jan 2020 00:25:44.000,295.309,-78.435,24206.476392
2 Jan 2020 00:26:14.000,292.601,-78.374,24238.625206
2 Jan 2020 00:26:44.000,289.935,-78.300,24278.190803
2 Jan 2020 00:27:14.000,287.317,-78.214,24325.116195
2 Jan 2020 00:27:44.000,284.753,-78.117,24379.330427
2 Jan 2020 00:28:14.000,282.248,-78.009,24440.749077
2 Jan 2020 00:28:44.000,279.806,-77.893,24509.274137
2 Jan 2020 00:29:14.000,277.431,-77.769,24584.795299
2 Jan 2020 00:29:44.000,275.124,-77.639,24667.189960
2 Jan 2020 00:30:14.000,272.887,-77.502,24756.323934
2 Jan 2020 00:30:44.000,270.720,-77.362,24852.052245
2 Jan 2020 00:31:14.000,268.624,-77.219,24954.219054
2 Jan 2020 00:31:44.000,266.598,-77.073,25062.659399
2 Jan 2020 00:32:14.000,264.641,-76.927,25177.199185
2 Jan 2020 00:32:44.000,262.752,-76.781,25297.656057
2 Jan 2020 00:33:14.000,260.928,-76.637,25423.840107
2 Jan 2020 00:33:44.000,259.168,-76.495,25555.554835
2 Jan 2020 00:34:14.000,257.470,-76.356,25692.596870
2 Jan 2020 00:34:44.000,255.831,-76.221,25834.758118
2 Jan 2020 00:35:14.000,254.248,-76.091,25981.825480
2 Jan 2020 00:35:39.212,252.960,-75.986,26109.053835
2 Jan 2020 01:48:11.913,45.276,-75.995,26116.031097
2 Jan 2020 01:48:41.000,44.900,-76.170,25907.830181
2 Jan 2020 01:49:11.000,44.505,-76.368,25695.886982
2 Jan 2020 01:49:41.000,44.099,-76.584,25487.056113
2 Jan 2020 01:50:11.000,43.682,-76.817,25281.623815
2 Jan 2020 01:50:41.000,43.251,-77.068,25079.879495
2 Jan 2020 01:51:11.000,42.804,-77.337,24882.115228
2 Jan 2020 01:51:41.000,42.339,-77.624,24688.625212
2 Jan 2020 01:52:11.000,41.852,-77.929,24499.705153
2 Jan 2020 01:52:41.000,41.340,-78.251,24315.651270
2 Jan 2020 01:53:11.000,40.799,-78.591,24136.760849
2 Jan 2020 01:53:41.000,40.225,-78.949,23963.329482
2 Jan 2020 01:54:11.000,39.611,-79.323,23795.651504
2 Jan 2020 01:54:41.000,38.950,-79.714,23634.018734
2 Jan 2020 01:55:11.000,38.235,-80.122,23478.719243
2 Jan 2020 01:55:41.000,37.456,-80.545,23330.037253
2 Jan 2020 01:56:11.000,36.600,-80.983,23188.250583
2 Jan 2020 01:56:41.000,35.652,-81.435,23053.630475
2 Jan 2020 01:57:11.000,34.594,-81.901,22926.440159
2 Jan 2020 01:57:41.000,33.399,-82.379,22806.933414
2 Jan 2020 01:58:11.000,32.036,-82.867,22695.354218
2 Jan 2020 01:58:41.000,30.465,-83.365,22591.934155
2 Jan 2020 01:59:11.000,28.627,-83.869,22496.892094
2 Jan 2020 01:59:41.000,26.448,-84.378,22410.432601
2 Jan 2020 02:00:11.000,23.823,-84.888,22332.745333
2 Jan 2020 02:00:41.000,20.602,-85.396,22264.003028
2 Jan 2020 02:01:11.000,16.574,-85.893,22204.361050
2 Jan 2020 02:01:41.000,11.439,-86.373,22153.956172
2 Jan 2020 02:02:11.000,4.774,-86.822,22112.906027
2 Jan 2020 02:02:41.000,356.044,-87.219,22081.307814
2 Jan 2020 02:03:11.000,344.726,-87.536,22059.238009
2 Jan 2020 02:03:41.000,330.758,-87.736,22046.751749
2 Jan 2020 02:04:11.000,315.178,-87.784,22043.882510
2 Jan 2020 02:04:41.000,300.047,-87.671,22050.641769
2 Jan 2020 02:05:11.000,287.116,-87.418,22067.019022
2 Jan 2020 02:05:41.000,276.914,-87.064,22092.981902
2 Jan 2020 02:06:11.000,269.116,-86.642,22128.476159
2 Jan 2020 02:06:41.000,263.161,-86.178,22173.426386
2 Jan 2020 02:07:11.000,258.555,-85.688,22227.736321
2 Jan 2020 02:07:41.000,254.928,-85.184,22291.289687
2 Jan 2020 02:08:11.000,252.019,-84.674,22363.950439
2 Jan 2020 02:08:41.000,249.645,-84.162,22445.564410
2 Jan 2020 02:09:11.000,247.678,-83.653,22535.959797
2 Jan 2020 02:09:41.000,246.024,-83.149,22634.948526
2 Jan 2020 02:10:11.000,244.618,-82.653,22742.326645
2 Jan 2020 02:10:41.000,243.410,-82.167,22857.876580
2 Jan 2020 02:11:11.000,242.362,-81.692,22981.367639
2 Jan 2020 02:11:41.000,241.446,-81.230,23112.557635
2 Jan 2020 02:12:11.000,240.640,-80.781,23251.193263
2 Jan 2020 02:12:41.000,239.925,-80.347,23397.012602
2 Jan 2020 02:13:11.000,239.290,-79.928,23549.745495
2 Jan 2020 02:13:41.000,238.722,-79.525,23709.114934
2 Jan 2020 02:14:11.000,238.211,-79.139,23874.838491
2 Jan 2020 02:14:41.000,237.752,-78.770,24046.628286
2 Jan 2020 02:15:11.000,237.337,-78.418,24224.193713
2 Jan 2020 02:15:41.000,236.962,-78.084,24407.241322
2 Jan 2020 02:16:11.000,236.622,-77.767,24595.476018
2 Jan 2020 02:16:41.000,236.314,-77.469,24788.601928
2 Jan 2020 02:17:11.000,236.034,-77.189,24986.323198
2 Jan 2020 02:17:41.000,235.779,-76.927,25188.345077
2 Jan 2020 02:18:11.000,235.549,-76.683,25394.373206
2 Jan 2020 02:18:41.000,235.339,-76.457,25604.116286
2 Jan 2020 02:19:11.000,235.150,-76.248,25817.285257
2 Jan 2020 02:19:41.000,234.979,-76.058,26033.594125
2 Jan 2020 02:19:52.371,234.919,-75.991,26116.341411
2 Jan 2020 03:31:23.379,67.515,-75.997,26121.430267
2 Jan 2020 03:31:53.000,68.601,-76.152,25936.881356
2 Jan 2020 03:32:23.000,69.752,-76.320,25753.957577
2 Jan 2020 03:32:53.000,70.960,-76.498,25575.304373
2 Jan 2020 03:33:23.000,72.228,-76.687,25401.179112
2 Jan 2020 03:33:53.000,73.560,-76.886,25231.837862
2 Jan 2020 03:34:23.000,74.962,-77.094,25067.534703
2 Jan 2020 03:34:53.000,76.439,-77.310,24908.520748
2 Jan 2020 03:35:23.000,77.997,-77.533,24755.044463
2 Jan 2020 03:35:53.000,79.641,-77.763,24607.349230
2 Jan 2020 03:36:23.000,81.377,-77.998,24465.673620
2 Jan 2020 03:36:53.000,83.213,-78.237,24330.250254
2 Jan 2020 03:37:23.000,85.155,-78.478,24201.304697
2 Jan 2020 03:37:53.000,87.208,-78.720,24079.055456
2 Jan 2020 03:38:23.000,89.381,-78.962,23963.711703
2 Jan 2020 03:38:53.000,91.679,-79.200,23855.473276
2 Jan 2020 03:39:23.000,94.109,-79.435,23754.529534
2 Jan 2020 03:39:53.000,96.674,-79.662,23661.058273
2 Jan 2020 03:40:23.000,99.379,-79.881,23575.225616
2 Jan 2020 03:40:53.000,102.226,-80.088,23497.183994
2 Jan 2020 03:41:23.000,105.214,-80.282,23427.072143
2 Jan 2020 03:41:53.000,108.341,-80.460,23365.014039
2 Jan 2020 03:42:23.000,111.601,-80.619,23311.118679
2 Jan 2020 03:42:53.000,114.984,-80.758,23265.478738
2 Jan 2020 03:43:23.000,118.478,-80.875,23228.170530
2 Jan 2020 03:43:53.000,122.064,-80.967,23199.253364
2 Jan 2020 03:44:23.000,125.724,-81.033,23178.769454
2 Jan 2020 03:44:53.000,129.433,-81.072,23166.743237
2 Jan 2020 03:45:23.000,133.166,-81.084,23163.181509
2 Jan 2020 03:45:53.000,136.898,-81.068,23168.073294
2 Jan 2020 03:46:23.000,140.602,-81.024,23181.389930
2 Jan 2020 03:46:53.000,144.254,-80.954,23203.085152
2 Jan 2020 03:47:23.000,147.832,-80.859,23233.095416
2 Jan 2020 03:47:53.000,151.315,-80.740,23271.340296
2 Jan 2020 03:48:23.000,154.689,-80.599,23317.722747
2 Jan 2020 03:48:53.000,157.942,-80.438,23372.129909
2 Jan 2020 03:49:23.000,161.066,-80.260,23434.433571
2 Jan 2020 03:49:53.000,164.055,-80.067,23504.490999
2 Jan 2020 03:50:23.000,166.909,-79.862,23582.145324
2 Jan 2020 03:50:53.000,169.627,-79.646,23667.226893
2 Jan 2020 03:51:23.000,172.213,-79.421,23759.553781
2 Jan 2020 03:51:53.000,174.670,-79.191,23858.932762
2 Jan 2020 03:52:23.000,177.004,-78.957,23965.160399
2 Jan 2020 03:52:53.000,179.221,-78.721,24078.023294
2 Jan 2020 03:53:23.000,181.328,-78.484,24197.300023
2 Jan 2020 03:53:53.000,183.331,-78.249,24322.761414
2 Jan 2020 03:54:23.000,185.237,-78.016,24454.171630
2 Jan 2020 03:54:53.000,187.053,-77.787,24591.289073
2 Jan 2020 03:55:23.000,188.785,-77.564,24733.867494
2 Jan 2020 03:55:53.000,190.439,-77.346,24881.655922
2 Jan 2020 03:56:23.000,192.022,-77.136,25034.400854
2 Jan 2020 03:56:53.000,193.538,-76.933,25191.846123
2 Jan 2020 03:57:23.000,194.994,-76.740,25353.733865
2 Jan 2020 03:57:53.000,196.393,-76.555,25519.805211
2 Jan 2020 03:58:23.000,197.741,-76.380,25689.800940
2 Jan 2020 03:58:53.000,199.042,-76.215,25863.462081
2 Jan 2020 03:59:23.000,200.300,-76.061,26040.530748
2 Jan 2020 03:59:36.534,200.854,-75.995,26121.456718
2 Jan 2020 05:15:56.610,78.410,-75.997,26122.279886
2 Jan 2020 05:16:26.000,80.374,-76.054,26052.222421
2 Jan 2020 05:16:56.000,82.409,-76.110,25986.276073
2 Jan 2020 05:17:26.000,84.473,-76.162,25926.058012
2 Jan 2020 05:17:56.000,86.565,-76.211,25871.664382
2 Jan 2020 05:18:26.000,88.682,-76.255,25823.181632
2 Jan 2020 05:18:56.000,90.822,-76.295,25780.686091
2 Jan 2020 05:19:26.000,92.983,-76.330,25744.243960
2 Jan 2020 05:19:56.000,95.161,-76.359,25713.910571
2 Jan 2020 05:20:26.000,97.354,-76.383,25689.730476
2 Jan 2020 05:20:56.000,99.559,-76.401,25671.737175
2 Jan 2020 05:21:26.000,101.772,-76.413,25659.952946
2 Jan 2020 05:21:56.000,103.990,-76.419,25654.388856
2 Jan 2020 05:22:26.000,106.209,-76.418,25655.044538
2 Jan 2020 05:22:56.000,108.427,-76.411,25661.908314
2 Jan 2020 05:23:26.000,110.639,-76.398,25674.957210
2 Jan 2020 05:23:56.000,112.843,-76.379,25694.157071
2 Jan 2020 05:24:26.000,115.035,-76.354,25719.462628
2 Jan 2020 05:24:56.000,117.213,-76.324,25750.817790
2 Jan 2020 05:25:26.000,119.372,-76.289,25788.155811
2 Jan 2020 05:25:56.000,121.512,-76.248,25831.399584
2 Jan 2020 05:26:26.000,123.629,-76.203,25880.461946
2 Jan 2020 05:26:56.000,125.722,-76.155,25935.246113
2 Jan 2020 05:27:26.000,127.788,-76.103,25995.645737
2 Jan 2020 05:27:56.000,129.825,-76.047,26061.545783
2 Jan 2020 05:28:21.736,131.550,-75.998,26122.368817
2 Jan 2020 06:46:01.933,22.493,-75.991,26117.654499
2 Jan 2020 06:46:31.000,24.290,-76.077,26012.819387
2 Jan 2020 06:47:01.000,26.185,-76.167,25909.263026
2 Jan 2020 06:47:31.000,28.122,-76.257,25810.604296
2 Jan 2020 06:48:01.000,30.101,-76.346,25717.021005
2 Jan 2020 06:48:31.000,32.123,-76.434,25628.684932
2 Jan 2020 06:49:01.000,34.185,-76.520,25545.761236
2 Jan 2020 06:49:31.000,36.289,-76.603,25468.407765
2 Jan 2020 06:50:01.000,38.434,-76.682,25396.774904
2 Jan 2020 06:50:31.000,40.617,-76.758,25331.004350
2 Jan 2020 06:51:01.000,42.836,-76.829,25271.229010
2 Jan 2020 06:51:31.000,45.091,-76.894,25217.572354
2 Jan 2020 06:52:01.000,47.378,-76.952,25170.147862
2 Jan 2020 06:52:31.000,49.694,-77.004,25129.058752
2 Jan 2020 06:53:01.000,52.035,-77.049,25094.397226
2 Jan 2020 06:53:31.000,54.397,-77.086,25066.244291
2 Jan 2020 06:54:01.000,56.778,-77.114,25044.669349
2 Jan 2020 06:54:31.000,59.171,-77.134,25029.729885
2 Jan 2020 06:55:01.000,61.572,-77.145,25021.471224
2 Jan 2020 06:55:31.000,63.977,-77.147,25019.926295
2 Jan 2020 06:56:01.000,66.380,-77.141,25025.115521
2 Jan 2020 06:56:31.000,68.776,-77.125,25037.046710
2 Jan 2020 06:57:01.000,71.161,-77.100,25055.715086
2 Jan 2020 06:57:31.000,73.530,-77.067,25081.103100
2 Jan 2020 06:58:01.000,75.878,-77.026,25113.180821
2 Jan 2020 06:58:31.000,78.201,-76.977,25151.905885
2 Jan 2020 06:59:01.000,80.496,-76.920,25197.223738
2 Jan 2020 06:59:31.000,82.757,-76.857,25249.067993
2 Jan 2020 07:00:01.000,84.983,-76.788,25307.360317
2 Jan 2020 07:00:31.000,87.171,-76.713,25372.011387
2 Jan 2020 07:01:01.000,89.318,-76.633,25442.920883
2 Jan 2020 07:01:31.000,91.423,-76.550,25519.978017
2 Jan 2020 07:02:01.000,93.484,-76.463,25603.062137
2 Jan 2020 07:02:31.000,95.500,-76.373,25692.042662
2 Jan 2020 07:03:01.000,97.470,-76.282,25786.780433
2 Jan 2020 07:03:31.000,99.394,-76.190,25887.127704
2 Jan 2020 07:04:01.000,101.272,-76.098,25992.928833
2 Jan 2020 07:04:31.000,103.104,-76.006,26104.020853
2 Jan 2020 07:04:34.653,103.324,-75.995,26117.902606
2 Jan 2020 08:18:43.105,325.539,-75.985,26110.903391
2 Jan 2020 08:19:13.000,326.378,-76.154,25910.694162
2 Jan 2020 08:19:43.000,327.249,-76.337,25712.714314
2 Jan 2020 08:20:13.000,328.151,-76.536,25517.943741
2 Jan 2020 08:20:43.000,329.089,-76.749,25326.658439
2 Jan 2020 08:21:13.000,330.066,-76.976,25139.136739
2 Jan 2020 08:21:43.000,331.089,-77.218,24955.658784
2 Jan 2020 08:22:13.000,332.161,-77.473,24776.505957
2 Jan 2020 08:22:43.000,333.289,-77.743,24601.959994
2 Jan 2020 08:23:13.000,334.480,-78.025,24432.303321
2 Jan 2020 08:23:43.000,335.741,-78.320,24267.816760
2 Jan 2020 08:24:13.000,337.081,-78.626,24108.779763
2 Jan 2020 08:24:43.000,338.510,-78.944,23955.469303
2 Jan 2020 08:25:13.000,340.039,-79.272,23808.158953
2 Jan 2020 08:25:43.000,341.680,-79.608,23667.117699
2 Jan 2020 08:26:13.000,343.449,-79.952,23532.609896
2 Jan 2020 08:26:43.000,345.361,-80.302,23404.892763
2 Jan 2020 08:27:13.000,347.435,-80.656,23284.216294
2 Jan 2020 08:27:43.000,349.692,-81.012,23170.821914
2 Jan 2020 08:28:13.000,352.155,-81.367,23064.941187
2 Jan 2020 08:28:43.000,354.849,-81.718,22966.795414
2 Jan 2020 08:29:13.000,357.801,-82.063,22876.593427
2 Jan 2020 08:29:43.000,1.039,-82.397,22794.531241
2 Jan 2020 08:30:13.000,4.590,-82.716,22720.790696
2 Jan 2020 08:30:43.000,8.479,-83.016,22655.538870
2 Jan 2020 08:31:13.000,12.724,-83.291,22598.926452
2 Jan 2020 08:31:43.000,17.332,-83.535,22551.087312
2 Jan 2020 08:32:13.000,22.293,-83.744,22512.137525
2 Jan 2020 08:32:43.000,27.575,-83.910,22482.174860
2 Jan 2020 08:33:13.000,33.125,-84.029,22461.277844
2 Jan 2020 08:33:43.000,38.861,-84.098,22449.505504
2 Jan 2020 08:34:13.000,44.682,-84.114,22446.896947
2 Jan 2020 08:34:43.000,50.480,-84.075,22453.471056
2 Jan 2020 08:35:13.000,56.146,-83.984,22469.226442
2 Jan 2020 08:35:43.000,61.586,-83.844,22494.141439
2 Jan 2020 08:36:13.000,66.730,-83.658,22528.174341
2 Jan 2020 08:36:43.000,71.531,-83.433,22571.263356
2 Jan 2020 08:37:13.000,75.966,-83.173,22623.327485
2 Jan 2020 08:37:43.000,80.034,-82.884,22684.266753
2 Jan 2020 08:38:13.000,83.746,-82.573,22753.963060
2 Jan 2020 08:38:43.000,87.122,-82.243,22832.280348
2 Jan 2020 08:39:13.000,90.189,-81.901,22919.066266
2 Jan 2020 08:39:43.000,92.974,-81.549,23014.152529
2 Jan 2020 08:40:13.000,95.504,-81.191,23117.356215
2 Jan 2020 08:40:43.000,97.807,-80.831,23228.480035
2 Jan 2020 08:41:13.000,99.906,-80.471,23347.314498
2 Jan 2020 08:41:43.000,101.825,-80.114,23473.638277
2 Jan 2020 08:42:13.000,103.582,-79.762,23607.219486
2 Jan 2020 08:42:43.000,105.194,-79.416,23747.817062
2 Jan 2020 08:43:13.000,106.679,-79.079,23895.180764
2 Jan 2020 08:43:43.000,108.049,-78.751,24049.053874
2 Jan 2020 08:44:13.000,109.316,-78.434,24209.173177
2 Jan 2020 08:44:43.000,110.492,-78.129,24375.270243
2 Jan 2020 08:45:13.000,111.584,-77.836,24547.072399
2 Jan 2020 08:45:43.000,112.601,-77.556,24724.303989
2 Jan 2020 08:46:13.000,113.551,-77.290,24906.685962
2 Jan 2020 08:46:43.000,114.440,-77.038,25093.938619
2 Jan 2020 08:47:13.000,115.272,-76.801,25285.781116
2 Jan 2020 08:47:43.000,116.055,-76.579,25481.932495
2 Jan 2020 08:48:13.000,116.790,-76.372,25682.112349
2 Jan 2020 08:48:43.000,117.484,-76.180,25886.041423
2 Jan 2020 08:49:13.000,118.138,-76.004,26093.442169
2 Jan 2020 08:49:15.469,118.190,-75.990,26110.659097
2 Jan 2020 10:00:28.306,298.252,-75.983,26104.672261
2 Jan 2020 10:00:58.000,297.613,-76.156,25898.984943
2 Jan 2020 10:01:28.000,296.929,-76.346,25694.599915
2 Jan 2020 10:01:58.000,296.203,-76.552,25493.930669
2 Jan 2020 10:02:28.000,295.431,-76.773,25297.256185
2 Jan 2020 10:02:58.000,294.610,-77.009,25104.856686
2 Jan 2020 10:03:28.000,293.733,-77.259,24917.013043
2 Jan 2020 10:03:58.000,292.796,-77.525,24734.006117
2 Jan 2020 10:04:28.000,291.792,-77.804,24556.115739
2 Jan 2020 10:04:58.000,290.714,-78.096,24383.621220
2 Jan 2020 10:05:28.000,289.555,-78.401,24216.798598
2 Jan 2020 10:05:58.000,288.305,-78.718,24055.921061
2 Jan 2020 10:06:28.000,286.954,-79.045,23901.257700
2 Jan 2020 10:06:58.000,285.489,-79.383,23753.072286
2 Jan 2020 10:07:28.000,283.898,-79.729,23611.623265
2 Jan 2020 10:07:58.000,282.165,-80.081,23477.161189
2 Jan 2020 10:08:28.000,280.273,-80.439,23349.928665
2 Jan 2020 10:08:58.000,278.202,-80.800,23230.159000
2 Jan 2020 10:09:28.000,275.930,-81.162,23118.074875
2 Jan 2020 10:09:58.000,273.432,-81.521,23013.888154
2 Jan 2020 10:10:28.000,270.682,-81.876,22917.797395
2 Jan 2020 10:10:58.000,267.652,-82.222,22829.987735
2 Jan 2020 10:11:28.000,264.314,-82.555,22750.629467
2 Jan 2020 10:11:58.000,260.640,-82.870,22679.877659
2 Jan 2020 10:12:28.000,256.609,-83.164,22617.870322
2 Jan 2020 10:12:58.000,252.207,-83.429,22564.728194
2 Jan 2020 10:13:28.000,247.433,-83.661,22520.553741
2 Jan 2020 10:13:58.000,242.308,-83.853,22485.430868
2 Jan 2020 10:14:28.000,236.874,-84.000,22459.423803
2 Jan 2020 10:14:58.000,231.200,-84.098,22442.577068
2 Jan 2020 10:15:28.000,225.379,-84.144,22434.915052
2 Jan 2020 10:15:58.000,219.520,-84.135,22436.441949
2 Jan 2020 10:16:28.000,213.735,-84.072,22447.141531
2 Jan 2020 10:16:58.000,208.128,-83.958,22466.977384
2 Jan 2020 10:17:28.000,202.784,-83.796,22495.893143
2 Jan 2020 10:17:58.000,197.761,-83.591,22533.812680
2 Jan 2020 10:18:28.000,193.093,-83.349,22580.640808
2 Jan 2020 10:18:58.000,188.793,-83.076,22636.263741
2 Jan 2020 10:19:28.000,184.854,-82.778,22700.549929
2 Jan 2020 10:19:58.000,181.259,-82.459,22773.350449
2 Jan 2020 10:20:28.000,177.982,-82.124,22854.500472
2 Jan 2020 10:20:58.000,174.998,-81.779,22943.819843
2 Jan 2020 10:21:28.000,172.276,-81.427,23041.114329
2 Jan 2020 10:21:58.000,169.790,-81.071,23146.176089
2 Jan 2020 10:22:28.000,167.513,-80.713,23258.785631
2 Jan 2020 10:22:58.000,165.422,-80.358,23378.712362
2 Jan 2020 10:23:28.000,163.496,-80.006,23505.715836
2 Jan 2020 10:23:58.000,161.715,-79.661,23639.547112
2 Jan 2020 10:24:28.000,160.064,-79.322,23779.948935
2 Jan 2020 10:24:58.000,158.527,-78.992,23926.658172
2 Jan 2020 10:25:28.000,157.092,-78.672,24079.405966
2 Jan 2020 10:25:58.000,155.746,-78.363,24237.918971
2 Jan 2020 10:26:28.000,154.481,-78.066,24401.920315
2 Jan 2020 10:26:58.000,153.286,-77.782,24571.130794
2 Jan 2020 10:27:28.000,152.155,-77.510,24745.268637
2 Jan 2020 10:27:58.000,151.081,-77.252,24924.051955
2 Jan 2020 10:28:28.000,150.057,-77.008,25107.198409
2 Jan 2020 10:28:58.000,149.079,-76.779,25294.426178
2 Jan 2020 10:29:28.000,148.140,-76.564,25485.454596
2 Jan 2020 10:29:58.000,147.237,-76.363,25680.004740
2 Jan 2020 10:30:28.000,146.367,-76.178,25877.799951
2 Jan 2020 10:30:58.000,145.525,-76.007,26078.566317
2 Jan 2020 10:31:01.850,145.419,-75.986,26104.532419
2 Jan 2020 11:45:08.761,283.325,-75.982,26102.119178
2 Jan 2020 11:45:38.000,281.548,-76.071,25992.893009
2 Jan 2020 11:46:08.000,279.680,-76.164,25886.018566
2 Jan 2020 11:46:38.000,277.765,-76.257,25784.569752
2 Jan 2020 11:47:08.000,275.805,-76.348,25688.703646
2 Jan 2020 11:47:38.000,273.798,-76.439,25598.569552
2 Jan 2020 11:48:08.000,271.746,-76.526,25514.308291
2 Jan 2020 11:48:38.000,269.650,-76.611,25436.052243
2 Jan 2020 11:49:08.000,267.511,-76.692,25363.923937
2 Jan 2020 11:49:38.000,265.331,-76.768,25298.036151
2 Jan 2020 11:50:08.000,263.112,-76.839,25238.491284
2 Jan 2020 11:50:38.000,260.857,-76.903,25185.380829
2 Jan 2020 11:51:08.000,258.568,-76.961,25138.785363
2 Jan 2020 11:51:38.000,256.250,-77.012,25098.773587
2 Jan 2020 11:52:08.000,253.906,-77.055,25065.402427
2 Jan 2020 11:52:38.000,251.541,-77.090,25038.716665
2 Jan 2020 11:53:08.000,249.158,-77.117,25018.748686
2 Jan 2020 11:53:38.000,246.762,-77.134,25005.518524
2 Jan 2020 11:54:08.000,244.360,-77.143,24999.033445
2 Jan 2020 11:54:38.000,241.954,-77.142,24999.288133
2 Jan 2020 11:55:08.000,239.551,-77.133,25006.264648
2 Jan 2020 11:55:38.000,237.155,-77.115,25019.932515
2 Jan 2020 11:56:08.000,234.771,-77.088,25040.248837
2 Jan 2020 11:56:38.000,232.404,-77.053,25067.158500
2 Jan 2020 11:57:08.000,230.057,-77.010,25100.594423
2 Jan 2020 11:57:38.000,227.736,-76.959,25140.477847
2 Jan 2020 11:58:08.000,225.442,-76.902,25186.718742
2 Jan 2020 11:58:38.000,223.181,-76.838,25239.215978
2 Jan 2020 11:59:08.000,220.953,-76.768,25297.858065
2 Jan 2020 11:59:38.000,218.762,-76.693,25362.523427
2 Jan 2020 12:00:08.000,216.610,-76.614,25433.080943
2 Jan 2020 12:00:38.000,214.497,-76.531,25509.390474
2 Jan 2020 12:01:08.000,212.426,-76.446,25591.303534
2 Jan 2020 12:01:38.000,210.397,-76.358,25678.663375
2 Jan 2020 12:02:08.000,208.409,-76.269,25771.306270
2 Jan 2020 12:02:38.000,206.464,-76.179,25869.061637
2 Jan 2020 12:03:08.000,204.560,-76.089,25971.752745
2 Jan 2020 12:03:38.000,202.698,-76.000,26079.197297
2 Jan 2020 12:03:44.236,202.316,-75.982,26102.112441
2 Jan 2020 13:21:23.403,311.340,-75.986,26105.145566
2 Jan 2020 13:21:53.000,309.355,-76.042,26035.851244
2 Jan 2020 13:22:23.000,307.313,-76.096,25970.974038
2 Jan 2020 13:22:53.000,305.244,-76.148,25911.615588
2 Jan 2020 13:23:23.000,303.149,-76.196,25857.889205
2 Jan 2020 13:23:53.000,301.029,-76.239,25809.899221
2 Jan 2020 13:24:23.000,298.888,-76.279,25767.740537
2 Jan 2020 13:24:53.000,296.727,-76.313,25731.498446
2 Jan 2020 13:25:23.000,294.549,-76.342,25701.247983
2 Jan 2020 13:25:53.000,292.356,-76.366,25677.053840
2 Jan 2020 13:26:23.000,290.153,-76.384,25658.970040
2 Jan 2020 13:26:53.000,287.941,-76.395,25647.039714
2 Jan 2020 13:27:23.000,285.726,-76.401,25641.294937
2 Jan 2020 13:27:53.000,283.508,-76.401,25641.756560
2 Jan 2020 13:28:23.000,281.294,-76.394,25648.434153
2 Jan 2020 13:28:53.000,279.084,-76.381,25661.325959
2 Jan 2020 13:29:23.000,276.884,-76.362,25680.418949
2 Jan 2020 13:29:53.000,274.695,-76.337,25705.688711
2 Jan 2020 13:30:23.000,272.522,-76.307,25737.099791
2 Jan 2020 13:30:53.000,270.367,-76.271,25774.605702
2 Jan 2020 13:31:23.000,268.233,-76.230,25818.149152
2 Jan 2020 13:31:53.000,266.123,-76.185,25867.662282
2 Jan 2020 13:32:23.000,264.038,-76.136,25923.067062
2 Jan 2020 13:32:53.000,261.981,-76.083,25984.275172
2 Jan 2020 13:33:23.000,259.953,-76.027,26051.188986
2 Jan 2020 13:33:45.451,258.456,-75.983,26104.935115
2 Jan 2020 14:50:05.736,20.786,-75.993,26111.600367
2 Jan 2020 14:50:35.000,19.575,-76.138,25937.513322
2 Jan 2020 14:51:05.000,18.294,-76.297,25762.294205
2 Jan 2020 14:51:35.000,16.967,-76.467,25590.619932
2 Jan 2020 14:52:05.000,15.590,-76.647,25422.749098
2 Jan 2020 14:52:35.000,14.160,-76.836,25258.940807
2 Jan 2020 14:53:05.000,12.671,-77.035,25099.454079
2 Jan 2020 14:53:35.000,11.118,-77.241,24944.547227
2 Jan 2020 14:54:05.000,9.497,-77.455,24794.476958
2 Jan 2020 14:54:35.000,7.800,-77.675,24649.498551
2 Jan 2020 14:55:05.000,6.023,-77.901,24509.863741
2 Jan 2020 14:55:35.000,4.159,-78.132,24375.820837
2 Jan 2020 14:56:05.000,2.201,-78.366,24247.613649
2 Jan 2020 14:56:35.000,0.142,-78.602,24125.480632
2 Jan 2020 14:57:05.000,357.976,-78.838,24009.653805
2 Jan 2020 14:57:35.000,355.697,-79.073,23900.358585
2 Jan 2020 14:58:05.000,353.297,-79.304,23797.811722
2 Jan 2020 14:58:35.000,350.772,-79.531,23702.221138
2 Jan 2020 14:59:05.000,348.117,-79.751,23613.784797
2 Jan 2020 14:59:35.000,345.328,-79.961,23532.689667
2 Jan 2020 15:00:05.000,342.403,-80.160,23459.111306
2 Jan 2020 15:00:35.000,339.343,-80.344,23393.212237
2 Jan 2020 15:01:05.000,336.152,-80.513,23335.141633
2 Jan 2020 15:01:35.000,332.837,-80.662,23285.034343
2 Jan 2020 15:02:05.000,329.406,-80.791,23243.010401
2 Jan 2020 15:02:35.000,325.875,-80.898,23209.174003
2 Jan 2020 15:03:05.000,322.260,-80.979,23183.613185
2 Jan 2020 15:03:35.000,318.583,-81.035,23166.399260
2 Jan 2020 15:04:05.000,314.867,-81.063,23157.586430
2 Jan 2020 15:04:35.000,311.137,-81.065,23157.211433
2 Jan 2020 15:05:05.000,307.419,-81.038,23165.293385
2 Jan 2020 15:05:35.000,303.740,-80.984,23181.833719
2 Jan 2020 15:06:05.000,300.122,-80.904,23206.815977
2 Jan 2020 15:06:35.000,296.589,-80.799,23240.206220
2 Jan 2020 15:07:05.000,293.158,-80.670,23281.953052
2 Jan 2020 15:07:35.000,289.844,-80.520,23331.988092
2 Jan 2020 15:08:05.000,286.658,-80.351,23390.225951
2 Jan 2020 15:08:35.000,283.609,-80.164,23456.565356
