STKdata/stk_70fov_4leo/Satellite-MEO_Satellite10201-To-Satellite-LEO_Satellite10000 AER.csv

"Time (UTCG)","Azimuth (deg)","Elevation (deg)","Range (km)"
1 Jan 2020 00:00:00.000,54.750,-77.307,24906.098237
1 Jan 2020 00:00:30.000,54.955,-77.596,24709.523903
1 Jan 2020 00:01:00.000,55.184,-77.903,24517.629817
1 Jan 2020 00:01:30.000,55.440,-78.228,24330.713062
1 Jan 2020 00:02:00.000,55.726,-78.572,24149.070561
1 Jan 2020 00:02:30.000,56.045,-78.933,23972.998261
1 Jan 2020 00:03:00.000,56.401,-79.312,23802.789976
1 Jan 2020 00:03:30.000,56.801,-79.709,23638.737526
1 Jan 2020 00:04:00.000,57.249,-80.122,23481.128080
1 Jan 2020 00:04:30.000,57.755,-80.551,23330.244190
1 Jan 2020 00:05:00.000,58.328,-80.997,23186.362404
1 Jan 2020 00:05:30.000,58.980,-81.457,23049.751845
1 Jan 2020 00:06:00.000,59.726,-81.932,22920.674019
1 Jan 2020 00:06:30.000,60.588,-82.420,22799.380064
1 Jan 2020 00:07:00.000,61.591,-82.920,22686.110534
1 Jan 2020 00:07:30.000,62.770,-83.431,22581.093721
1 Jan 2020 00:08:00.000,64.174,-83.952,22484.545126
1 Jan 2020 00:08:30.000,65.869,-84.479,22396.665164
1 Jan 2020 00:09:00.000,67.950,-85.011,22317.638726
1 Jan 2020 00:09:30.000,70.559,-85.545,22247.633750
1 Jan 2020 00:10:00.000,73.905,-86.075,22186.800691
1 Jan 2020 00:10:30.000,78.318,-86.594,22135.270758
1 Jan 2020 00:11:00.000,84.316,-87.093,22093.155605
1 Jan 2020 00:11:30.000,92.712,-87.551,22060.546380
1 Jan 2020 00:12:00.000,104.630,-87.938,22037.513362
1 Jan 2020 00:12:30.000,120.998,-88.202,22024.105067
1 Jan 2020 00:13:00.000,140.800,-88.283,22020.348195
1 Jan 2020 00:13:30.000,160.092,-88.156,22026.247384
1 Jan 2020 00:14:00.000,175.444,-87.859,22041.785127
1 Jan 2020 00:14:30.000,186.474,-87.453,22066.921928
1 Jan 2020 00:15:00.000,194.259,-86.984,22101.596570
1 Jan 2020 00:15:30.000,199.869,-86.480,22145.726616
1 Jan 2020 00:16:00.000,204.038,-85.958,22199.208632
1 Jan 2020 00:16:30.000,207.235,-85.428,22261.919359
1 Jan 2020 00:17:00.000,209.757,-84.896,22333.716221
1 Jan 2020 00:17:30.000,211.795,-84.365,22414.438464
1 Jan 2020 00:18:00.000,213.478,-83.841,22503.907584
1 Jan 2020 00:18:30.000,214.894,-83.324,22601.929270
1 Jan 2020 00:19:00.000,216.104,-82.816,22708.294005
1 Jan 2020 00:19:30.000,217.153,-82.320,22822.778590
1 Jan 2020 00:20:00.000,218.074,-81.836,22945.146617
1 Jan 2020 00:20:30.000,218.892,-81.366,23075.150837
1 Jan 2020 00:21:00.000,219.626,-80.911,23212.533677
1 Jan 2020 00:21:30.000,220.291,-80.470,23357.028660
1 Jan 2020 00:22:00.000,220.899,-80.045,23508.361898
1 Jan 2020 00:22:30.000,221.458,-79.637,23666.252198
1 Jan 2020 00:23:00.000,221.978,-79.246,23830.413808
1 Jan 2020 00:23:30.000,222.463,-78.872,24000.556461
1 Jan 2020 00:24:00.000,222.919,-78.516,24176.386675
1 Jan 2020 00:24:30.000,223.350,-78.177,24357.608739
1 Jan 2020 00:25:00.000,223.761,-77.857,24543.925938
1 Jan 2020 00:25:30.000,224.153,-77.554,24735.040187
1 Jan 2020 00:26:00.000,224.530,-77.270,24930.654643
1 Jan 2020 00:26:30.000,224.895,-77.004,25130.473223
1 Jan 2020 00:27:00.000,225.248,-76.756,25334.201563
1 Jan 2020 00:27:30.000,225.592,-76.526,25541.547608
1 Jan 2020 00:28:00.000,225.928,-76.313,25752.222152
1 Jan 2020 00:28:30.000,226.258,-76.119,25965.939309
1 Jan 2020 00:28:51.171,226.488,-75.992,26118.440295
1 Jan 2020 01:41:14.754,72.386,-75.997,26122.272868
1 Jan 2020 01:41:44.000,73.841,-76.124,25970.428995
1 Jan 2020 01:42:14.000,75.387,-76.259,25819.255912
1 Jan 2020 01:42:44.000,76.992,-76.400,25672.945535
1 Jan 2020 01:43:14.000,78.657,-76.545,25531.716727
1 Jan 2020 01:43:44.000,80.384,-76.695,25395.783903
1 Jan 2020 01:44:14.000,82.178,-76.847,25265.356335
1 Jan 2020 01:44:44.000,84.040,-77.001,25140.637217
1 Jan 2020 01:45:14.000,85.972,-77.156,25021.823891
1 Jan 2020 01:45:44.000,87.977,-77.311,24909.105679
1 Jan 2020 01:46:14.000,90.055,-77.464,24802.664127
1 Jan 2020 01:46:44.000,92.209,-77.615,24702.672025
1 Jan 2020 01:47:14.000,94.438,-77.762,24609.292525
1 Jan 2020 01:47:44.000,96.742,-77.903,24522.679115
1 Jan 2020 01:48:14.000,99.121,-78.039,24442.973901
1 Jan 2020 01:48:44.000,101.573,-78.166,24370.307655
1 Jan 2020 01:49:14.000,104.095,-78.285,24304.799021
1 Jan 2020 01:49:44.000,106.683,-78.394,24246.553817
1 Jan 2020 01:50:14.000,109.332,-78.491,24195.665013
1 Jan 2020 01:50:44.000,112.038,-78.576,24152.211491
1 Jan 2020 01:51:14.000,114.792,-78.647,24116.258158
1 Jan 2020 01:51:44.000,117.587,-78.704,24087.855421
1 Jan 2020 01:52:14.000,120.414,-78.747,24067.039153
1 Jan 2020 01:52:44.000,123.264,-78.774,24053.830114
1 Jan 2020 01:53:14.000,126.127,-78.785,24048.234103
1 Jan 2020 01:53:44.000,128.992,-78.781,24050.241831
1 Jan 2020 01:54:14.000,131.850,-78.761,24059.829028
1 Jan 2020 01:54:44.000,134.691,-78.726,24076.956442
1 Jan 2020 01:55:14.000,137.506,-78.676,24101.570131
1 Jan 2020 01:55:44.000,140.285,-78.612,24133.601702
1 Jan 2020 01:56:14.000,143.020,-78.535,24172.968709
1 Jan 2020 01:56:44.000,145.706,-78.445,24219.574872
1 Jan 2020 01:57:14.000,148.335,-78.343,24273.310818
1 Jan 2020 01:57:44.000,150.903,-78.231,24334.054450
1 Jan 2020 01:58:14.000,153.407,-78.110,24401.671566
1 Jan 2020 01:58:44.000,155.843,-77.982,24476.016591
1 Jan 2020 01:59:14.000,158.210,-77.846,24556.932823
1 Jan 2020 01:59:44.000,160.507,-77.705,24644.253744
1 Jan 2020 02:00:14.000,162.734,-77.561,24737.803335
1 Jan 2020 02:00:44.000,164.891,-77.413,24837.396916
1 Jan 2020 02:01:14.000,166.980,-77.263,24942.842026
1 Jan 2020 02:01:44.000,169.001,-77.113,25053.938618
1 Jan 2020 02:02:14.000,170.958,-76.963,25170.480630
1 Jan 2020 02:02:44.000,172.852,-76.814,25292.256180
1 Jan 2020 02:03:14.000,174.687,-76.668,25419.048432
1 Jan 2020 02:03:44.000,176.463,-76.525,25550.636298
1 Jan 2020 02:04:14.000,178.185,-76.385,25686.795128
1 Jan 2020 02:04:44.000,179.855,-76.251,25827.297591
1 Jan 2020 02:05:14.000,181.475,-76.122,25971.913457
1 Jan 2020 02:05:44.000,183.050,-75.998,26120.411467
1 Jan 2020 02:05:44.382,183.069,-75.997,26122.326087
1 Jan 2020 03:23:53.423,73.004,-75.996,26121.273960
1 Jan 2020 03:24:23.000,75.044,-76.033,26075.090699
1 Jan 2020 03:24:53.000,77.134,-76.067,26033.932725
1 Jan 2020 03:25:23.000,79.241,-76.097,25998.572795
1 Jan 2020 03:25:53.000,81.364,-76.123,25969.073347
1 Jan 2020 03:26:23.000,83.499,-76.143,25945.486592
1 Jan 2020 03:26:53.000,85.645,-76.159,25927.854275
1 Jan 2020 03:27:23.000,87.797,-76.169,25916.207610
1 Jan 2020 03:27:53.000,89.954,-76.174,25910.566984
1 Jan 2020 03:28:23.000,92.112,-76.174,25910.941989
1 Jan 2020 03:28:53.000,94.268,-76.168,25917.331354
1 Jan 2020 03:29:23.000,96.420,-76.158,25929.722970
1 Jan 2020 03:29:53.000,98.565,-76.142,25948.093863
1 Jan 2020 03:30:23.000,100.699,-76.121,25972.410388
1 Jan 2020 03:30:53.000,102.820,-76.095,26002.628309
1 Jan 2020 03:31:23.000,104.926,-76.065,26038.692992
1 Jan 2020 03:31:53.000,107.014,-76.030,26080.539623
1 Jan 2020 03:32:18.997,108.807,-75.997,26121.421743
1 Jan 2020 04:50:31.167,359.485,-75.989,26115.505325
1 Jan 2020 04:51:01.000,1.085,-76.108,25971.951466
1 Jan 2020 04:51:31.000,2.740,-76.233,25831.544560
1 Jan 2020 04:52:01.000,4.444,-76.362,25695.327095
1 Jan 2020 04:52:31.000,6.199,-76.496,25563.524064
1 Jan 2020 04:53:01.000,8.009,-76.633,25436.357824
1 Jan 2020 04:53:31.000,9.874,-76.772,25314.047458
1 Jan 2020 04:54:01.000,11.798,-76.913,25196.807965
1 Jan 2020 04:54:31.000,13.783,-77.055,25084.850198
1 Jan 2020 04:55:01.000,15.830,-77.197,24978.379214
1 Jan 2020 04:55:31.000,17.941,-77.337,24877.594208
1 Jan 2020 04:56:01.000,20.117,-77.475,24782.687621
1 Jan 2020 04:56:31.000,22.358,-77.609,24693.844414
1 Jan 2020 04:57:01.000,24.665,-77.739,24611.241228
1 Jan 2020 04:57:31.000,27.037,-77.863,24535.046144
1 Jan 2020 04:58:01.000,29.472,-77.980,24465.417241
1 Jan 2020 04:58:31.000,31.968,-78.089,24402.502413
1 Jan 2020 04:59:01.000,34.522,-78.189,24346.438586
1 Jan 2020 04:59:31.000,37.129,-78.278,24297.351036
1 Jan 2020 05:00:01.000,39.785,-78.356,24255.353035
1 Jan 2020 05:00:31.000,42.483,-78.422,24220.544954
1 Jan 2020 05:01:01.000,45.217,-78.475,24193.014028
1 Jan 2020 05:01:31.000,47.979,-78.514,24172.833865
1 Jan 2020 05:02:01.000,50.760,-78.539,24160.064092
1 Jan 2020 05:02:31.000,53.552,-78.550,24154.750031
1 Jan 2020 05:03:01.000,56.346,-78.546,24156.922496
1 Jan 2020 05:03:31.000,59.132,-78.527,24166.597642
1 Jan 2020 05:04:01.000,61.901,-78.494,24183.776883
1 Jan 2020 05:04:31.000,64.645,-78.446,24208.446978
1 Jan 2020 05:05:01.000,67.355,-78.385,24240.579803
1 Jan 2020 05:05:31.000,70.024,-78.312,24280.132935
1 Jan 2020 05:06:01.000,72.645,-78.226,24327.049608
1 Jan 2020 05:06:31.000,75.211,-78.129,24381.259068
1 Jan 2020 05:07:01.000,77.718,-78.021,24442.677082
1 Jan 2020 05:07:31.000,80.162,-77.905,24511.205810
1 Jan 2020 05:08:01.000,82.540,-77.781,24586.735089
1 Jan 2020 05:08:31.000,84.849,-77.650,24669.142446
1 Jan 2020 05:09:01.000,87.088,-77.514,24758.293796
1 Jan 2020 05:09:31.000,89.256,-77.374,24854.044243
1 Jan 2020 05:10:01.000,91.354,-77.230,24956.238005
1 Jan 2020 05:10:31.000,93.381,-77.085,25064.710149
1 Jan 2020 05:11:01.000,95.339,-76.939,25179.286587
1 Jan 2020 05:11:31.000,97.230,-76.793,25299.784943
1 Jan 2020 05:12:01.000,99.054,-76.648,25426.015267
1 Jan 2020 05:12:31.000,100.815,-76.506,25557.780988
1 Jan 2020 05:13:01.000,102.515,-76.367,25694.878641
1 Jan 2020 05:13:31.000,104.155,-76.232,25837.100016
1 Jan 2020 05:14:01.000,105.738,-76.102,25984.231872
1 Jan 2020 05:14:27.018,107.067,-75.993,26115.640821
1 Jan 2020 06:26:58.496,314.691,-75.984,26108.693204
1 Jan 2020 06:27:28.000,315.070,-76.162,25897.536102
1 Jan 2020 06:27:58.000,315.463,-76.360,25685.637778
1 Jan 2020 06:28:28.000,315.866,-76.576,25476.852065
1 Jan 2020 06:28:58.000,316.281,-76.810,25271.464776
1 Jan 2020 06:29:28.000,316.709,-77.061,25069.764892
1 Jan 2020 06:29:58.000,317.153,-77.330,24872.044071
1 Jan 2020 06:30:28.000,317.615,-77.617,24678.596097
1 Jan 2020 06:30:58.000,318.099,-77.922,24489.716272
1 Jan 2020 06:31:28.000,318.607,-78.245,24305.700424
1 Jan 2020 06:31:58.000,319.144,-78.585,24126.845459
1 Jan 2020 06:32:28.000,319.715,-78.942,23953.446607
1 Jan 2020 06:32:58.000,320.325,-79.317,23785.797858
1 Jan 2020 06:33:28.000,320.981,-79.709,23624.190710
1 Jan 2020 06:33:58.000,321.690,-80.116,23468.912933
1 Jan 2020 06:34:28.000,322.464,-80.540,23320.248473
1 Jan 2020 06:34:58.000,323.313,-80.978,23178.474906
1 Jan 2020 06:35:28.000,324.254,-81.431,23043.863256
1 Jan 2020 06:35:58.000,325.305,-81.897,22916.676571
1 Jan 2020 06:36:28.000,326.491,-82.375,22797.168480
1 Jan 2020 06:36:58.000,327.843,-82.864,22685.582845
1 Jan 2020 06:37:28.000,329.404,-83.362,22582.151174
1 Jan 2020 06:37:58.000,331.228,-83.867,22487.092296
1 Jan 2020 06:38:28.000,333.391,-84.377,22400.610777
1 Jan 2020 06:38:58.000,335.998,-84.888,22322.896311
1 Jan 2020 06:39:28.000,339.198,-85.396,22254.121713
1 Jan 2020 06:39:58.000,343.200,-85.895,22194.442463
1 Jan 2020 06:40:28.000,348.308,-86.376,22143.995484
1 Jan 2020 06:40:58.000,354.945,-86.827,22102.898603
1 Jan 2020 06:41:28.000,3.655,-87.227,22071.249239
1 Jan 2020 06:41:58.000,14.976,-87.546,22049.124126
1 Jan 2020 06:42:28.000,28.994,-87.749,22036.578689
1 Jan 2020 06:42:58.000,44.673,-87.799,22033.646716
1 Jan 2020 06:43:28.000,59.919,-87.687,22040.340025
1 Jan 2020 06:43:58.000,72.939,-87.434,22056.648471
1 Jan 2020 06:44:28.000,83.191,-87.079,22082.540065
1 Jan 2020 06:44:58.000,91.012,-86.656,22117.960952
1 Jan 2020 06:45:28.000,96.974,-86.191,22162.836124
1 Jan 2020 06:45:58.000,101.578,-85.701,22217.069731
1 Jan 2020 06:46:28.000,105.200,-85.196,22280.545910
1 Jan 2020 06:46:58.000,108.102,-84.685,22353.129027
1 Jan 2020 06:47:28.000,110.469,-84.172,22434.665324
1 Jan 2020 06:47:58.000,112.430,-83.662,22524.983399
1 Jan 2020 06:48:28.000,114.077,-83.158,22623.895570
1 Jan 2020 06:48:58.000,115.477,-82.661,22731.198264
1 Jan 2020 06:49:28.000,116.680,-82.174,22846.674267
1 Jan 2020 06:49:58.000,117.722,-81.699,22970.093231
1 Jan 2020 06:50:28.000,118.633,-81.236,23101.213295
1 Jan 2020 06:50:58.000,119.435,-80.787,23239.781453
1 Jan 2020 06:51:28.000,120.145,-80.352,23385.536065
1 Jan 2020 06:51:58.000,120.777,-79.933,23538.207226
1 Jan 2020 06:52:28.000,121.342,-79.530,23697.518157
1 Jan 2020 06:52:58.000,121.848,-79.144,23863.186630
1 Jan 2020 06:53:28.000,122.305,-78.774,24034.924940
1 Jan 2020 06:53:58.000,122.716,-78.422,24212.442632
1 Jan 2020 06:54:28.000,123.089,-78.087,24395.446373
1 Jan 2020 06:54:58.000,123.426,-77.771,24583.641164
1 Jan 2020 06:55:28.000,123.732,-77.472,24776.731199
1 Jan 2020 06:55:58.000,124.010,-77.191,24974.420664
1 Jan 2020 06:56:28.000,124.262,-76.929,25176.414828
1 Jan 2020 06:56:58.000,124.491,-76.685,25382.419318
1 Jan 2020 06:57:28.000,124.698,-76.458,25592.142804
1 Jan 2020 06:57:58.000,124.885,-76.250,25805.296170
1 Jan 2020 06:58:28.000,125.054,-76.059,26021.593343
1 Jan 2020 06:58:39.918,125.116,-75.989,26108.327476
1 Jan 2020 08:10:09.618,292.445,-75.982,26103.307725
1 Jan 2020 08:10:39.000,291.366,-76.135,25920.421199
1 Jan 2020 08:11:09.000,290.213,-76.303,25737.661636
1 Jan 2020 08:11:39.000,289.004,-76.481,25559.171460
1 Jan 2020 08:12:09.000,287.735,-76.669,25385.207474
1 Jan 2020 08:12:39.000,286.401,-76.868,25216.025175
1 Jan 2020 08:13:09.000,284.998,-77.075,25051.878071
1 Jan 2020 08:13:39.000,283.520,-77.291,24893.016702
1 Jan 2020 08:14:09.000,281.961,-77.513,24739.688958
1 Jan 2020 08:14:39.000,280.317,-77.743,24592.137658
1 Jan 2020 08:15:09.000,278.580,-77.977,24450.600812
1 Jan 2020 08:15:39.000,276.744,-78.215,24315.310494
1 Jan 2020 08:16:09.000,274.803,-78.456,24186.491738
1 Jan 2020 08:16:39.000,272.750,-78.697,24064.362531
1 Jan 2020 08:17:09.000,270.578,-78.938,23949.131552
1 Jan 2020 08:17:39.000,268.282,-79.176,23840.998168
1 Jan 2020 08:18:09.000,265.855,-79.410,23740.151294
1 Jan 2020 08:18:39.000,263.293,-79.636,23646.768313
1 Jan 2020 08:19:09.000,260.592,-79.854,23561.014967
1 Jan 2020 08:19:39.000,257.750,-80.061,23483.043344
1 Jan 2020 08:20:09.000,254.768,-80.254,23412.991874
1 Jan 2020 08:20:39.000,251.648,-80.432,23350.984270
1 Jan 2020 08:21:09.000,248.396,-80.591,23297.129307
1 Jan 2020 08:21:39.000,245.022,-80.729,23251.519486
1 Jan 2020 08:22:09.000,241.538,-80.845,23214.230990
1 Jan 2020 08:22:39.000,237.962,-80.937,23185.323047
1 Jan 2020 08:23:09.000,234.314,-81.003,23164.837838
1 Jan 2020 08:23:39.000,230.616,-81.042,23152.799811
1 Jan 2020 08:24:09.000,226.894,-81.054,23149.215828
1 Jan 2020 08:24:39.000,223.174,-81.038,23154.075019
1 Jan 2020 08:25:09.000,219.480,-80.995,23167.348877
1 Jan 2020 08:25:39.000,215.839,-80.926,23188.991337
1 Jan 2020 08:26:09.000,212.271,-80.831,23218.939098
1 Jan 2020 08:26:39.000,208.796,-80.712,23257.112014
1 Jan 2020 08:27:09.000,205.429,-80.572,23303.413361
1 Jan 2020 08:27:39.000,202.182,-80.413,23357.730632
1 Jan 2020 08:28:09.000,199.063,-80.236,23419.936001
1 Jan 2020 08:28:39.000,196.078,-80.043,23489.887150
1 Jan 2020 08:29:09.000,193.228,-79.839,23567.427646
1 Jan 2020 08:29:39.000,190.512,-79.623,23652.388298
1 Jan 2020 08:30:09.000,187.927,-79.400,23744.587657
1 Jan 2020 08:30:39.000,185.471,-79.171,23843.832989
1 Jan 2020 08:31:09.000,183.137,-78.937,23949.921357
1 Jan 2020 08:31:39.000,180.919,-78.702,24062.639872
1 Jan 2020 08:32:09.000,178.812,-78.466,24181.767621
1 Jan 2020 08:32:39.000,176.808,-78.231,24307.075945
1 Jan 2020 08:33:09.000,174.900,-77.999,24438.329516
1 Jan 2020 08:33:39.000,173.083,-77.771,24575.287237
1 Jan 2020 08:34:09.000,171.349,-77.548,24717.703354
1 Jan 2020 08:34:39.000,169.693,-77.331,24865.327382
1 Jan 2020 08:35:09.000,168.109,-77.121,25017.906284
1 Jan 2020 08:35:39.000,166.590,-76.920,25175.184352
1 Jan 2020 08:36:09.000,165.133,-76.726,25336.904157
1 Jan 2020 08:36:39.000,163.731,-76.542,25502.807249
1 Jan 2020 08:37:09.000,162.381,-76.368,25672.634806
1 Jan 2020 08:37:39.000,161.078,-76.203,25846.128236
1 Jan 2020 08:38:09.000,159.818,-76.049,26023.030005
1 Jan 2020 08:38:22.427,159.267,-75.984,26103.240072
1 Jan 2020 09:54:42.213,281.542,-75.982,26102.508801
1 Jan 2020 09:55:12.000,279.551,-76.040,26032.003816
1 Jan 2020 09:55:42.000,277.515,-76.095,25966.602344
1 Jan 2020 09:56:12.000,275.451,-76.146,25906.931924
1 Jan 2020 09:56:42.000,273.360,-76.194,25853.087691
1 Jan 2020 09:57:12.000,271.243,-76.238,25805.155072
1 Jan 2020 09:57:42.000,269.104,-76.277,25763.209365
1 Jan 2020 09:58:12.000,266.944,-76.312,25727.315739
1 Jan 2020 09:58:42.000,264.768,-76.340,25697.528493
1 Jan 2020 09:59:12.000,262.576,-76.363,25673.891155
1 Jan 2020 09:59:42.000,260.374,-76.381,25656.436211
1 Jan 2020 10:00:12.000,258.164,-76.392,25645.184944
1 Jan 2020 10:00:42.000,255.949,-76.397,25640.147442
1 Jan 2020 10:01:12.000,253.732,-76.396,25641.322389
1 Jan 2020 10:01:42.000,251.518,-76.388,25648.697185
1 Jan 2020 10:02:12.000,249.310,-76.375,25662.247970
1 Jan 2020 10:02:42.000,247.110,-76.355,25681.939742
1 Jan 2020 10:03:12.000,244.922,-76.330,25707.726423
1 Jan 2020 10:03:42.000,242.749,-76.299,25739.551162
1 Jan 2020 10:04:12.000,240.594,-76.263,25777.346500
1 Jan 2020 10:04:42.000,238.459,-76.223,25821.034666
1 Jan 2020 10:05:12.000,236.347,-76.178,25870.527889
1 Jan 2020 10:05:42.000,234.259,-76.129,25925.728828
1 Jan 2020 10:06:12.000,232.198,-76.077,25986.530635
1 Jan 2020 10:06:42.000,230.165,-76.021,26052.817833
1 Jan 2020 10:07:02.989,228.761,-75.981,26102.388857
1 Jan 2020 11:24:42.602,337.781,-75.988,26107.164383
1 Jan 2020 11:25:12.000,335.964,-76.076,26000.736904
1 Jan 2020 11:25:42.000,334.070,-76.166,25896.793971
1 Jan 2020 11:26:12.000,332.134,-76.256,25797.744961
1 Jan 2020 11:26:42.000,330.155,-76.345,25703.768244
1 Jan 2020 11:27:12.000,328.135,-76.433,25615.036175
1 Jan 2020 11:27:42.000,326.072,-76.520,25531.714499
1 Jan 2020 11:28:12.000,323.968,-76.603,25453.961664
1 Jan 2020 11:28:42.000,321.824,-76.683,25381.928659
1 Jan 2020 11:29:12.000,319.641,-76.759,25315.757798
1 Jan 2020 11:29:42.000,317.421,-76.830,25255.582607
1 Jan 2020 11:30:12.000,315.165,-76.896,25201.527180
1 Jan 2020 11:30:42.000,312.878,-76.955,25153.705623
1 Jan 2020 11:31:12.000,310.561,-77.007,25112.221781
1 Jan 2020 11:31:42.000,308.218,-77.052,25077.168482
1 Jan 2020 11:32:12.000,305.854,-77.089,25048.627355
1 Jan 2020 11:32:42.000,303.472,-77.118,25026.668416
1 Jan 2020 11:33:12.000,301.076,-77.139,25011.349759
1 Jan 2020 11:33:42.000,298.673,-77.150,25002.717307
1 Jan 2020 11:34:12.000,296.265,-77.152,25000.804578
1 Jan 2020 11:34:42.000,293.860,-77.146,25005.632564
1 Jan 2020 11:35:12.000,291.460,-77.130,25017.209635
1 Jan 2020 11:35:42.000,289.072,-77.106,25035.531552
1 Jan 2020 11:36:12.000,286.700,-77.073,25060.581292
1 Jan 2020 11:36:42.000,284.349,-77.031,25092.329425
1 Jan 2020 11:37:12.000,282.023,-76.982,25130.734068
1 Jan 2020 11:37:42.000,279.725,-76.926,25175.741129
1 Jan 2020 11:38:12.000,277.460,-76.862,25227.284656
1 Jan 2020 11:38:42.000,275.231,-76.793,25285.286733
1 Jan 2020 11:39:12.000,273.040,-76.718,25349.658427
1 Jan 2020 11:39:42.000,270.890,-76.638,25420.299785
1 Jan 2020 11:40:12.000,268.782,-76.554,25497.100362
1 Jan 2020 11:40:42.000,266.719,-76.466,25579.939829
1 Jan 2020 11:41:12.000,264.701,-76.376,25668.687904
1 Jan 2020 11:41:42.000,262.728,-76.285,25763.205701
1 Jan 2020 11:42:12.000,260.802,-76.192,25863.345729
1 Jan 2020 11:42:42.000,258.922,-76.099,25968.952581
1 Jan 2020 11:43:12.000,257.088,-76.006,26079.863501
1 Jan 2020 11:43:19.108,256.660,-75.985,26106.902495
1 Jan 2020 12:57:26.816,34.617,-75.994,26113.872437
1 Jan 2020 12:57:56.000,33.803,-76.158,25918.128389
1 Jan 2020 12:58:26.000,32.937,-76.342,25719.805989
1 Jan 2020 12:58:56.000,32.041,-76.540,25524.687293
1 Jan 2020 12:59:26.000,31.109,-76.753,25333.048849
1 Jan 2020 12:59:56.000,30.137,-76.981,25145.169556
1 Jan 2020 13:00:26.000,29.122,-77.223,24961.330141
1 Jan 2020 13:00:56.000,28.056,-77.479,24781.812589
1 Jan 2020 13:01:26.000,26.935,-77.748,24606.899247
1 Jan 2020 13:01:56.000,25.752,-78.031,24436.873170
1 Jan 2020 13:02:26.000,24.498,-78.326,24272.015816
1 Jan 2020 13:02:56.000,23.167,-78.634,24112.607290
1 Jan 2020 13:03:26.000,21.746,-78.952,23958.925219
1 Jan 2020 13:03:56.000,20.226,-79.281,23811.243843
1 Jan 2020 13:04:26.000,18.594,-79.618,23669.832817
1 Jan 2020 13:04:56.000,16.834,-79.963,23534.957167
1 Jan 2020 13:05:26.000,14.932,-80.314,23406.874783
1 Jan 2020 13:05:56.000,12.867,-80.670,23285.836328
1 Jan 2020 13:06:26.000,10.620,-81.027,23172.083888
1 Jan 2020 13:06:56.000,8.166,-81.384,23065.849680
1 Jan 2020 13:07:26.000,5.481,-81.737,22967.355646
1 Jan 2020 13:07:56.000,2.536,-82.084,22876.811244
1 Jan 2020 13:08:26.000,359.304,-82.421,22794.413091
1 Jan 2020 13:08:56.000,355.755,-82.742,22720.343612
1 Jan 2020 13:09:26.000,351.865,-83.045,22654.770438
1 Jan 2020 13:09:56.000,347.614,-83.322,22597.844787
1 Jan 2020 13:10:26.000,342.994,-83.569,22549.701020
1 Jan 2020 13:10:56.000,338.015,-83.780,22510.455667
1 Jan 2020 13:11:26.000,332.705,-83.949,22480.206917
1 Jan 2020 13:11:56.000,327.122,-84.070,22459.033671
1 Jan 2020 13:12:26.000,321.346,-84.141,22446.995288
1 Jan 2020 13:12:56.000,315.479,-84.158,22444.131160
1 Jan 2020 13:13:26.000,309.635,-84.120,22450.460411
1 Jan 2020 13:13:56.000,303.923,-84.030,22465.981843
1 Jan 2020 13:14:26.000,298.440,-83.889,22490.673933
1 Jan 2020 13:14:56.000,293.259,-83.702,22524.495071
1 Jan 2020 13:15:26.000,288.427,-83.476,22567.383513
1 Jan 2020 13:15:56.000,283.967,-83.214,22619.258265
1 Jan 2020 13:16:26.000,279.880,-82.924,22680.019308
1 Jan 2020 13:16:56.000,276.154,-82.611,22749.548460
1 Jan 2020 13:17:26.000,272.768,-82.280,22827.709542
1 Jan 2020 13:17:56.000,269.695,-81.935,22914.350042
1 Jan 2020 13:18:26.000,266.907,-81.581,23009.301486
1 Jan 2020 13:18:56.000,264.375,-81.222,23112.380729
1 Jan 2020 13:19:26.000,262.073,-80.860,23223.390236
1 Jan 2020 13:19:56.000,259.976,-80.498,23342.120246
1 Jan 2020 13:20:26.000,258.060,-80.140,23468.349147
1 Jan 2020 13:20:56.000,256.307,-79.786,23601.844751
1 Jan 2020 13:21:26.000,254.698,-79.439,23742.365682
1 Jan 2020 13:21:56.000,253.218,-79.100,23889.661384
1 Jan 2020 13:22:26.000,251.852,-78.771,24043.474814
1 Jan 2020 13:22:56.000,250.590,-78.452,24203.542439
1 Jan 2020 13:23:26.000,249.420,-78.145,24369.595510
1 Jan 2020 13:23:56.000,248.332,-77.851,24541.361046
1 Jan 2020 13:24:26.000,247.319,-77.570,24718.563087
1 Jan 2020 13:24:56.000,246.374,-77.303,24900.922292
1 Jan 2020 13:25:26.000,245.491,-77.050,25088.158688
1 Jan 2020 13:25:56.000,244.662,-76.811,25279.991168
1 Jan 2020 13:26:26.000,243.885,-76.588,25476.138533
1 Jan 2020 13:26:56.000,243.154,-76.380,25676.320151
1 Jan 2020 13:27:26.000,242.465,-76.188,25880.256562
1 Jan 2020 13:27:56.000,241.815,-76.010,26087.670034
1 Jan 2020 13:27:59.796,241.735,-75.989,26114.148485
1 Jan 2020 14:39:13.957,61.814,-75.997,26120.078797
1 Jan 2020 14:39:43.000,62.445,-76.166,25918.999040
1 Jan 2020 14:40:13.000,63.134,-76.356,25714.679054
1 Jan 2020 14:40:43.000,63.865,-76.561,25514.077698
1 Jan 2020 14:41:13.000,64.642,-76.782,25317.474207
1 Jan 2020 14:41:43.000,65.470,-77.017,25125.149047
1 Jan 2020 14:42:13.000,66.352,-77.267,24937.383306
1 Jan 2020 14:42:43.000,67.295,-77.532,24754.458046
1 Jan 2020 14:43:13.000,68.306,-77.810,24576.653269
1 Jan 2020 14:43:43.000,69.390,-78.101,24404.248429
1 Jan 2020 14:44:13.000,70.556,-78.406,24237.519680
1 Jan 2020 14:44:43.000,71.813,-78.722,24076.740292
1 Jan 2020 14:45:13.000,73.172,-79.048,23922.179405
1 Jan 2020 14:45:43.000,74.644,-79.385,23774.100802
1 Jan 2020 14:46:13.000,76.243,-79.729,23632.762905
1 Jan 2020 14:46:43.000,77.984,-80.081,23498.416202
1 Jan 2020 14:47:13.000,79.885,-80.437,23371.303195
1 Jan 2020 14:47:43.000,81.965,-80.797,23251.657049
1 Jan 2020 14:48:13.000,84.245,-81.157,23139.700260
1 Jan 2020 14:48:43.000,86.751,-81.515,23035.644465
1 Jan 2020 14:49:13.000,89.508,-81.868,22939.687961
1 Jan 2020 14:49:43.000,92.545,-82.211,22852.015578
1 Jan 2020 14:50:13.000,95.888,-82.542,22772.797271
1 Jan 2020 14:50:43.000,99.564,-82.856,22702.187729
1 Jan 2020 14:51:13.000,103.595,-83.147,22640.324555
1 Jan 2020 14:51:43.000,107.993,-83.410,22587.328050
1 Jan 2020 14:52:13.000,112.757,-83.639,22543.300209
1 Jan 2020 14:52:43.000,117.868,-83.829,22508.324450
1 Jan 2020 14:53:13.000,123.282,-83.975,22482.464487
1 Jan 2020 14:53:43.000,128.930,-84.071,22465.764317
1 Jan 2020 14:54:13.000,134.720,-84.115,22458.247790
1 Jan 2020 14:54:43.000,140.546,-84.105,22459.918551
1 Jan 2020 14:55:13.000,146.297,-84.042,22470.759822
1 Jan 2020 14:55:43.000,151.872,-83.927,22490.734638
1 Jan 2020 14:56:13.000,157.187,-83.766,22519.786088
1 Jan 2020 14:56:43.000,162.183,-83.562,22557.837506
1 Jan 2020 14:57:13.000,166.829,-83.321,22604.793177
1 Jan 2020 14:57:43.000,171.112,-83.049,22660.538804
1 Jan 2020 14:58:13.000,175.038,-82.752,22724.942346
1 Jan 2020 14:58:43.000,178.624,-82.434,22797.854407
1 Jan 2020 14:59:13.000,181.893,-82.101,22879.109712
1 Jan 2020 14:59:43.000,184.874,-81.757,22968.527683
1 Jan 2020 15:00:13.000,187.593,-81.407,23065.913693
1 Jan 2020 15:00:43.000,190.079,-81.052,23171.059537
1 Jan 2020 15:01:13.000,192.356,-80.696,23283.745389
1 Jan 2020 15:01:43.000,194.448,-80.342,23403.740349
1 Jan 2020 15:02:13.000,196.376,-79.992,23530.803703
1 Jan 2020 15:02:43.000,198.159,-79.647,23664.686266
1 Jan 2020 15:03:13.000,199.813,-79.310,23805.130576
1 Jan 2020 15:03:43.000,201.353,-78.982,23951.873321
1 Jan 2020 15:04:13.000,202.792,-78.663,24104.645500
1 Jan 2020 15:04:43.000,204.141,-78.355,24263.173649
1 Jan 2020 15:05:13.000,205.410,-78.059,24427.180808
1 Jan 2020 15:05:43.000,206.608,-77.776,24596.387716
1 Jan 2020 15:06:13.000,207.742,-77.505,24770.512572
1 Jan 2020 15:06:43.000,208.820,-77.248,24949.273483
1 Jan 2020 15:07:13.000,209.847,-77.005,25132.388133
1 Jan 2020 15:07:43.000,210.829,-76.776,25319.574747
1 Jan 2020 15:08:13.000,211.771,-76.562,25510.552731
1 Jan 2020 15:08:43.000,212.677,-76.363,25705.043253
1 Jan 2020 15:09:13.000,213.550,-76.178,25902.769772
1 Jan 2020 15:09:43.000,214.395,-76.007,26103.458508
1 Jan 2020 15:09:45.493,214.465,-75.994,26120.258077
1 Jan 2020 16:23:55.038,76.670,-75.997,26122.603433
1 Jan 2020 16:24:25.000,78.494,-76.089,26010.995872
1 Jan 2020 16:24:55.000,80.366,-76.182,25904.514839
1 Jan 2020 16:25:25.000,82.285,-76.274,25803.467498
1 Jan 2020 16:25:55.000,84.249,-76.366,25708.010569
1 Jan 2020 16:26:25.000,86.260,-76.455,25618.292953
1 Jan 2020 16:26:55.000,88.315,-76.543,25534.455033
1 Jan 2020 16:27:25.000,90.415,-76.627,25456.628715
1 Jan 2020 16:27:55.000,92.557,-76.707,25384.936009
1 Jan 2020 16:28:25.000,94.740,-76.783,25319.489143
1 Jan 2020 16:28:55.000,96.962,-76.853,25260.389927
1 Jan 2020 16:29:25.000,99.220,-76.918,25207.729235
1 Jan 2020 16:29:55.000,101.511,-76.975,25161.586988
1 Jan 2020 16:30:25.000,103.832,-77.025,25122.031205
1 Jan 2020 16:30:55.000,106.177,-77.068,25089.118101
1 Jan 2020 16:31:25.000,108.545,-77.102,25062.891726
1 Jan 2020 16:31:55.000,110.929,-77.128,25043.383710
1 Jan 2020 16:32:25.000,113.325,-77.145,25030.613312
1 Jan 2020 16:32:55.000,115.729,-77.153,25024.587010
1 Jan 2020 16:33:25.000,118.135,-77.152,25025.298691
1 Jan 2020 16:33:55.000,120.538,-77.142,25032.729610
1 Jan 2020 16:34:25.000,122.933,-77.123,25046.848481
1 Jan 2020 16:34:55.000,125.317,-77.096,25067.611599
1 Jan 2020 16:35:25.000,127.683,-77.060,25094.963045
1 Jan 2020 16:35:55.000,130.028,-77.017,25128.834938
1 Jan 2020 16:36:25.000,132.349,-76.966,25169.147735
1 Jan 2020 16:36:55.000,134.640,-76.908,25215.810632
1 Jan 2020 16:37:25.000,136.900,-76.844,25268.721741
1 Jan 2020 16:37:55.000,139.126,-76.774,25327.768838
1 Jan 2020 16:38:25.000,141.315,-76.699,25392.829634
1 Jan 2020 16:38:55.000,143.465,-76.620,25463.772317
1 Jan 2020 16:39:25.000,145.575,-76.537,25540.456090
1 Jan 2020 16:39:55.000,147.644,-76.451,25622.731834
1 Jan 2020 16:40:25.000,149.672,-76.364,25710.442200
1 Jan 2020 16:40:55.000,151.657,-76.274,25803.422891
1 Jan 2020 16:41:25.000,153.600,-76.185,25901.502792
1 Jan 2020 16:41:55.000,155.502,-76.095,26004.504668
1 Jan 2020 16:42:25.000,157.362,-76.006,26112.245758
1 Jan 2020 16:42:27.831,157.536,-75.998,26122.650050
1 Jan 2020 18:00:08.340,48.480,-75.994,26119.536455
1 Jan 2020 18:00:38.000,50.469,-76.050,26049.841491
1 Jan 2020 18:01:08.000,52.510,-76.105,25984.710537
1 Jan 2020 18:01:38.000,54.579,-76.157,25925.094471
1 Jan 2020 18:02:08.000,56.674,-76.205,25871.107197
1 Jan 2020 18:02:38.000,58.793,-76.250,25822.853661
1 Jan 2020 18:03:08.000,60.935,-76.289,25780.429394
1 Jan 2020 18:03:38.000,63.097,-76.324,25743.920340
1 Jan 2020 18:04:08.000,65.275,-76.354,25713.402196
1 Jan 2020 18:04:38.000,67.469,-76.378,25688.940320
1 Jan 2020 18:05:08.000,69.673,-76.396,25670.589412
1 Jan 2020 18:05:38.000,71.886,-76.409,25658.393279
1 Jan 2020 18:06:08.000,74.103,-76.415,25652.384673
1 Jan 2020 18:06:38.000,76.322,-76.415,25652.585112
1 Jan 2020 18:07:08.000,78.539,-76.408,25659.004827
1 Jan 2020 18:07:38.000,80.750,-76.396,25671.642708
1 Jan 2020 18:08:08.000,82.953,-76.377,25690.486355
1 Jan 2020 18:08:38.000,85.144,-76.353,25715.511968
1 Jan 2020 18:09:08.000,87.320,-76.323,25746.684680
1 Jan 2020 18:09:38.000,89.477,-76.287,25783.958565
1 Jan 2020 18:10:08.000,91.614,-76.247,25827.276862
1 Jan 2020 18:10:38.000,93.728,-76.202,25876.572213
1 Jan 2020 18:11:08.000,95.815,-76.153,25931.767053
1 Jan 2020 18:11:38.000,97.876,-76.101,25992.773492
1 Jan 2020 18:12:08.000,99.906,-76.045,26059.494298
1 Jan 2020 18:12:33.156,101.586,-75.996,26119.768061
1 Jan 2020 19:28:52.346,339.158,-75.987,26113.069320
1 Jan 2020 19:29:22.000,340.382,-76.134,25936.610409
1 Jan 2020 19:29:52.000,341.662,-76.294,25761.363370
1 Jan 2020 19:30:22.000,342.986,-76.464,25589.659388
1 Jan 2020 19:30:52.000,344.361,-76.644,25421.756822
1 Jan 2020 19:31:22.000,345.789,-76.834,25257.914551
1 Jan 2020 19:31:52.000,347.275,-77.032,25098.391396
1 Jan 2020 19:32:22.000,348.825,-77.239,24943.445489
1 Jan 2020 19:32:52.000,350.444,-77.453,24793.333381
1 Jan 2020 19:33:22.000,352.138,-77.674,24648.310223
1 Jan 2020 19:33:52.000,353.913,-77.900,24508.627647
1 Jan 2020 19:34:22.000,355.775,-78.131,24374.533882
1 Jan 2020 19:34:52.000,357.731,-78.366,24246.272696
1 Jan 2020 19:35:22.000,359.787,-78.602,24124.082526
1 Jan 2020 19:35:52.000,1.950,-78.839,24008.195406
1 Jan 2020 19:36:22.000,4.227,-79.074,23898.836801
1 Jan 2020 19:36:52.000,6.624,-79.306,23796.223539
1 Jan 2020 19:37:22.000,9.147,-79.534,23700.563653
1 Jan 2020 19:37:52.000,11.801,-79.754,23612.055250
1 Jan 2020 19:38:22.000,14.589,-79.965,23530.885474
1 Jan 2020 19:38:52.000,17.512,-80.164,23457.230085
1 Jan 2020 19:39:22.000,20.571,-80.349,23391.251842
1 Jan 2020 19:39:52.000,23.762,-80.518,23333.100179
1 Jan 2020 19:40:22.000,27.078,-80.669,23282.910236
1 Jan 2020 19:40:52.000,30.509,-80.799,23240.802358
1 Jan 2020 19:41:22.000,34.042,-80.905,23206.881075
1 Jan 2020 19:41:52.000,37.659,-80.988,23181.234779
1 Jan 2020 19:42:22.000,41.339,-81.044,23163.935151
1 Jan 2020 19:42:52.000,45.059,-81.073,23155.036776
1 Jan 2020 19:43:22.000,48.793,-81.075,23154.576787
1 Jan 2020 19:43:52.000,52.515,-81.049,23162.574700
1 Jan 2020 19:44:22.000,56.199,-80.996,23179.032350
1 Jan 2020 19:44:52.000,59.822,-80.916,23203.933683
1 Jan 2020 19:45:22.000,63.360,-80.811,23237.245159
1 Jan 2020 19:45:52.000,66.796,-80.683,23278.915776
1 Jan 2020 19:46:22.000,70.115,-80.533,23328.877534
1 Jan 2020 19:46:52.000,73.305,-80.363,23387.045414
1 Jan 2020 19:47:22.000,76.360,-80.177,23453.318493
1 Jan 2020 19:47:52.000,79.273,-79.976,23527.580128
1 Jan 2020 19:48:22.000,82.045,-79.762,23609.698851
1 Jan 2020 19:48:52.000,84.676,-79.539,23699.528489
1 Jan 2020 19:49:22.000,87.170,-79.308,23796.909829
1 Jan 2020 19:49:52.000,89.529,-79.071,23901.670859
1 Jan 2020 19:50:22.000,91.761,-78.830,24013.627771
1 Jan 2020 19:50:52.000,93.871,-78.588,24132.586083
1 Jan 2020 19:51:22.000,95.865,-78.347,24258.340610
1 Jan 2020 19:51:52.000,97.750,-78.107,24390.677766
1 Jan 2020 19:52:22.000,99.533,-77.870,24529.375563
1 Jan 2020 19:52:52.000,101.221,-77.637,24674.204747
1 Jan 2020 19:53:22.000,102.819,-77.411,24824.929687
1 Jan 2020 19:53:52.000,104.334,-77.191,24981.309546
1 Jan 2020 19:54:22.000,105.771,-76.979,25143.097937
1 Jan 2020 19:54:52.000,107.136,-76.776,25310.045504
1 Jan 2020 19:55:22.000,108.434,-76.583,25481.899531
1 Jan 2020 19:55:52.000,109.670,-76.399,25658.404968
1 Jan 2020 19:56:22.000,110.848,-76.226,25839.305131
1 Jan 2020 19:56:52.000,111.972,-76.064,26024.342356
1 Jan 2020 19:57:06.152,112.484,-75.992,26112.992350
1 Jan 2020 21:08:35.825,305.072,-75.983,26106.400116
1 Jan 2020 21:09:05.000,304.912,-76.162,25894.936791
1 Jan 2020 21:09:35.000,304.730,-76.362,25680.476767
1 Jan 2020 21:10:05.000,304.528,-76.581,25469.324156
1 Jan 2020 21:10:35.000,304.306,-76.817,25261.766537
1 Jan 2020 21:11:05.000,304.061,-77.072,25058.094264
1 Jan 2020 21:11:35.000,303.790,-77.345,24858.599952
1 Jan 2020 21:12:05.000,303.493,-77.636,24663.577892
1 Jan 2020 21:12:35.000,303.165,-77.945,24473.323105
1 Jan 2020 21:13:05.000,302.804,-78.272,24288.131866
1 Jan 2020 21:13:35.000,302.405,-78.616,24108.299077
1 Jan 2020 21:14:05.000,301.963,-78.978,23934.118674
1 Jan 2020 21:14:35.000,301.473,-79.357,23765.882413
1 Jan 2020 21:15:05.000,300.929,-79.753,23603.878661
1 Jan 2020 21:15:35.000,300.320,-80.165,23448.392391
1 Jan 2020 21:16:05.000,299.638,-80.593,23299.702562
1 Jan 2020 21:16:35.000,298.870,-81.036,23158.082033
1 Jan 2020 21:17:05.000,298.000,-81.493,23023.796139
1 Jan 2020 21:17:35.000,297.007,-81.962,22897.101250
1 Jan 2020 21:18:05.000,295.866,-82.444,22778.244520
1 Jan 2020 21:18:35.000,294.544,-82.936,22667.461176
1 Jan 2020 21:19:05.000,292.997,-83.437,22564.974281
1 Jan 2020 21:19:35.000,291.166,-83.944,22470.993104
1 Jan 2020 21:20:05.000,288.970,-84.455,22385.712585
1 Jan 2020 21:20:35.000,286.297,-84.966,22309.311182
1 Jan 2020 21:21:05.000,282.991,-85.473,22241.950467
1 Jan 2020 21:21:35.000,278.827,-85.970,22183.773835
1 Jan 2020 21:22:05.000,273.485,-86.446,22134.906020
1 Jan 2020 21:22:35.000,266.525,-86.887,22095.451590
1 Jan 2020 21:23:05.000,257.400,-87.273,22065.494713
1 Jan 2020 21:23:35.000,245.636,-87.572,22045.098428
1 Jan 2020 21:24:05.000,231.323,-87.747,22034.304375
1 Jan 2020 21:24:35.000,215.716,-87.767,22033.132217
1 Jan 2020 21:25:05.000,200.914,-87.628,22041.579709
1 Jan 2020 21:25:35.000,188.468,-87.357,22059.622687
1 Jan 2020 21:26:05.000,178.712,-86.990,22087.215098
1 Jan 2020 21:26:35.000,171.250,-86.560,22124.289485
1 Jan 2020 21:27:05.000,165.526,-86.092,22170.757349
1 Jan 2020 21:27:35.000,161.070,-85.601,22226.509866
1 Jan 2020 21:28:05.000,157.534,-85.097,22291.418199
1 Jan 2020 21:28:35.000,154.673,-84.588,22365.334926
1 Jan 2020 21:29:05.000,152.316,-84.078,22448.094599
1 Jan 2020 21:29:35.000,150.341,-83.571,22539.515031
1 Jan 2020 21:30:05.000,148.661,-83.071,22639.397744
1 Jan 2020 21:30:35.000,147.213,-82.578,22747.530078
1 Jan 2020 21:31:05.000,145.948,-82.096,22863.685770
1 Jan 2020 21:31:35.000,144.833,-81.625,22987.626535
1 Jan 2020 21:32:05.000,143.838,-81.167,23119.102518
1 Jan 2020 21:32:35.000,142.943,-80.723,23257.854693
1 Jan 2020 21:33:05.000,142.131,-80.293,23403.615329
1 Jan 2020 21:33:35.000,141.388,-79.879,23556.109376
1 Jan 2020 21:34:05.000,140.704,-79.481,23715.055905
1 Jan 2020 21:34:35.000,140.070,-79.099,23880.168159
1 Jan 2020 21:35:05.000,139.477,-78.735,24051.156220
1 Jan 2020 21:35:35.000,138.921,-78.387,24227.726974
1 Jan 2020 21:36:05.000,138.396,-78.057,24409.585336
1 Jan 2020 21:36:35.000,137.898,-77.745,24596.435143
1 Jan 2020 21:37:05.000,137.423,-77.451,24787.979985
1 Jan 2020 21:37:35.000,136.968,-77.174,24983.924314
1 Jan 2020 21:38:05.000,136.529,-76.915,25183.972798
1 Jan 2020 21:38:35.000,136.106,-76.674,25387.832964
1 Jan 2020 21:39:05.000,135.694,-76.451,25595.214448
1 Jan 2020 21:39:35.000,135.294,-76.246,25805.829837
1 Jan 2020 21:40:05.000,134.902,-76.058,26019.395125
1 Jan 2020 21:40:17.074,134.747,-75.987,26106.113515
1 Jan 2020 22:52:48.729,287.023,-75.982,26102.365794
1 Jan 2020 22:53:18.000,285.524,-76.104,25955.068572
1 Jan 2020 22:53:48.000,283.933,-76.234,25808.765246
1 Jan 2020 22:54:18.000,282.285,-76.370,25667.397952
1 Jan 2020 22:54:48.000,280.578,-76.509,25531.178900
1 Jan 2020 22:55:18.000,278.809,-76.651,25400.315431
1 Jan 2020 22:55:48.000,276.976,-76.795,25275.009337
1 Jan 2020 22:56:18.000,275.077,-76.941,25155.455938
1 Jan 2020 22:56:48.000,273.111,-77.087,25041.844302
1 Jan 2020 22:57:18.000,271.076,-77.231,24934.355140
1 Jan 2020 22:57:48.000,268.970,-77.374,24833.161040
1 Jan 2020 22:58:18.000,266.794,-77.514,24738.425533
1 Jan 2020 22:58:48.000,264.548,-77.649,24650.302244
1 Jan 2020 22:59:18.000,262.232,-77.778,24568.934875
1 Jan 2020 22:59:48.000,259.849,-77.901,24494.455576
1 Jan 2020 23:00:18.000,257.399,-78.015,24426.985004
1 Jan 2020 23:00:48.000,254.887,-78.121,24366.631586
1 Jan 2020 23:01:18.000,252.317,-78.216,24313.490879
1 Jan 2020 23:01:48.000,249.694,-78.300,24267.645563
1 Jan 2020 23:02:18.000,247.024,-78.372,24229.164312
1 Jan 2020 23:02:48.000,244.314,-78.431,24198.101925
1 Jan 2020 23:03:18.000,241.571,-78.477,24174.498868
1 Jan 2020 23:03:48.000,238.804,-78.508,24158.381267
1 Jan 2020 23:04:18.000,236.021,-78.525,24149.760431
1 Jan 2020 23:04:48.000,233.232,-78.527,24148.633018
1 Jan 2020 23:05:18.000,230.446,-78.515,24154.980972
1 Jan 2020 23:05:48.000,227.672,-78.488,24168.771652
1 Jan 2020 23:06:18.000,224.918,-78.447,24189.957910
1 Jan 2020 23:06:48.000,222.193,-78.393,24218.478389
1 Jan 2020 23:07:18.000,219.504,-78.325,24254.257810
1 Jan 2020 23:07:48.000,216.859,-78.246,24297.207393
1 Jan 2020 23:08:18.000,214.262,-78.156,24347.225078
1 Jan 2020 23:08:48.000,211.719,-78.055,24404.196323
1 Jan 2020 23:09:18.000,209.235,-77.946,24467.994449
1 Jan 2020 23:09:48.000,206.811,-77.828,24538.481278
1 Jan 2020 23:10:18.000,204.450,-77.704,24615.507864
1 Jan 2020 23:10:48.000,202.154,-77.574,24698.914729
1 Jan 2020 23:11:18.000,199.923,-77.440,24788.533173
1 Jan 2020 23:11:48.000,197.757,-77.302,24884.185568
1 Jan 2020 23:12:18.000,195.655,-77.162,24985.686184
1 Jan 2020 23:12:48.000,193.618,-77.021,25092.841902
1 Jan 2020 23:13:18.000,191.642,-76.880,25205.453121
1 Jan 2020 23:13:48.000,189.726,-76.739,25323.313791
1 Jan 2020 23:14:18.000,187.868,-76.601,25446.213136
1 Jan 2020 23:14:48.000,186.066,-76.465,25573.935682
1 Jan 2020 23:15:18.000,184.318,-76.332,25706.262104
1 Jan 2020 23:15:48.000,182.620,-76.204,25842.969880
1 Jan 2020 23:16:18.000,180.971,-76.080,25983.833921
1 Jan 2020 23:16:42.621,179.651,-75.983,26102.385976
2 Jan 2020 00:34:54.361,288.882,-75.984,26103.601473
2 Jan 2020 00:35:24.000,286.837,-76.021,26057.486117
2 Jan 2020 00:35:54.000,284.748,-76.054,26016.490684
2 Jan 2020 00:36:24.000,282.641,-76.084,25981.284657
2 Jan 2020 00:36:54.000,280.520,-76.109,25951.931421
2 Jan 2020 00:37:24.000,278.385,-76.129,25928.484161
2 Jan 2020 00:37:54.000,276.241,-76.145,25910.985632
2 Jan 2020 00:38:24.000,274.090,-76.155,25899.468073
2 Jan 2020 00:38:54.000,271.934,-76.159,25893.952924
2 Jan 2020 00:39:24.000,269.778,-76.159,25894.450849
2 Jan 2020 00:39:54.000,267.623,-76.153,25900.961663
2 Jan 2020 00:40:24.000,265.473,-76.142,25913.474357
2 Jan 2020 00:40:54.000,263.330,-76.126,25931.967056
2 Jan 2020 00:41:24.000,261.198,-76.105,25956.407229
2 Jan 2020 00:41:54.000,259.079,-76.079,25986.751749
2 Jan 2020 00:42:24.000,256.976,-76.048,26022.947089
2 Jan 2020 00:42:54.000,254.890,-76.013,26064.929533
2 Jan 2020 00:43:18.507,253.202,-75.982,26103.469397
2 Jan 2020 02:01:26.545,3.288,-75.991,26109.492881
2 Jan 2020 02:01:56.000,1.747,-76.112,25963.238101
2 Jan 2020 02:02:26.000,0.131,-76.241,25818.109842
2 Jan 2020 02:02:56.000,358.466,-76.376,25677.080787
2 Jan 2020 02:03:26.000,356.749,-76.516,25540.381168
2 Jan 2020 02:03:56.000,354.977,-76.659,25408.239006
2 Jan 2020 02:04:26.000,353.148,-76.806,25280.879470
2 Jan 2020 02:04:56.000,351.258,-76.955,25158.524061
2 Jan 2020 02:05:26.000,349.306,-77.105,25041.390566
2 Jan 2020 02:05:56.000,347.289,-77.256,24929.691373
2 Jan 2020 02:06:26.000,345.205,-77.407,24823.633404
2 Jan 2020 02:06:56.000,343.053,-77.556,24723.417209
2 Jan 2020 02:07:26.000,340.830,-77.702,24629.236219
2 Jan 2020 02:07:56.000,338.537,-77.844,24541.275870
2 Jan 2020 02:08:26.000,336.173,-77.980,24459.713368
2 Jan 2020 02:08:56.000,333.740,-78.110,24384.716165
2 Jan 2020 02:09:26.000,331.238,-78.232,24316.441775
2 Jan 2020 02:09:56.000,328.672,-78.345,24255.036936
2 Jan 2020 02:10:26.000,326.043,-78.448,24200.636880
2 Jan 2020 02:10:56.000,323.358,-78.540,24153.364968
2 Jan 2020 02:11:26.000,320.621,-78.619,24113.331686
2 Jan 2020 02:11:56.000,317.841,-78.684,24080.634398
2 Jan 2020 02:12:26.000,315.024,-78.736,24055.356793
2 Jan 2020 02:12:56.000,312.179,-78.772,24037.568467
2 Jan 2020 02:13:26.000,309.316,-78.793,24027.324583
2 Jan 2020 02:13:56.000,306.445,-78.799,24024.665561
2 Jan 2020 02:14:26.000,303.576,-78.788,24029.616910
2 Jan 2020 02:14:56.000,300.720,-78.762,24042.189140
2 Jan 2020 02:15:26.000,297.885,-78.721,24062.377541
2 Jan 2020 02:15:56.000,295.082,-78.664,24090.162463
2 Jan 2020 02:16:26.000,292.320,-78.593,24125.509276
2 Jan 2020 02:16:56.000,289.606,-78.509,24168.368600
2 Jan 2020 02:17:26.000,286.948,-78.412,24218.676692
2 Jan 2020 02:17:56.000,284.351,-78.304,24276.355299
2 Jan 2020 02:18:26.000,281.821,-78.185,24341.312774
2 Jan 2020 02:18:56.000,279.360,-78.057,24413.444077
2 Jan 2020 02:19:26.000,276.973,-77.922,24492.631415
2 Jan 2020 02:19:56.000,274.661,-77.780,24578.744988
2 Jan 2020 02:20:26.000,272.425,-77.632,24671.642909
2 Jan 2020 02:20:56.000,270.264,-77.481,24771.172882
2 Jan 2020 02:21:26.000,268.179,-77.327,24877.172213
2 Jan 2020 02:21:56.000,266.169,-77.171,24989.468678
2 Jan 2020 02:22:26.000,264.231,-77.015,25107.881447
2 Jan 2020 02:22:56.000,262.364,-76.860,25232.221006
2 Jan 2020 02:23:26.000,260.565,-76.707,25362.291088
2 Jan 2020 02:23:56.000,258.833,-76.557,25497.888612
2 Jan 2020 02:24:26.000,257.164,-76.410,25638.804599
2 Jan 2020 02:24:56.000,255.557,-76.268,25784.824883
2 Jan 2020 02:25:26.000,254.007,-76.131,25935.731045
2 Jan 2020 02:25:56.000,252.513,-76.001,26091.300108
2 Jan 2020 02:25:59.431,252.345,-75.986,26109.377991
2 Jan 2020 03:38:21.772,46.609,-75.995,26116.322454
2 Jan 2020 03:38:51.000,46.298,-76.172,25906.034283
2 Jan 2020 03:39:21.000,45.972,-76.372,25692.993576
2 Jan 2020 03:39:51.000,45.641,-76.589,25483.073929
2 Jan 2020 03:40:21.000,45.301,-76.824,25276.562392
2 Jan 2020 03:40:51.000,44.953,-77.077,25073.749208
2 Jan 2020 03:41:21.000,44.593,-77.348,24874.927317
2 Jan 2020 03:41:51.000,44.220,-77.637,24680.391809
2 Jan 2020 03:42:21.000,43.832,-77.945,24490.439308
2 Jan 2020 03:42:51.000,43.426,-78.271,24305.366972
2 Jan 2020 03:43:21.000,42.999,-78.614,24125.473060
2 Jan 2020 03:43:51.000,42.546,-78.976,23951.054144
2 Jan 2020 03:44:21.000,42.065,-79.355,23782.405563
2 Jan 2020 03:44:51.000,41.548,-79.751,23619.820152
2 Jan 2020 03:45:21.000,40.991,-80.164,23463.587001
2 Jan 2020 03:45:51.000,40.385,-80.594,23313.991368
2 Jan 2020 03:46:21.000,39.720,-81.039,23171.312092
2 Jan 2020 03:46:51.000,38.984,-81.499,23035.821434
2 Jan 2020 03:47:21.000,38.162,-81.974,22907.783622
2 Jan 2020 03:47:51.000,37.233,-82.462,22787.453410
2 Jan 2020 03:48:21.000,36.172,-82.962,22675.075728
2 Jan 2020 03:48:51.000,34.944,-83.474,22570.883061
2 Jan 2020 03:49:21.000,33.500,-83.994,22475.095131
2 Jan 2020 03:49:51.000,31.773,-84.522,22387.917302
2 Jan 2020 03:50:21.000,29.669,-85.055,22309.539964
2 Jan 2020 03:50:51.000,27.045,-85.590,22240.136508
2 Jan 2020 03:51:21.000,23.688,-86.122,22179.862865
2 Jan 2020 03:51:51.000,19.260,-86.643,22128.856281
2 Jan 2020 03:52:21.000,13.221,-87.144,22087.234775
2 Jan 2020 03:52:51.000,4.717,-87.606,22055.095811
2 Jan 2020 03:53:21.000,352.531,-87.995,22032.516025
2 Jan 2020 03:53:51.000,335.641,-88.258,22019.550597
2 Jan 2020 03:54:21.000,315.187,-88.332,22016.232929
2 Jan 2020 03:54:51.000,295.514,-88.192,22022.574302
2 Jan 2020 03:55:21.000,280.157,-87.882,22038.563897
2 Jan 2020 03:55:51.000,269.297,-87.465,22064.168909
2 Jan 2020 03:56:21.000,261.713,-86.987,22099.334543
2 Jan 2020 03:56:51.000,256.288,-86.477,22143.984724
2 Jan 2020 03:57:21.000,252.281,-85.951,22198.022422
2 Jan 2020 03:57:51.000,249.228,-85.417,22261.330490
2 Jan 2020 03:58:21.000,246.836,-84.881,22333.771923
2 Jan 2020 03:58:51.000,244.919,-84.348,22415.191506
2 Jan 2020 03:59:21.000,243.352,-83.821,22505.416315
2 Jan 2020 03:59:51.000,242.050,-83.301,22604.257093
2 Jan 2020 04:00:21.000,240.954,-82.792,22711.508650
2 Jan 2020 04:00:51.000,240.020,-82.294,22826.952127
2 Jan 2020 04:01:21.000,239.215,-81.809,22950.355516
2 Jan 2020 04:01:51.000,238.517,-81.337,23081.475289
2 Jan 2020 04:02:21.000,237.907,-80.879,23220.056788
2 Jan 2020 04:02:51.000,237.371,-80.438,23365.836737
2 Jan 2020 04:03:21.000,236.897,-80.012,23518.543624
2 Jan 2020 04:03:51.000,236.477,-79.602,23677.899103
2 Jan 2020 04:04:21.000,236.102,-79.210,23843.619428
2 Jan 2020 04:04:51.000,235.768,-78.836,24015.415430
2 Jan 2020 04:05:21.000,235.470,-78.479,24192.995248
2 Jan 2020 04:05:51.000,235.203,-78.140,24376.064216
2 Jan 2020 04:06:21.000,234.964,-77.819,24564.326067
2 Jan 2020 04:06:51.000,234.750,-77.516,24757.483803
2 Jan 2020 04:07:21.000,234.559,-77.232,24955.240501
2 Jan 2020 04:07:51.000,234.389,-76.966,25157.300391
2 Jan 2020 04:08:21.000,234.237,-76.718,25363.368151
2 Jan 2020 04:08:51.000,234.104,-76.489,25573.151577
2 Jan 2020 04:09:21.000,233.986,-76.278,25786.360763
2 Jan 2020 04:09:51.000,233.884,-76.084,26002.708923
2 Jan 2020 04:10:06.640,233.837,-75.991,26116.646537
2 Jan 2020 05:21:42.807,68.253,-75.997,26121.586541
2 Jan 2020 05:22:12.000,69.381,-76.146,25943.384675
2 Jan 2020 05:22:42.000,70.593,-76.310,25764.299030
2 Jan 2020 05:23:12.000,71.861,-76.484,25589.564286
2 Jan 2020 05:23:42.000,73.191,-76.667,25419.433446
2 Jan 2020 05:24:12.000,74.586,-76.859,25254.157795
2 Jan 2020 05:24:42.000,76.051,-77.060,25093.986218
2 Jan 2020 05:25:12.000,77.591,-77.267,24939.164212
2 Jan 2020 05:25:42.000,79.212,-77.481,24789.934193
2 Jan 2020 05:26:12.000,80.918,-77.701,24646.533085
2 Jan 2020 05:26:42.000,82.716,-77.924,24509.192583
2 Jan 2020 05:27:12.000,84.611,-78.151,24378.138030
2 Jan 2020 05:27:42.000,86.608,-78.379,24253.587336
2 Jan 2020 05:28:12.000,88.714,-78.606,24135.750962
2 Jan 2020 05:28:42.000,90.934,-78.832,24024.829713
2 Jan 2020 05:29:12.000,93.273,-79.055,23921.014739
2 Jan 2020 05:29:42.000,95.734,-79.271,23824.486435
2 Jan 2020 05:30:12.000,98.321,-79.481,23735.413396
2 Jan 2020 05:30:42.000,101.037,-79.680,23653.952327
2 Jan 2020 05:31:12.000,103.879,-79.868,23580.246111
2 Jan 2020 05:31:42.000,106.848,-80.042,23514.423832
2 Jan 2020 05:32:12.000,109.937,-80.200,23456.599771
2 Jan 2020 05:32:42.000,113.140,-80.340,23406.873220
2 Jan 2020 05:33:12.000,116.447,-80.459,23365.327239
2 Jan 2020 05:33:42.000,119.843,-80.557,23332.028645
2 Jan 2020 05:34:12.000,123.312,-80.632,23307.027439
2 Jan 2020 05:34:42.000,126.836,-80.683,23290.356752
2 Jan 2020 05:35:12.000,130.393,-80.708,23282.032253
2 Jan 2020 05:35:42.000,133.962,-80.708,23282.052320
2 Jan 2020 05:36:12.000,137.520,-80.682,23290.397959
2 Jan 2020 05:36:42.000,141.046,-80.632,23307.032927
2 Jan 2020 05:37:12.000,144.518,-80.557,23331.903881
2 Jan 2020 05:37:42.000,147.918,-80.460,23364.940720
2 Jan 2020 05:38:12.000,151.231,-80.341,23406.057017
2 Jan 2020 05:38:42.000,154.444,-80.203,23455.150299
2 Jan 2020 05:39:12.000,157.548,-80.048,23512.102882
2 Jan 2020 05:39:42.000,160.535,-79.876,23576.782340
2 Jan 2020 05:40:12.000,163.401,-79.692,23649.042338
2 Jan 2020 05:40:42.000,166.146,-79.496,23728.723018
2 Jan 2020 05:41:12.000,168.769,-79.291,23815.652351
2 Jan 2020 05:41:42.000,171.272,-79.078,23909.646628
2 Jan 2020 05:42:12.000,173.660,-78.861,24010.511424
2 Jan 2020 05:42:42.000,175.936,-78.640,24118.042656
2 Jan 2020 05:43:12.000,178.105,-78.418,24232.026825
2 Jan 2020 05:43:42.000,180.174,-78.196,24352.242907
2 Jan 2020 05:44:12.000,182.147,-77.975,24478.462609
2 Jan 2020 05:44:42.000,184.031,-77.757,24610.451420
2 Jan 2020 05:45:12.000,185.831,-77.543,24747.969477
2 Jan 2020 05:45:42.000,187.553,-77.334,24890.772639
2 Jan 2020 05:46:12.000,189.202,-77.131,25038.612410
2 Jan 2020 05:46:42.000,190.785,-76.934,25191.238045
2 Jan 2020 05:47:12.000,192.305,-76.746,25348.396419
2 Jan 2020 05:47:42.000,193.767,-76.566,25509.832952
2 Jan 2020 05:48:12.000,195.177,-76.395,25675.292269
2 Jan 2020 05:48:42.000,196.537,-76.233,25844.518820
2 Jan 2020 05:49:12.000,197.853,-76.081,26017.257460
2 Jan 2020 05:49:29.849,198.616,-75.995,26121.592561
2 Jan 2020 07:06:09.647,78.321,-75.997,26122.187554
2 Jan 2020 07:06:39.000,80.298,-76.050,26057.284593
2 Jan 2020 07:07:09.000,82.347,-76.101,25996.545825
2 Jan 2020 07:07:39.000,84.423,-76.148,25941.559141
2 Jan 2020 07:08:09.000,86.523,-76.192,25892.412909
2 Jan 2020 07:08:39.000,88.647,-76.231,25849.185639
2 Jan 2020 07:09:09.000,90.791,-76.266,25811.945605
2 Jan 2020 07:09:39.000,92.952,-76.295,25780.750827
2 Jan 2020 07:10:09.000,95.128,-76.319,25755.648423
2 Jan 2020 07:10:39.000,97.316,-76.337,25736.674696
2 Jan 2020 07:11:09.000,99.512,-76.350,25723.854899
2 Jan 2020 07:11:39.000,101.714,-76.356,25717.203120
2 Jan 2020 07:12:09.000,103.918,-76.357,25716.722286
2 Jan 2020 07:12:39.000,106.121,-76.351,25722.404030
2 Jan 2020 07:13:09.000,108.319,-76.340,25734.228811
2 Jan 2020 07:13:39.000,110.510,-76.323,25752.165976
2 Jan 2020 07:14:09.000,112.689,-76.300,25776.173908
2 Jan 2020 07:14:39.000,114.855,-76.271,25806.200099
2 Jan 2020 07:15:09.000,117.005,-76.238,25842.181508
2 Jan 2020 07:15:39.000,119.135,-76.200,25884.044730
2 Jan 2020 07:16:09.000,121.244,-76.158,25931.706315
2 Jan 2020 07:16:39.000,123.330,-76.111,25985.073096
2 Jan 2020 07:17:09.000,125.390,-76.062,26044.042647
2 Jan 2020 07:17:39.000,127.422,-76.009,26108.503326
2 Jan 2020 07:17:45.100,127.832,-75.998,26122.271894
2 Jan 2020 08:35:31.347,18.990,-75.991,26117.352782
2 Jan 2020 08:36:01.000,20.795,-76.083,26005.166100
2 Jan 2020 08:36:31.000,22.663,-76.178,25896.251084
2 Jan 2020 08:37:01.000,24.574,-76.273,25792.135968
2 Jan 2020 08:37:31.000,26.529,-76.369,25693.006299
2 Jan 2020 08:38:01.000,28.528,-76.463,25599.042069
2 Jan 2020 08:38:31.000,30.571,-76.556,25510.417105
2 Jan 2020 08:39:01.000,32.659,-76.647,25427.298357
2 Jan 2020 08:39:31.000,34.790,-76.735,25349.845746
2 Jan 2020 08:40:01.000,36.963,-76.819,25278.210875
2 Jan 2020 08:40:31.000,39.177,-76.899,25212.536917
2 Jan 2020 08:41:01.000,41.430,-76.973,25152.957932
2 Jan 2020 08:41:31.000,43.720,-77.041,25099.598265
2 Jan 2020 08:42:01.000,46.043,-77.103,25052.572261
2 Jan 2020 08:42:31.000,48.397,-77.157,25011.983423
2 Jan 2020 08:43:01.000,50.778,-77.203,24977.924208
2 Jan 2020 08:43:31.000,53.181,-77.241,24950.475567
2 Jan 2020 08:44:01.000,55.602,-77.270,24929.706566
2 Jan 2020 08:44:31.000,58.036,-77.289,24915.674125
2 Jan 2020 08:45:01.000,60.478,-77.300,24908.422679
2 Jan 2020 08:45:31.000,62.922,-77.300,24907.984039
2 Jan 2020 08:46:01.000,65.365,-77.291,24914.377234
2 Jan 2020 08:46:31.000,67.799,-77.273,24927.608471
2 Jan 2020 08:47:01.000,70.220,-77.245,24947.670928
2 Jan 2020 08:47:31.000,72.622,-77.209,24974.545053
2 Jan 2020 08:48:01.000,75.002,-77.163,25008.198497
2 Jan 2020 08:48:31.000,77.354,-77.109,25048.586306
2 Jan 2020 08:49:01.000,79.675,-77.048,25095.651241
2 Jan 2020 08:49:31.000,81.960,-76.980,25149.323642
2 Jan 2020 08:50:01.000,84.207,-76.905,25209.522329
2 Jan 2020 08:50:31.000,86.413,-76.824,25276.154592
2 Jan 2020 08:51:01.000,88.575,-76.739,25349.116693
2 Jan 2020 08:51:31.000,90.692,-76.649,25428.294455
2 Jan 2020 08:52:01.000,92.762,-76.556,25513.563189
2 Jan 2020 08:52:31.000,94.784,-76.461,25604.789035
2 Jan 2020 08:53:01.000,96.758,-76.363,25701.828952
2 Jan 2020 08:53:31.000,98.683,-76.265,25804.531421
2 Jan 2020 08:54:01.000,100.560,-76.167,25912.737009
2 Jan 2020 08:54:31.000,102.389,-76.069,26026.279160
2 Jan 2020 08:54:54.195,103.770,-75.995,26117.615422
2 Jan 2020 10:08:46.557,323.853,-75.985,26110.582665
2 Jan 2020 10:09:16.000,324.619,-76.153,25910.904004
2 Jan 2020 10:09:46.000,325.426,-76.339,25710.323157
2 Jan 2020 10:10:16.000,326.261,-76.541,25512.918912
2 Jan 2020 10:10:46.000,327.129,-76.757,25318.969067
2 Jan 2020 10:11:16.000,328.033,-76.989,25128.753943
2 Jan 2020 10:11:46.000,328.979,-77.235,24942.555869
2 Jan 2020 10:12:16.000,329.972,-77.496,24760.658616
2 Jan 2020 10:12:46.000,331.016,-77.772,24583.346512
2 Jan 2020 10:13:16.000,332.119,-78.061,24410.904799
2 Jan 2020 10:13:46.000,333.289,-78.364,24243.617319
2 Jan 2020 10:14:16.000,334.533,-78.680,24081.766770
2 Jan 2020 10:14:46.000,335.862,-79.008,23925.633580
2 Jan 2020 10:15:16.000,337.286,-79.347,23775.494998
2 Jan 2020 10:15:46.000,338.819,-79.696,23631.623884
2 Jan 2020 10:16:16.000,340.475,-80.054,23494.288690
2 Jan 2020 10:16:46.000,342.272,-80.419,23363.750898
2 Jan 2020 10:17:16.000,344.229,-80.790,23240.264954
2 Jan 2020 10:17:46.000,346.369,-81.164,23124.076888
2 Jan 2020 10:18:16.000,348.718,-81.540,23015.423005
2 Jan 2020 10:18:46.000,351.304,-81.914,22914.529486
2 Jan 2020 10:19:16.000,354.161,-82.283,22821.610111
2 Jan 2020 10:19:46.000,357.322,-82.644,22736.865914
2 Jan 2020 10:20:16.000,0.827,-82.991,22660.483782
2 Jan 2020 10:20:46.000,4.709,-83.321,22592.635856
2 Jan 2020 10:21:16.000,9.003,-83.626,22533.477838
2 Jan 2020 10:21:46.000,13.728,-83.902,22483.148545
2 Jan 2020 10:22:16.000,18.891,-84.141,22441.768890
2 Jan 2020 10:22:46.000,24.469,-84.336,22409.441354
2 Jan 2020 10:23:16.000,30.409,-84.482,22386.248983
2 Jan 2020 10:23:46.000,36.617,-84.572,22372.255116
2 Jan 2020 10:24:16.000,42.971,-84.603,22367.502927
2 Jan 2020 10:24:46.000,49.327,-84.574,22372.015102
2 Jan 2020 10:25:16.000,55.540,-84.486,22385.793745
2 Jan 2020 10:25:46.000,61.486,-84.341,22408.820359
2 Jan 2020 10:26:16.000,67.070,-84.147,22441.056061
2 Jan 2020 10:26:46.000,72.234,-83.908,22482.441534
2 Jan 2020 10:27:16.000,76.956,-83.631,22532.897869
2 Jan 2020 10:27:46.000,81.239,-83.324,22592.326808
2 Jan 2020 10:28:16.000,85.102,-82.993,22660.611584
2 Jan 2020 10:28:46.000,88.579,-82.643,22737.617098
2 Jan 2020 10:29:16.000,91.704,-82.279,22823.191577
2 Jan 2020 10:29:46.000,94.515,-81.907,22917.166955
2 Jan 2020 10:30:16.000,97.047,-81.529,23019.360174
2 Jan 2020 10:30:46.000,99.332,-81.149,23129.573474
2 Jan 2020 10:31:16.000,101.401,-80.770,23247.596580
2 Jan 2020 10:31:46.000,103.278,-80.395,23373.207082
2 Jan 2020 10:32:16.000,104.987,-80.025,23506.171742
2 Jan 2020 10:32:46.000,106.548,-79.663,23646.247895
2 Jan 2020 10:33:16.000,107.977,-79.309,23793.183473
2 Jan 2020 10:33:46.000,109.289,-78.966,23946.719735
2 Jan 2020 10:34:16.000,110.498,-78.634,24106.591270
2 Jan 2020 10:34:46.000,111.614,-78.314,24272.527303
2 Jan 2020 10:35:16.000,112.648,-78.007,24444.252696
2 Jan 2020 10:35:46.000,113.608,-77.715,24621.489227
2 Jan 2020 10:36:16.000,114.500,-77.436,24803.955191
2 Jan 2020 10:36:46.000,115.333,-77.173,24991.368190
2 Jan 2020 10:37:16.000,116.110,-76.924,25183.444636
2 Jan 2020 10:37:46.000,116.838,-76.691,25379.900812
2 Jan 2020 10:38:16.000,117.521,-76.474,25580.453544
2 Jan 2020 10:38:46.000,118.163,-76.273,25784.820822
2 Jan 2020 10:39:16.000,118.766,-76.087,25992.722366
2 Jan 2020 10:39:32.763,119.088,-75.990,26110.330106
2 Jan 2020 11:50:45.904,297.374,-75.982,26104.444769
2 Jan 2020 11:51:15.000,296.683,-76.150,25905.092721
2 Jan 2020 11:51:45.000,295.931,-76.337,25702.999963
2 Jan 2020 11:52:15.000,295.134,-76.540,25504.688915
2 Jan 2020 11:52:45.000,294.289,-76.757,25310.436313
2 Jan 2020 11:53:15.000,293.390,-76.988,25120.519848
2 Jan 2020 11:53:45.000,292.434,-77.234,24935.217551
2 Jan 2020 11:54:15.000,291.414,-77.493,24754.807133
2 Jan 2020 11:54:45.000,290.324,-77.765,24579.564950
2 Jan 2020 11:55:15.000,289.156,-78.050,24409.766510
2 Jan 2020 11:55:45.000,287.904,-78.346,24245.683713
2 Jan 2020 11:56:15.000,286.557,-78.653,24087.585278
2 Jan 2020 11:56:45.000,285.105,-78.970,23935.735491
2 Jan 2020 11:57:15.000,283.538,-79.295,23790.392994
2 Jan 2020 11:57:45.000,281.841,-79.627,23651.810773
2 Jan 2020 11:58:15.000,280.000,-79.965,23520.233621
2 Jan 2020 11:58:45.000,278.000,-80.306,23395.898088
2 Jan 2020 11:59:15.000,275.822,-80.649,23279.031153
2 Jan 2020 11:59:45.000,273.447,-80.991,23169.848924
2 Jan 2020 12:00:15.000,270.853,-81.329,23068.556454
2 Jan 2020 12:00:45.000,268.020,-81.660,22975.345320
2 Jan 2020 12:01:15.000,264.924,-81.980,22890.393513
2 Jan 2020 12:01:45.000,261.547,-82.287,22813.864076
2 Jan 2020 12:02:15.000,257.869,-82.574,22745.904739
2 Jan 2020 12:02:45.000,253.879,-82.838,22686.646163
2 Jan 2020 12:03:15.000,249.575,-83.074,22636.201753
2 Jan 2020 12:03:45.000,244.967,-83.277,22594.666710
2 Jan 2020 12:04:15.000,240.081,-83.441,22562.117786
2 Jan 2020 12:04:45.000,234.961,-83.564,22538.612227
2 Jan 2020 12:05:15.000,229.671,-83.640,22524.187788
2 Jan 2020 12:05:45.000,224.286,-83.669,22518.862353
2 Jan 2020 12:06:15.000,218.893,-83.649,22522.633903
2 Jan 2020 12:06:45.000,213.579,-83.581,22535.480351
2 Jan 2020 12:07:15.000,208.421,-83.466,22557.359800
2 Jan 2020 12:07:45.000,203.485,-83.310,22588.210815
2 Jan 2020 12:08:15.000,198.816,-83.115,22627.952631
2 Jan 2020 12:08:45.000,194.443,-82.886,22676.485889
2 Jan 2020 12:09:15.000,190.378,-82.629,22733.693105
2 Jan 2020 12:09:45.000,186.619,-82.348,22799.439518
2 Jan 2020 12:10:15.000,183.156,-82.048,22873.573485
2 Jan 2020 12:10:45.000,179.971,-81.733,22955.927952
2 Jan 2020 12:11:15.000,177.044,-81.408,23046.321020
2 Jan 2020 12:11:45.000,174.354,-81.075,23144.557192
2 Jan 2020 12:12:15.000,171.877,-80.738,23250.427827
2 Jan 2020 12:12:45.000,169.594,-80.400,23363.713077
2 Jan 2020 12:13:15.000,167.483,-80.064,23484.182412
2 Jan 2020 12:13:45.000,165.529,-79.730,23611.595855
2 Jan 2020 12:14:15.000,163.712,-79.402,23745.705297
2 Jan 2020 12:14:45.000,162.020,-79.080,23886.254680
2 Jan 2020 12:15:15.000,160.438,-78.767,24032.982368
2 Jan 2020 12:15:45.000,158.955,-78.462,24185.621296
2 Jan 2020 12:16:15.000,157.561,-78.168,24343.900170
2 Jan 2020 12:16:45.000,156.245,-77.886,24507.544395
2 Jan 2020 12:17:15.000,155.000,-77.615,24676.277244
2 Jan 2020 12:17:45.000,153.819,-77.356,24849.819617
2 Jan 2020 12:18:15.000,152.694,-77.111,25027.892422
2 Jan 2020 12:18:45.000,151.620,-76.879,25210.216251
2 Jan 2020 12:19:15.000,150.592,-76.661,25396.512311
2 Jan 2020 12:19:45.000,149.604,-76.457,25586.503046
2 Jan 2020 12:20:15.000,148.654,-76.267,25779.912698
2 Jan 2020 12:20:45.000,147.735,-76.091,25976.467820
2 Jan 2020 12:21:04.282,147.161,-75.986,26104.336151
2 Jan 2020 13:35:28.016,282.909,-75.982,26102.128560
2 Jan 2020 13:35:58.000,281.054,-76.069,25996.053136
2 Jan 2020 13:36:28.000,279.154,-76.156,25895.250410
2 Jan 2020 13:36:58.000,277.210,-76.242,25799.933314
2 Jan 2020 13:37:28.000,275.222,-76.327,25710.250015
2 Jan 2020 13:37:58.000,273.191,-76.410,25626.340540
2 Jan 2020 13:38:28.000,271.119,-76.490,25548.336108
2 Jan 2020 13:38:58.000,269.005,-76.567,25476.359169
2 Jan 2020 13:39:28.000,266.853,-76.639,25410.522076
2 Jan 2020 13:39:58.000,264.664,-76.706,25350.927186
2 Jan 2020 13:40:28.000,262.440,-76.768,25297.666295
2 Jan 2020 13:40:58.000,260.184,-76.824,25250.820150
2 Jan 2020 13:41:28.000,257.901,-76.872,25210.458451
2 Jan 2020 13:41:58.000,255.592,-76.914,25176.639001
2 Jan 2020 13:42:28.000,253.263,-76.948,25149.407816
2 Jan 2020 13:42:58.000,250.917,-76.974,25128.798814
2 Jan 2020 13:43:28.000,248.559,-76.992,25114.833628
2 Jan 2020 13:43:58.000,246.193,-77.001,25107.521653
2 Jan 2020 13:44:28.000,243.824,-77.002,25106.859752
2 Jan 2020 13:44:58.000,241.456,-76.994,25112.832439
2 Jan 2020 13:45:28.000,239.095,-76.978,25125.411904
2 Jan 2020 13:45:58.000,236.744,-76.954,25144.558143
2 Jan 2020 13:46:28.000,234.408,-76.922,25170.219088
2 Jan 2020 13:46:58.000,232.091,-76.882,25202.330898
2 Jan 2020 13:47:28.000,229.797,-76.836,25240.818203
2 Jan 2020 13:47:58.000,227.529,-76.782,25285.594443
2 Jan 2020 13:48:28.000,225.291,-76.723,25336.562296
2 Jan 2020 13:48:58.000,223.084,-76.658,25393.613850
