STKdata/stk_70fov_4leo/Satellite-MEO_Satellite10104-To-Satellite-LEO_Satellite10000 AER.csv

"Time (UTCG)","Azimuth (deg)","Elevation (deg)","Range (km)"
1 Jan 2020 00:00:00.000,273.302,-76.282,25789.083271
1 Jan 2020 00:00:30.000,272.271,-76.120,25968.436203
1 Jan 2020 00:00:54.599,271.461,-75.996,26118.196568
1 Jan 2020 01:15:58.996,84.972,-75.988,26111.488961
1 Jan 2020 01:16:28.000,85.558,-76.149,25918.974483
1 Jan 2020 01:16:58.000,86.200,-76.331,25722.960279
1 Jan 2020 01:17:28.000,86.881,-76.526,25530.352566
1 Jan 2020 01:17:58.000,87.606,-76.735,25341.396781
1 Jan 2020 01:18:28.000,88.377,-76.958,25156.339297
1 Jan 2020 01:18:58.000,89.199,-77.195,24975.426936
1 Jan 2020 01:19:28.000,90.077,-77.444,24798.906438
1 Jan 2020 01:19:58.000,91.015,-77.707,24627.023591
1 Jan 2020 01:20:28.000,92.020,-77.982,24460.023813
1 Jan 2020 01:20:58.000,93.098,-78.268,24298.149685
1 Jan 2020 01:21:28.000,94.257,-78.566,24141.641469
1 Jan 2020 01:21:58.000,95.506,-78.874,23990.736060
1 Jan 2020 01:22:28.000,96.854,-79.192,23845.666217
1 Jan 2020 01:22:58.000,98.312,-79.517,23706.659481
1 Jan 2020 01:23:28.000,99.893,-79.850,23573.938452
1 Jan 2020 01:23:58.000,101.610,-80.189,23447.718246
1 Jan 2020 01:24:28.000,103.480,-80.531,23328.206762
1 Jan 2020 01:24:58.000,105.519,-80.875,23215.603502
1 Jan 2020 01:25:28.000,107.749,-81.220,23110.098482
1 Jan 2020 01:25:58.000,110.189,-81.562,23011.872198
1 Jan 2020 01:26:28.000,112.864,-81.898,22921.093464
1 Jan 2020 01:26:58.000,115.797,-82.227,22837.919441
1 Jan 2020 01:27:28.000,119.013,-82.543,22762.494472
1 Jan 2020 01:27:58.000,122.533,-82.843,22694.949866
1 Jan 2020 01:28:28.000,126.378,-83.122,22635.402328
1 Jan 2020 01:28:58.000,130.558,-83.377,22583.953883
1 Jan 2020 01:29:28.000,135.074,-83.601,22540.691058
1 Jan 2020 01:29:58.000,139.911,-83.790,22505.684729
1 Jan 2020 01:30:28.000,145.034,-83.940,22478.989139
1 Jan 2020 01:30:58.000,150.390,-84.045,22460.641953
1 Jan 2020 01:31:28.000,155.902,-84.103,22450.663891
1 Jan 2020 01:31:58.000,161.482,-84.113,22449.058730
1 Jan 2020 01:32:28.000,167.033,-84.074,22455.813042
1 Jan 2020 01:32:58.000,172.461,-83.987,22470.896432
1 Jan 2020 01:33:28.000,177.687,-83.855,22494.261686
1 Jan 2020 01:33:58.000,182.649,-83.682,22525.844948
1 Jan 2020 01:34:28.000,187.306,-83.473,22565.566209
1 Jan 2020 01:34:58.000,191.638,-83.232,22613.329699
1 Jan 2020 01:35:28.000,195.641,-82.965,22669.024517
1 Jan 2020 01:35:58.000,199.324,-82.676,22732.524936
1 Jan 2020 01:36:28.000,202.703,-82.370,22803.691543
1 Jan 2020 01:36:58.000,205.799,-82.051,22882.371696
1 Jan 2020 01:37:28.000,208.638,-81.723,22968.400388
1 Jan 2020 01:37:58.000,211.243,-81.389,23061.601249
1 Jan 2020 01:38:28.000,213.638,-81.051,23161.786759
1 Jan 2020 01:38:58.000,215.845,-80.713,23268.760102
1 Jan 2020 01:39:28.000,217.884,-80.376,23382.315434
1 Jan 2020 01:39:58.000,219.774,-80.043,23502.238947
1 Jan 2020 01:40:28.000,221.531,-79.714,23628.309962
1 Jan 2020 01:40:58.000,223.169,-79.392,23760.301032
1 Jan 2020 01:41:28.000,224.703,-79.078,23897.979978
1 Jan 2020 01:41:58.000,226.142,-78.773,24041.109963
1 Jan 2020 01:42:28.000,227.498,-78.477,24189.450496
1 Jan 2020 01:42:58.000,228.780,-78.191,24342.758214
1 Jan 2020 01:43:28.000,229.995,-77.917,24500.787620
1 Jan 2020 01:43:58.000,231.151,-77.654,24663.292071
1 Jan 2020 01:44:28.000,232.253,-77.403,24830.023313
1 Jan 2020 01:44:58.000,233.308,-77.164,25000.733772
1 Jan 2020 01:45:28.000,234.321,-76.939,25175.176016
1 Jan 2020 01:45:58.000,235.295,-76.726,25353.103560
1 Jan 2020 01:46:28.000,236.236,-76.526,25534.271351
1 Jan 2020 01:46:58.000,237.147,-76.339,25718.436211
1 Jan 2020 01:47:28.000,238.030,-76.166,25905.357233
1 Jan 2020 01:47:58.000,238.890,-76.006,26094.796146
1 Jan 2020 01:48:00.573,238.962,-75.993,26111.156183
1 Jan 2020 06:02:35.915,330.601,-75.985,26104.583595
1 Jan 2020 06:03:05.000,332.183,-76.086,25982.147818
1 Jan 2020 06:03:35.000,333.851,-76.194,25859.026342
1 Jan 2020 06:04:05.000,335.558,-76.305,25739.308105
1 Jan 2020 06:04:35.000,337.307,-76.419,25623.180753
1 Jan 2020 06:05:05.000,339.098,-76.536,25510.830386
1 Jan 2020 06:05:35.000,340.934,-76.654,25402.441096
1 Jan 2020 06:06:05.000,342.816,-76.774,25298.194496
1 Jan 2020 06:06:35.000,344.746,-76.894,25198.269229
1 Jan 2020 06:07:05.000,346.724,-77.013,25102.840327
1 Jan 2020 06:07:35.000,348.753,-77.132,25012.079231
1 Jan 2020 06:08:05.000,350.832,-77.249,24926.152447
1 Jan 2020 06:08:35.000,352.961,-77.363,24845.221568
1 Jan 2020 06:09:05.000,355.141,-77.473,24769.442590
1 Jan 2020 06:09:35.000,357.372,-77.579,24698.965385
1 Jan 2020 06:10:05.000,359.652,-77.680,24633.933090
1 Jan 2020 06:10:35.000,1.979,-77.775,24574.481876
1 Jan 2020 06:11:05.000,4.352,-77.863,24520.739988
1 Jan 2020 06:11:35.000,6.768,-77.943,24472.827560
1 Jan 2020 06:12:05.000,9.223,-78.015,24430.856055
1 Jan 2020 06:12:35.000,11.714,-78.077,24394.927818
1 Jan 2020 06:13:05.000,14.236,-78.130,24365.135648
1 Jan 2020 06:13:35.000,16.783,-78.172,24341.562455
1 Jan 2020 06:14:05.000,19.350,-78.203,24324.280819
1 Jan 2020 06:14:35.000,21.932,-78.222,24313.352754
1 Jan 2020 06:15:05.000,24.521,-78.230,24308.829417
1 Jan 2020 06:15:35.000,27.111,-78.227,24310.750931
1 Jan 2020 06:16:05.000,29.695,-78.212,24319.146046
1 Jan 2020 06:16:35.000,32.267,-78.185,24334.032255
1 Jan 2020 06:17:05.000,34.820,-78.146,24355.415566
1 Jan 2020 06:17:35.000,37.348,-78.097,24383.290529
1 Jan 2020 06:18:05.000,39.845,-78.037,24417.640357
1 Jan 2020 06:18:35.000,42.306,-77.967,24458.436633
1 Jan 2020 06:19:05.000,44.726,-77.887,24505.639999
1 Jan 2020 06:19:35.000,47.100,-77.799,24559.199979
1 Jan 2020 06:20:05.000,49.425,-77.702,24619.055293
1 Jan 2020 06:20:35.000,51.698,-77.599,24685.134281
1 Jan 2020 06:21:05.000,53.917,-77.490,24757.354642
1 Jan 2020 06:21:35.000,56.079,-77.375,24835.624627
1 Jan 2020 06:22:05.000,58.183,-77.255,24919.842872
1 Jan 2020 06:22:35.000,60.229,-77.133,25009.898953
1 Jan 2020 06:23:05.000,62.216,-77.008,25105.673822
1 Jan 2020 06:23:35.000,64.145,-76.881,25207.040488
1 Jan 2020 06:24:05.000,66.015,-76.753,25313.863640
1 Jan 2020 06:24:35.000,67.828,-76.626,25426.001413
1 Jan 2020 06:25:05.000,69.585,-76.499,25543.305049
1 Jan 2020 06:25:35.000,71.287,-76.374,25665.619618
1 Jan 2020 06:26:05.000,72.935,-76.252,25792.784523
1 Jan 2020 06:26:35.000,74.531,-76.133,25924.634011
1 Jan 2020 06:27:05.000,76.077,-76.018,26060.997941
1 Jan 2020 06:27:14.392,76.551,-75.982,26104.589595
1 Jan 2020 07:43:48.145,284.600,-75.990,26110.852687
1 Jan 2020 07:44:18.000,284.598,-76.165,25903.345057
1 Jan 2020 07:44:48.000,284.584,-76.357,25697.484400
1 Jan 2020 07:45:18.000,284.558,-76.565,25494.534965
1 Jan 2020 07:45:48.000,284.518,-76.790,25294.751432
1 Jan 2020 07:46:18.000,284.463,-77.032,25098.391079
1 Jan 2020 07:46:48.000,284.394,-77.291,24905.713369
1 Jan 2020 07:47:18.000,284.308,-77.567,24716.979496
1 Jan 2020 07:47:48.000,284.204,-77.860,24532.451886
1 Jan 2020 07:48:18.000,284.082,-78.169,24352.393319
1 Jan 2020 07:48:48.000,283.938,-78.496,24177.067606
1 Jan 2020 07:49:18.000,283.771,-78.839,24006.737004
1 Jan 2020 07:49:48.000,283.579,-79.199,23841.662802
1 Jan 2020 07:50:18.000,283.358,-79.575,23682.104239
1 Jan 2020 07:50:48.000,283.105,-79.967,23528.317697
1 Jan 2020 07:51:18.000,282.815,-80.375,23380.555576
1 Jan 2020 07:51:48.000,282.482,-80.798,23239.066507
1 Jan 2020 07:52:18.000,282.100,-81.236,23104.092740
1 Jan 2020 07:52:48.000,281.660,-81.688,22975.870315
1 Jan 2020 07:53:18.000,281.150,-82.154,22854.627778
1 Jan 2020 07:53:48.000,280.557,-82.632,22740.584968
1 Jan 2020 07:54:18.000,279.861,-83.122,22633.952863
1 Jan 2020 07:54:48.000,279.037,-83.623,22534.931240
1 Jan 2020 07:55:18.000,278.051,-84.134,22443.708565
1 Jan 2020 07:55:48.000,276.852,-84.654,22360.460641
1 Jan 2020 07:56:18.000,275.370,-85.180,22285.350223
1 Jan 2020 07:56:48.000,273.499,-85.711,22218.525237
1 Jan 2020 07:57:18.000,271.072,-86.243,22160.118527
1 Jan 2020 07:57:48.000,267.815,-86.774,22110.246826
1 Jan 2020 07:58:18.000,263.260,-87.295,22069.010419
1 Jan 2020 07:58:48.000,256.548,-87.796,22036.491956
1 Jan 2020 07:59:18.000,246.087,-88.253,22012.756330
1 Jan 2020 07:59:48.000,229.238,-88.616,21997.850135
1 Jan 2020 08:00:18.000,204.366,-88.794,21991.801484
1 Jan 2020 08:00:48.000,177.600,-88.707,21994.619628
1 Jan 2020 08:01:18.000,157.801,-88.398,22006.295043
1 Jan 2020 08:01:48.000,145.375,-87.967,22026.799490
1 Jan 2020 08:02:18.000,137.528,-87.479,22056.086040
1 Jan 2020 08:02:48.000,132.292,-86.964,22094.089576
1 Jan 2020 08:03:18.000,128.597,-86.437,22140.727083
1 Jan 2020 08:03:48.000,125.862,-85.905,22195.898294
1 Jan 2020 08:04:18.000,123.758,-85.374,22259.485904
1 Jan 2020 08:04:48.000,122.086,-84.847,22331.356851
1 Jan 2020 08:05:18.000,120.723,-84.327,22411.362733
1 Jan 2020 08:05:48.000,119.586,-83.814,22499.340899
1 Jan 2020 08:06:18.000,118.619,-83.310,22595.114760
1 Jan 2020 08:06:48.000,117.784,-82.817,22698.495625
1 Jan 2020 08:07:18.000,117.051,-82.336,22809.283112
1 Jan 2020 08:07:48.000,116.400,-81.867,22927.266302
1 Jan 2020 08:08:18.000,115.815,-81.411,23052.224996
1 Jan 2020 08:08:48.000,115.283,-80.970,23183.929796
1 Jan 2020 08:09:18.000,114.794,-80.543,23322.144511
1 Jan 2020 08:09:48.000,114.342,-80.130,23466.626239
1 Jan 2020 08:10:18.000,113.920,-79.734,23617.126556
1 Jan 2020 08:10:48.000,113.522,-79.353,23773.392459
1 Jan 2020 08:11:18.000,113.146,-78.988,23935.167562
1 Jan 2020 08:11:48.000,112.787,-78.640,24102.191766
1 Jan 2020 08:12:18.000,112.443,-78.308,24274.203837
1 Jan 2020 08:12:48.000,112.111,-77.993,24450.941002
1 Jan 2020 08:13:18.000,111.789,-77.695,24632.139948
1 Jan 2020 08:13:48.000,111.475,-77.413,24817.537484
1 Jan 2020 08:14:18.000,111.168,-77.149,25006.871149
1 Jan 2020 08:14:48.000,110.866,-76.901,25199.879771
1 Jan 2020 08:15:18.000,110.568,-76.669,25396.304296
1 Jan 2020 08:15:48.000,110.273,-76.455,25595.886957
1 Jan 2020 08:16:18.000,109.981,-76.256,25798.373614
1 Jan 2020 08:16:48.000,109.689,-76.074,26003.512838
1 Jan 2020 08:17:03.629,109.538,-75.986,26111.349043
1 Jan 2020 09:35:22.938,248.181,-75.993,26118.015964
1 Jan 2020 09:35:52.000,246.475,-76.076,26016.639115
1 Jan 2020 09:36:22.000,244.673,-76.162,25916.741017
1 Jan 2020 09:36:52.000,242.829,-76.248,25821.793442
1 Jan 2020 09:37:22.000,240.944,-76.333,25731.913613
1 Jan 2020 09:37:52.000,239.018,-76.416,25647.211796
1 Jan 2020 09:38:22.000,237.051,-76.498,25567.790923
1 Jan 2020 09:38:52.000,235.046,-76.576,25493.746062
1 Jan 2020 09:39:22.000,233.002,-76.651,25425.164743
1 Jan 2020 09:39:52.000,230.922,-76.723,25362.125616
1 Jan 2020 09:40:22.000,228.807,-76.789,25304.698842
1 Jan 2020 09:40:52.000,226.659,-76.851,25252.945651
1 Jan 2020 09:41:22.000,224.482,-76.907,25206.918097
1 Jan 2020 09:41:52.000,222.277,-76.956,25166.658747
1 Jan 2020 09:42:22.000,220.048,-77.000,25132.200951
1 Jan 2020 09:42:52.000,217.798,-77.036,25103.568025
1 Jan 2020 09:43:22.000,215.531,-77.066,25080.773617
1 Jan 2020 09:43:52.000,213.251,-77.088,25063.821529
1 Jan 2020 09:44:22.000,210.960,-77.102,25052.705700
1 Jan 2020 09:44:52.000,208.664,-77.109,25047.410177
1 Jan 2020 09:45:22.000,206.366,-77.108,25047.909380
1 Jan 2020 09:45:52.000,204.069,-77.100,25054.167883
1 Jan 2020 09:46:22.000,201.779,-77.084,25066.140778
1 Jan 2020 09:46:52.000,199.498,-77.061,25083.773794
1 Jan 2020 09:47:22.000,197.231,-77.031,25107.003509
1 Jan 2020 09:47:52.000,194.979,-76.994,25135.757616
1 Jan 2020 09:48:22.000,192.748,-76.951,25169.955149
1 Jan 2020 09:48:52.000,190.538,-76.902,25209.506853
1 Jan 2020 09:49:22.000,188.353,-76.847,25254.315492
1 Jan 2020 09:49:52.000,186.196,-76.787,25304.276211
1 Jan 2020 09:50:22.000,184.067,-76.723,25359.276915
1 Jan 2020 09:50:52.000,181.969,-76.655,25419.198736
1 Jan 2020 09:51:22.000,179.902,-76.584,25483.916198
1 Jan 2020 09:51:52.000,177.868,-76.510,25553.297995
1 Jan 2020 09:52:22.000,175.867,-76.433,25627.207198
1 Jan 2020 09:52:52.000,173.900,-76.355,25705.501749
1 Jan 2020 09:53:22.000,171.967,-76.276,25788.034902
1 Jan 2020 09:53:52.000,170.067,-76.196,25874.655661
1 Jan 2020 09:54:22.000,168.201,-76.116,25965.209226
1 Jan 2020 09:54:52.000,166.368,-76.037,26059.537548
1 Jan 2020 09:55:09.947,165.287,-75.989,26117.705351
1 Jan 2020 12:39:53.663,349.824,-75.997,26121.675167
1 Jan 2020 12:40:23.000,347.883,-76.034,26075.117707
1 Jan 2020 12:40:53.000,345.880,-76.070,26031.875325
1 Jan 2020 12:41:23.000,343.860,-76.103,25993.147887
1 Jan 2020 12:41:53.000,341.826,-76.132,25959.029228
1 Jan 2020 12:42:23.000,339.778,-76.158,25929.606726
1 Jan 2020 12:42:53.000,337.719,-76.180,25904.961014
1 Jan 2020 12:43:23.000,335.650,-76.198,25885.165712
1 Jan 2020 12:43:53.000,333.573,-76.211,25870.287141
1 Jan 2020 12:44:23.000,331.492,-76.220,25860.384135
1 Jan 2020 12:44:53.000,329.407,-76.225,25855.507808
1 Jan 2020 12:45:23.000,327.321,-76.225,25855.701380
1 Jan 2020 12:45:53.000,325.237,-76.220,25861.000018
1 Jan 2020 12:46:23.000,323.157,-76.210,25871.430769
1 Jan 2020 12:46:53.000,321.084,-76.196,25887.012240
1 Jan 2020 12:47:23.000,319.019,-76.178,25907.754848
1 Jan 2020 12:47:53.000,316.965,-76.155,25933.660579
1 Jan 2020 12:48:23.000,314.925,-76.128,25964.723030
1 Jan 2020 12:48:53.000,312.900,-76.097,26000.927432
1 Jan 2020 12:49:23.000,310.892,-76.062,26042.250804
1 Jan 2020 12:49:53.000,308.904,-76.024,26088.661636
1 Jan 2020 12:50:12.611,307.616,-75.998,26121.732221
1 Jan 2020 14:12:26.280,64.825,-75.991,26116.182261
1 Jan 2020 14:12:56.000,64.240,-76.157,25918.265460
1 Jan 2020 14:13:26.000,63.635,-76.340,25720.938123
1 Jan 2020 14:13:56.000,63.015,-76.538,25526.320995
1 Jan 2020 14:14:26.000,62.377,-76.751,25334.662152
1 Jan 2020 14:14:56.000,61.718,-76.979,25146.212431
1 Jan 2020 14:15:26.000,61.036,-77.223,24961.225043
1 Jan 2020 14:15:56.000,60.326,-77.482,24779.955147
1 Jan 2020 14:16:26.000,59.586,-77.756,24602.659375
1 Jan 2020 14:16:56.000,58.810,-78.045,24429.595035
1 Jan 2020 14:17:26.000,57.994,-78.348,24261.020641
1 Jan 2020 14:17:56.000,57.133,-78.667,24097.193635
1 Jan 2020 14:18:26.000,56.218,-78.999,23938.370830
1 Jan 2020 14:18:56.000,55.243,-79.345,23784.807413
1 Jan 2020 14:19:26.000,54.199,-79.704,23636.756186
1 Jan 2020 14:19:56.000,53.074,-80.075,23494.466517
1 Jan 2020 14:20:26.000,51.856,-80.459,23358.184448
1 Jan 2020 14:20:56.000,50.529,-80.853,23228.150359
1 Jan 2020 14:21:26.000,49.075,-81.256,23104.599023
1 Jan 2020 14:21:56.000,47.472,-81.668,22987.758418
1 Jan 2020 14:22:26.000,45.693,-82.087,22877.848571
1 Jan 2020 14:22:56.000,43.705,-82.510,22775.081330
1 Jan 2020 14:23:26.000,41.467,-82.936,22679.658244
1 Jan 2020 14:23:56.000,38.930,-83.362,22591.770358
1 Jan 2020 14:24:26.000,36.033,-83.785,22511.596947
1 Jan 2020 14:24:56.000,32.704,-84.199,22439.305047
1 Jan 2020 14:25:26.000,28.854,-84.600,22375.047842
1 Jan 2020 14:25:56.000,24.384,-84.982,22318.964313
1 Jan 2020 14:26:26.000,19.187,-85.337,22271.178256
1 Jan 2020 14:26:56.000,13.167,-85.654,22231.797842
1 Jan 2020 14:27:26.000,6.260,-85.922,22200.914548
1 Jan 2020 14:27:56.000,358.486,-86.128,22178.602913
1 Jan 2020 14:28:26.000,349.989,-86.261,22164.920001
1 Jan 2020 14:28:56.000,341.061,-86.311,22159.905089
1 Jan 2020 14:29:26.000,332.099,-86.274,22163.579357
1 Jan 2020 14:29:56.000,323.512,-86.154,22175.945822
1 Jan 2020 14:30:26.000,315.615,-85.958,22196.989371
1 Jan 2020 14:30:56.000,308.578,-85.698,22226.676640
1 Jan 2020 14:31:26.000,302.438,-85.387,22264.956535
1 Jan 2020 14:31:56.000,297.146,-85.036,22311.760371
1 Jan 2020 14:32:26.000,292.605,-84.655,22367.002458
1 Jan 2020 14:32:56.000,288.712,-84.254,22430.580172
1 Jan 2020 14:33:26.000,285.362,-83.838,22502.375233
1 Jan 2020 14:33:56.000,282.469,-83.413,22582.253975
1 Jan 2020 14:34:26.000,279.955,-82.983,22670.068382
1 Jan 2020 14:34:56.000,277.757,-82.553,22765.656264
1 Jan 2020 14:35:26.000,275.826,-82.125,22868.843094
1 Jan 2020 14:35:56.000,274.119,-81.701,22979.442297
1 Jan 2020 14:36:26.000,272.601,-81.284,23097.256352
1 Jan 2020 14:36:56.000,271.246,-80.874,23222.078002
1 Jan 2020 14:37:26.000,270.029,-80.475,23353.690226
1 Jan 2020 14:37:56.000,268.932,-80.085,23491.868690
1 Jan 2020 14:38:26.000,267.940,-79.708,23636.381725
1 Jan 2020 14:38:56.000,267.039,-79.343,23786.991508
1 Jan 2020 14:39:26.000,266.219,-78.991,23943.454976
1 Jan 2020 14:39:56.000,265.469,-78.653,24105.525021
1 Jan 2020 14:40:26.000,264.783,-78.329,24272.950084
1 Jan 2020 14:40:56.000,264.152,-78.020,24445.476822
1 Jan 2020 14:41:26.000,263.573,-77.727,24622.849641
1 Jan 2020 14:41:56.000,263.039,-77.448,24804.811712
1 Jan 2020 14:42:26.000,262.547,-77.186,24991.105643
1 Jan 2020 14:42:56.000,262.092,-76.939,25181.474098
1 Jan 2020 14:43:26.000,261.672,-76.707,25375.660370
1 Jan 2020 14:43:56.000,261.283,-76.492,25573.409248
1 Jan 2020 14:44:26.000,260.924,-76.292,25774.466120
1 Jan 2020 14:44:56.000,260.591,-76.108,25978.579465
1 Jan 2020 14:45:15.924,260.384,-75.995,26115.703719
1 Jan 2020 16:00:48.308,96.745,-75.987,26108.864703
1 Jan 2020 16:01:18.000,97.993,-76.122,25946.542204
1 Jan 2020 16:01:48.000,99.305,-76.266,25786.547591
1 Jan 2020 16:02:18.000,100.671,-76.418,25630.789789
1 Jan 2020 16:02:48.000,102.095,-76.577,25479.472656
1 Jan 2020 16:03:18.000,103.579,-76.741,25332.797204
1 Jan 2020 16:03:48.000,105.127,-76.911,25190.961044
1 Jan 2020 16:04:18.000,106.742,-77.085,25054.157572
1 Jan 2020 16:04:48.000,108.427,-77.263,24922.576366
1 Jan 2020 16:05:18.000,110.186,-77.443,24796.401084
1 Jan 2020 16:05:48.000,112.022,-77.626,24675.809854
1 Jan 2020 16:06:18.000,113.938,-77.808,24560.974398
1 Jan 2020 16:06:48.000,115.937,-77.990,24452.059403
1 Jan 2020 16:07:18.000,118.021,-78.171,24349.221672
1 Jan 2020 16:07:48.000,120.192,-78.348,24252.610408
1 Jan 2020 16:08:18.000,122.452,-78.520,24162.365236
1 Jan 2020 16:08:48.000,124.802,-78.687,24078.616540
1 Jan 2020 16:09:18.000,127.241,-78.846,24001.484656
1 Jan 2020 16:09:48.000,129.768,-78.997,23931.079188
1 Jan 2020 16:10:18.000,132.381,-79.137,23867.499113
1 Jan 2020 16:10:48.000,135.075,-79.265,23810.831383
1 Jan 2020 16:11:18.000,137.847,-79.381,23761.151135
1 Jan 2020 16:11:48.000,140.690,-79.483,23718.521167
1 Jan 2020 16:12:18.000,143.595,-79.569,23682.991520
1 Jan 2020 16:12:48.000,146.553,-79.639,23654.599620
1 Jan 2020 16:13:18.000,149.555,-79.693,23633.369468
1 Jan 2020 16:13:48.000,152.587,-79.728,23619.311930
1 Jan 2020 16:14:18.000,155.638,-79.746,23612.424562
1 Jan 2020 16:14:48.000,158.696,-79.745,23612.691584
1 Jan 2020 16:15:18.000,161.747,-79.727,23620.084075
1 Jan 2020 16:15:48.000,164.780,-79.690,23634.559896
1 Jan 2020 16:16:18.000,167.781,-79.637,23656.064045
1 Jan 2020 16:16:48.000,170.741,-79.567,23684.528874
1 Jan 2020 16:17:18.000,173.649,-79.481,23719.874456
1 Jan 2020 16:17:48.000,176.498,-79.381,23762.008818
1 Jan 2020 16:18:18.000,179.279,-79.267,23810.828564
1 Jan 2020 16:18:48.000,181.988,-79.142,23866.219235
1 Jan 2020 16:19:18.000,184.620,-79.005,23928.055857
1 Jan 2020 16:19:48.000,187.173,-78.859,23996.203582
1 Jan 2020 16:20:18.000,189.644,-78.706,24070.517927
1 Jan 2020 16:20:48.000,192.034,-78.545,24150.845893
1 Jan 2020 16:21:18.000,194.343,-78.380,24237.026262
1 Jan 2020 16:21:48.000,196.572,-78.210,24328.890327
1 Jan 2020 16:22:18.000,198.724,-78.038,24426.262533
1 Jan 2020 16:22:48.000,200.799,-77.864,24528.961293
1 Jan 2020 16:23:18.000,202.802,-77.690,24636.799026
1 Jan 2020 16:23:48.000,204.735,-77.517,24749.583699
1 Jan 2020 16:24:18.000,206.602,-77.345,24867.118874
1 Jan 2020 16:24:48.000,208.405,-77.175,24989.204468
1 Jan 2020 16:25:18.000,210.149,-77.009,25115.637353
1 Jan 2020 16:25:48.000,211.836,-76.847,25246.211936
1 Jan 2020 16:26:18.000,213.470,-76.690,25380.720716
1 Jan 2020 16:26:48.000,215.055,-76.538,25518.955031
1 Jan 2020 16:27:18.000,216.593,-76.393,25660.704691
1 Jan 2020 16:27:48.000,218.088,-76.253,25805.759755
1 Jan 2020 16:28:18.000,219.543,-76.120,25953.910117
1 Jan 2020 16:28:48.000,220.960,-75.995,26104.946140
1 Jan 2020 16:28:48.769,220.996,-75.991,26108.853896
1 Jan 2020 20:42:04.624,308.318,-75.987,26106.514822
1 Jan 2020 20:42:34.000,309.419,-76.130,25935.534385
1 Jan 2020 20:43:04.000,310.575,-76.286,25763.502730
1 Jan 2020 20:43:34.000,311.766,-76.453,25594.306386
1 Jan 2020 20:44:04.000,312.996,-76.630,25428.174189
1 Jan 2020 20:44:34.000,314.269,-76.817,25265.336479
1 Jan 2020 20:45:04.000,315.588,-77.014,25106.024677
1 Jan 2020 20:45:34.000,316.959,-77.220,24950.470840
1 Jan 2020 20:46:04.000,318.385,-77.435,24798.907165
1 Jan 2020 20:46:34.000,319.873,-77.658,24651.565246
1 Jan 2020 20:47:04.000,321.429,-77.889,24508.676392
1 Jan 2020 20:47:34.000,323.057,-78.126,24370.469688
1 Jan 2020 20:48:04.000,324.765,-78.370,24237.172263
1 Jan 2020 20:48:34.000,326.561,-78.618,24109.008389
1 Jan 2020 20:49:04.000,328.450,-78.870,23986.198788
1 Jan 2020 20:49:34.000,330.442,-79.125,23868.959730
1 Jan 2020 20:50:04.000,332.545,-79.380,23757.502980
1 Jan 2020 20:50:34.000,334.767,-79.635,23652.033972
1 Jan 2020 20:51:04.000,337.116,-79.888,23552.751737
1 Jan 2020 20:51:34.000,339.601,-80.137,23459.847934
1 Jan 2020 20:52:04.000,342.229,-80.380,23373.505935
1 Jan 2020 20:52:34.000,345.006,-80.614,23293.900519
1 Jan 2020 20:53:04.000,347.939,-80.837,23221.196354
1 Jan 2020 20:53:34.000,351.031,-81.047,23155.547740
1 Jan 2020 20:54:04.000,354.280,-81.241,23097.097753
1 Jan 2020 20:54:34.000,357.684,-81.417,23045.977485
1 Jan 2020 20:55:04.000,1.236,-81.572,23002.305652
1 Jan 2020 20:55:34.000,4.922,-81.704,22966.187577
1 Jan 2020 20:56:04.000,8.726,-81.810,22937.714934
1 Jan 2020 20:56:34.000,12.624,-81.889,22916.965190
1 Jan 2020 20:57:04.000,16.590,-81.938,22904.001219
1 Jan 2020 20:57:34.000,20.594,-81.958,22898.870913
1 Jan 2020 20:58:04.000,24.602,-81.947,22901.606973
1 Jan 2020 20:58:34.000,28.581,-81.906,22912.226781
1 Jan 2020 20:59:04.000,32.501,-81.836,22930.732123
1 Jan 2020 20:59:34.000,36.332,-81.737,22957.109451
1 Jan 2020 21:00:04.000,40.048,-81.611,22991.329815
1 Jan 2020 21:00:34.000,43.630,-81.461,23033.349167
1 Jan 2020 21:01:04.000,47.063,-81.288,23083.108238
1 Jan 2020 21:01:34.000,50.337,-81.095,23140.533427
1 Jan 2020 21:02:04.000,53.446,-80.885,23205.536852
1 Jan 2020 21:02:34.000,56.388,-80.660,23278.016913
1 Jan 2020 21:03:04.000,59.166,-80.423,23357.859026
1 Jan 2020 21:03:34.000,61.782,-80.176,23444.935464
1 Jan 2020 21:04:04.000,64.244,-79.922,23539.107107
1 Jan 2020 21:04:34.000,66.558,-79.663,23640.223406
1 Jan 2020 21:05:04.000,68.732,-79.400,23748.123271
1 Jan 2020 21:05:34.000,70.774,-79.137,23862.636049
1 Jan 2020 21:06:04.000,72.693,-78.873,23983.581369
1 Jan 2020 21:06:34.000,74.497,-78.612,24110.771260
1 Jan 2020 21:07:04.000,76.194,-78.354,24244.010039
1 Jan 2020 21:07:34.000,77.792,-78.101,24383.095292
1 Jan 2020 21:08:04.000,79.298,-77.854,24527.818640
1 Jan 2020 21:08:34.000,80.718,-77.614,24677.966766
1 Jan 2020 21:09:04.000,82.058,-77.382,24833.320996
1 Jan 2020 21:09:34.000,83.326,-77.158,24993.659707
1 Jan 2020 21:10:04.000,84.525,-76.944,25158.757872
1 Jan 2020 21:10:34.000,85.662,-76.740,25328.387982
1 Jan 2020 21:11:04.000,86.740,-76.546,25502.320658
1 Jan 2020 21:11:34.000,87.763,-76.363,25680.325230
1 Jan 2020 21:12:04.000,88.736,-76.191,25862.170277
1 Jan 2020 21:12:34.000,89.663,-76.031,26047.624468
1 Jan 2020 21:12:43.461,89.945,-75.983,26106.818782
1 Jan 2020 22:27:43.254,273.699,-75.991,26113.530198
1 Jan 2020 22:28:13.000,273.016,-76.155,25918.890991
1 Jan 2020 22:28:43.000,272.288,-76.333,25725.835574
1 Jan 2020 22:29:13.000,271.517,-76.525,25536.282492
1 Jan 2020 22:29:43.000,270.700,-76.730,25350.474249
1 Jan 2020 22:30:13.000,269.833,-76.948,25168.653896
1 Jan 2020 22:30:43.000,268.911,-77.178,24991.064528
1 Jan 2020 22:31:13.000,267.930,-77.422,24817.948741
1 Jan 2020 22:31:43.000,266.885,-77.676,24649.547751
1 Jan 2020 22:32:13.000,265.768,-77.943,24486.101974
1 Jan 2020 22:32:43.000,264.574,-78.219,24327.848546
1 Jan 2020 22:33:13.000,263.295,-78.506,24175.021841
1 Jan 2020 22:33:43.000,261.922,-78.802,24027.852429
1 Jan 2020 22:34:13.000,260.446,-79.105,23886.566307
1 Jan 2020 22:34:43.000,258.857,-79.415,23751.383833
1 Jan 2020 22:35:13.000,257.142,-79.731,23622.519999
1 Jan 2020 22:35:43.000,255.289,-80.050,23500.181936
1 Jan 2020 22:36:13.000,253.283,-80.372,23384.569174
1 Jan 2020 22:36:43.000,251.110,-80.693,23275.872512
1 Jan 2020 22:37:13.000,248.753,-81.013,23174.272950
1 Jan 2020 22:37:43.000,246.194,-81.328,23079.941687
1 Jan 2020 22:38:13.000,243.415,-81.635,22993.038017
1 Jan 2020 22:38:43.000,240.401,-81.932,22913.709397
1 Jan 2020 22:39:13.000,237.134,-82.215,22842.090333
1 Jan 2020 22:39:43.000,233.603,-82.480,22778.302204
1 Jan 2020 22:40:13.000,229.800,-82.724,22722.451776
1 Jan 2020 22:40:43.000,225.726,-82.942,22674.631164
1 Jan 2020 22:41:13.000,221.391,-83.130,22634.917084
1 Jan 2020 22:41:43.000,216.818,-83.284,22603.370746
1 Jan 2020 22:42:13.000,212.043,-83.402,22580.036955
1 Jan 2020 22:42:43.000,207.116,-83.479,22564.944209
1 Jan 2020 22:43:13.000,202.097,-83.514,22558.104401
1 Jan 2020 22:43:43.000,197.055,-83.507,22559.512854
1 Jan 2020 22:44:13.000,192.060,-83.457,22569.148138
1 Jan 2020 22:44:43.000,187.177,-83.366,22586.972332
1 Jan 2020 22:45:13.000,182.462,-83.236,22612.931229
1 Jan 2020 22:45:43.000,177.960,-83.071,22646.954532
1 Jan 2020 22:46:13.000,173.700,-82.874,22688.956387
1 Jan 2020 22:46:43.000,169.699,-82.649,22738.835792
1 Jan 2020 22:47:13.000,165.963,-82.401,22796.477241
1 Jan 2020 22:47:43.000,162.489,-82.134,22861.751047
1 Jan 2020 22:48:13.000,159.265,-81.850,22934.514477
1 Jan 2020 22:48:43.000,156.279,-81.555,23014.612212
1 Jan 2020 22:49:13.000,153.514,-81.250,23101.877200
1 Jan 2020 22:49:43.000,150.951,-80.940,23196.131647
1 Jan 2020 22:50:13.000,148.575,-80.626,23297.187217
1 Jan 2020 22:50:43.000,146.367,-80.311,23404.846849
1 Jan 2020 22:51:13.000,144.311,-79.997,23518.905009
1 Jan 2020 22:51:43.000,142.393,-79.686,23639.148724
1 Jan 2020 22:52:13.000,140.599,-79.379,23765.358635
1 Jan 2020 22:52:43.000,138.916,-79.078,23897.309091
1 Jan 2020 22:53:13.000,137.333,-78.784,24034.770115
1 Jan 2020 22:53:43.000,135.840,-78.498,24177.507466
1 Jan 2020 22:54:13.000,134.427,-78.221,24325.283598
1 Jan 2020 22:54:43.000,133.087,-77.953,24477.858412
1 Jan 2020 22:55:13.000,131.813,-77.696,24634.989954
1 Jan 2020 22:55:43.000,130.597,-77.449,24796.435357
1 Jan 2020 22:56:13.000,129.434,-77.214,24961.950402
1 Jan 2020 22:56:43.000,128.318,-76.991,25131.291686
1 Jan 2020 22:57:13.000,127.245,-76.779,25304.216120
1 Jan 2020 22:57:43.000,126.211,-76.580,25480.481686
1 Jan 2020 22:58:13.000,125.210,-76.394,25659.847900
1 Jan 2020 22:58:43.000,124.241,-76.219,25842.076226
1 Jan 2020 22:59:13.000,123.299,-76.058,26026.930456
1 Jan 2020 22:59:26.975,122.869,-75.987,26113.875037
2 Jan 2020 03:13:36.919,32.666,-75.994,26120.010157
2 Jan 2020 03:14:06.000,31.135,-76.101,25990.959520
2 Jan 2020 03:14:36.000,29.519,-76.215,25860.899918
2 Jan 2020 03:15:06.000,27.863,-76.334,25734.151188
2 Jan 2020 03:15:36.000,26.165,-76.457,25610.907504
2 Jan 2020 03:16:06.000,24.423,-76.583,25491.361956
2 Jan 2020 03:16:36.000,22.634,-76.712,25375.706094
2 Jan 2020 03:17:06.000,20.796,-76.842,25264.129446
2 Jan 2020 03:17:36.000,18.908,-76.974,25156.819026
2 Jan 2020 03:18:06.000,16.968,-77.107,25053.958666
2 Jan 2020 03:18:36.000,14.974,-77.240,24955.729080
2 Jan 2020 03:19:06.000,12.924,-77.371,24862.306418
2 Jan 2020 03:19:36.000,10.818,-77.500,24773.862322
2 Jan 2020 03:20:06.000,8.656,-77.627,24690.563206
2 Jan 2020 03:20:36.000,6.436,-77.750,24612.569689
2 Jan 2020 03:21:06.000,4.159,-77.868,24540.035951
2 Jan 2020 03:21:36.000,1.826,-77.981,24473.109504
2 Jan 2020 03:22:06.000,359.439,-78.086,24411.930122
2 Jan 2020 03:22:36.000,357.000,-78.184,24356.629652
2 Jan 2020 03:23:06.000,354.511,-78.274,24307.331404
2 Jan 2020 03:23:36.000,351.977,-78.354,24264.149644
2 Jan 2020 03:24:06.000,349.401,-78.424,24227.189101
2 Jan 2020 03:24:36.000,346.790,-78.483,24196.544630
2 Jan 2020 03:25:06.000,344.148,-78.530,24172.300622
2 Jan 2020 03:25:36.000,341.483,-78.565,24154.530769
2 Jan 2020 03:26:06.000,338.801,-78.587,24143.297703
2 Jan 2020 03:26:36.000,336.111,-78.596,24138.652753
2 Jan 2020 03:27:06.000,333.419,-78.592,24140.635595
2 Jan 2020 03:27:36.000,330.734,-78.575,24149.274236
2 Jan 2020 03:28:06.000,328.063,-78.545,24164.584802
2 Jan 2020 03:28:36.000,325.413,-78.502,24186.571483
2 Jan 2020 03:29:06.000,322.793,-78.447,24215.226621
2 Jan 2020 03:29:36.000,320.209,-78.380,24250.530395
2 Jan 2020 03:30:06.000,317.666,-78.302,24292.451436
2 Jan 2020 03:30:36.000,315.171,-78.214,24340.946650
2 Jan 2020 03:31:06.000,312.728,-78.116,24395.961498
2 Jan 2020 03:31:36.000,310.341,-78.009,24457.430397
2 Jan 2020 03:32:06.000,308.013,-77.894,24525.276461
2 Jan 2020 03:32:36.000,305.747,-77.773,24599.412662
2 Jan 2020 03:33:06.000,303.544,-77.646,24679.741679
2 Jan 2020 03:33:36.000,301.406,-77.514,24766.156447
2 Jan 2020 03:34:06.000,299.332,-77.378,24858.540601
2 Jan 2020 03:34:36.000,297.324,-77.240,24956.769173
2 Jan 2020 03:35:06.000,295.380,-77.100,25060.708221
2 Jan 2020 03:35:36.000,293.500,-76.960,25170.216626
2 Jan 2020 03:36:06.000,291.682,-76.819,25285.145775
2 Jan 2020 03:36:36.000,289.926,-76.680,25405.340301
2 Jan 2020 03:37:06.000,288.228,-76.543,25530.638625
2 Jan 2020 03:37:36.000,286.588,-76.409,25660.873726
2 Jan 2020 03:38:06.000,285.004,-76.278,25795.872756
2 Jan 2020 03:38:36.000,283.473,-76.151,25935.458943
2 Jan 2020 03:39:06.000,281.994,-76.030,26079.451205
2 Jan 2020 03:39:14.275,281.595,-75.997,26119.922153
2 Jan 2020 04:55:29.416,76.668,-75.989,26113.630721
2 Jan 2020 04:55:59.000,76.747,-76.162,25908.182756
2 Jan 2020 04:56:29.000,76.843,-76.354,25702.535479
2 Jan 2020 04:56:59.000,76.955,-76.562,25499.846224
2 Jan 2020 04:57:29.000,77.085,-76.787,25300.369491
2 Jan 2020 04:57:59.000,77.234,-77.028,25104.362268
2 Jan 2020 04:58:29.000,77.404,-77.286,24912.083617
2 Jan 2020 04:58:59.000,77.595,-77.561,24723.794210
2 Jan 2020 04:59:29.000,77.811,-77.853,24539.755818
2 Jan 2020 04:59:59.000,78.054,-78.161,24360.230431
2 Jan 2020 05:00:29.000,78.325,-78.486,24185.480930
2 Jan 2020 05:00:59.000,78.630,-78.827,24015.768489
2 Jan 2020 05:01:29.000,78.971,-79.185,23851.353156
2 Jan 2020 05:01:59.000,79.352,-79.558,23692.492769
2 Jan 2020 05:02:29.000,79.781,-79.947,23539.442142
2 Jan 2020 05:02:59.000,80.263,-80.351,23392.451935
2 Jan 2020 05:03:29.000,80.806,-80.770,23251.768872
2 Jan 2020 05:03:59.000,81.422,-81.202,23117.633119
2 Jan 2020 05:04:29.000,82.122,-81.648,22990.278453
2 Jan 2020 05:04:59.000,82.923,-82.107,22869.930993
2 Jan 2020 05:05:29.000,83.845,-82.577,22756.807978
2 Jan 2020 05:05:59.000,84.917,-83.058,22651.117625
2 Jan 2020 05:06:29.000,86.172,-83.547,22553.056793
2 Jan 2020 05:06:59.000,87.660,-84.044,22462.810883
2 Jan 2020 05:07:29.000,89.447,-84.547,22380.552498
2 Jan 2020 05:07:59.000,91.625,-85.053,22306.441069
2 Jan 2020 05:08:29.000,94.327,-85.558,22240.621093
2 Jan 2020 05:08:59.000,97.751,-86.059,22183.221889
2 Jan 2020 05:09:29.000,102.189,-86.547,22134.356595
2 Jan 2020 05:09:59.000,108.086,-87.014,22094.121846
2 Jan 2020 05:10:29.000,116.095,-87.443,22062.596608
2 Jan 2020 05:10:59.000,127.057,-87.806,22039.842076
2 Jan 2020 05:11:29.000,141.623,-88.063,22025.901157
2 Jan 2020 05:11:59.000,159.153,-88.166,22020.798306
2 Jan 2020 05:12:29.000,176.947,-88.090,22024.539171
2 Jan 2020 05:12:59.000,192.082,-87.855,22037.110697
2 Jan 2020 05:13:29.000,203.600,-87.506,22058.481205
2 Jan 2020 05:13:59.000,212.039,-87.087,22088.600444
2 Jan 2020 05:14:29.000,218.252,-86.625,22127.400102
2 Jan 2020 05:14:59.000,222.926,-86.140,22174.794117
2 Jan 2020 05:15:29.000,226.535,-85.643,22230.679334
2 Jan 2020 05:15:59.000,229.393,-85.139,22294.935737
2 Jan 2020 05:16:29.000,231.708,-84.635,22367.427732
2 Jan 2020 05:16:59.000,233.623,-84.133,22448.004577
2 Jan 2020 05:17:29.000,235.234,-83.637,22536.501477
2 Jan 2020 05:17:59.000,236.612,-83.148,22632.739904
2 Jan 2020 05:18:29.000,237.808,-82.669,22736.529424
2 Jan 2020 05:18:59.000,238.858,-82.199,22847.668115
2 Jan 2020 05:19:29.000,239.791,-81.741,22965.943718
2 Jan 2020 05:19:59.000,240.628,-81.295,23091.134887
2 Jan 2020 05:20:29.000,241.387,-80.862,23223.011274
2 Jan 2020 05:20:59.000,242.081,-80.444,23361.335917
2 Jan 2020 05:21:29.000,242.720,-80.040,23505.865317
2 Jan 2020 05:21:59.000,243.313,-79.650,23656.350624
2 Jan 2020 05:22:29.000,243.868,-79.276,23812.538569
2 Jan 2020 05:22:59.000,244.390,-78.918,23974.172642
2 Jan 2020 05:23:29.000,244.884,-78.576,24140.992777
2 Jan 2020 05:23:59.000,245.355,-78.250,24312.737889
2 Jan 2020 05:24:29.000,245.805,-77.941,24489.145478
2 Jan 2020 05:24:59.000,246.238,-77.647,24669.952616
2 Jan 2020 05:25:29.000,246.656,-77.371,24854.896599
2 Jan 2020 05:25:59.000,247.062,-77.111,25043.715545
2 Jan 2020 05:26:29.000,247.457,-76.867,25236.148947
2 Jan 2020 05:26:59.000,247.844,-76.640,25431.938484
2 Jan 2020 05:27:29.000,248.223,-76.429,25630.827213
2 Jan 2020 05:27:59.000,248.597,-76.234,25832.561856
2 Jan 2020 05:28:29.000,248.966,-76.056,26036.891914
2 Jan 2020 05:28:40.099,249.102,-75.994,26113.095307
2 Jan 2020 06:47:41.575,114.744,-75.986,26106.542245
2 Jan 2020 06:48:11.000,116.528,-76.061,26014.779533
2 Jan 2020 06:48:41.000,118.385,-76.137,25926.089825
2 Jan 2020 06:49:11.000,120.278,-76.212,25842.420473
2 Jan 2020 06:49:41.000,122.209,-76.285,25763.871242
2 Jan 2020 06:50:11.000,124.175,-76.356,25690.534489
2 Jan 2020 06:50:41.000,126.176,-76.424,25622.494828
2 Jan 2020 06:51:11.000,128.210,-76.489,25559.828684
2 Jan 2020 06:51:41.000,130.276,-76.549,25502.604608
2 Jan 2020 06:52:11.000,132.371,-76.605,25450.882114
2 Jan 2020 06:52:41.000,134.494,-76.657,25404.712060
2 Jan 2020 06:53:11.000,136.642,-76.703,25364.136307
2 Jan 2020 06:53:41.000,138.811,-76.743,25329.187542
2 Jan 2020 06:54:11.000,141.001,-76.777,25299.889071
2 Jan 2020 06:54:41.000,143.206,-76.805,25276.255077
2 Jan 2020 06:55:11.000,145.424,-76.827,25258.290010
2 Jan 2020 06:55:41.000,147.652,-76.842,25245.988942
2 Jan 2020 06:56:11.000,149.886,-76.850,25239.337492
2 Jan 2020 06:56:41.000,152.123,-76.851,25238.311873
2 Jan 2020 06:57:11.000,154.359,-76.846,25242.878957
2 Jan 2020 06:57:41.000,156.591,-76.834,25252.996528
2 Jan 2020 06:58:11.000,158.816,-76.815,25268.613241
2 Jan 2020 06:58:41.000,161.030,-76.790,25289.668964
2 Jan 2020 06:59:11.000,163.230,-76.759,25316.094968
2 Jan 2020 06:59:41.000,165.415,-76.723,25347.814183
2 Jan 2020 07:00:11.000,167.580,-76.681,25384.741518
2 Jan 2020 07:00:41.000,169.724,-76.634,25426.784070
2 Jan 2020 07:01:11.000,171.845,-76.582,25473.841597
2 Jan 2020 07:01:41.000,173.941,-76.527,25525.806791
2 Jan 2020 07:02:11.000,176.010,-76.468,25582.565670
2 Jan 2020 07:02:41.000,178.051,-76.405,25643.997968
2 Jan 2020 07:03:11.000,180.064,-76.340,25709.977533
2 Jan 2020 07:03:41.000,182.047,-76.273,25780.372819
2 Jan 2020 07:04:11.000,184.000,-76.204,25855.046972
2 Jan 2020 07:04:41.000,185.922,-76.134,25933.858735
2 Jan 2020 07:05:11.000,187.814,-76.063,26016.662547
2 Jan 2020 07:05:41.000,189.676,-75.993,26103.309040
2 Jan 2020 07:05:42.201,189.750,-75.990,26106.854518
2 Jan 2020 09:49:31.499,1.865,-75.983,26103.217692
2 Jan 2020 09:50:01.000,3.775,-76.034,26040.134227
2 Jan 2020 09:50:31.000,5.740,-76.084,25980.130769
2 Jan 2020 09:51:01.000,7.728,-76.132,25924.430677
2 Jan 2020 09:51:31.000,9.738,-76.178,25873.150806
2 Jan 2020 09:52:01.000,11.769,-76.220,25826.402433
2 Jan 2020 09:52:31.000,13.818,-76.259,25784.290900
2 Jan 2020 09:53:01.000,15.886,-76.294,25746.915272
2 Jan 2020 09:53:31.000,17.969,-76.325,25714.367997
2 Jan 2020 09:54:01.000,20.066,-76.352,25686.734638
2 Jan 2020 09:54:31.000,22.175,-76.374,25664.093495
2 Jan 2020 09:55:01.000,24.293,-76.392,25646.515391
2 Jan 2020 09:55:31.000,26.419,-76.404,25634.063405
2 Jan 2020 09:56:01.000,28.549,-76.412,25626.792646
2 Jan 2020 09:56:31.000,30.681,-76.414,25624.750088
2 Jan 2020 09:57:01.000,32.813,-76.410,25627.974254
2 Jan 2020 09:57:31.000,34.941,-76.402,25636.495281
2 Jan 2020 09:58:01.000,37.063,-76.388,25650.334678
2 Jan 2020 09:58:31.000,39.176,-76.369,25669.505279
2 Jan 2020 09:59:01.000,41.278,-76.345,25694.011194
2 Jan 2020 09:59:31.000,43.367,-76.316,25723.847885
2 Jan 2020 10:00:01.000,45.438,-76.282,25759.001835
2 Jan 2020 10:00:31.000,47.491,-76.244,25799.451112
2 Jan 2020 10:01:01.000,49.524,-76.202,25845.165117
2 Jan 2020 10:01:31.000,51.533,-76.156,25896.104780
2 Jan 2020 10:02:01.000,53.518,-76.107,25952.222699
2 Jan 2020 10:02:31.000,55.477,-76.055,26013.463454
2 Jan 2020 10:03:01.000,57.408,-76.001,26079.763270
2 Jan 2020 10:03:11.094,58.051,-75.982,26103.195048
2 Jan 2020 11:23:57.735,293.620,-75.989,26108.808619
2 Jan 2020 11:24:27.000,294.120,-76.154,25911.732908
2 Jan 2020 11:24:57.000,294.643,-76.339,25712.147666
2 Jan 2020 11:25:27.000,295.178,-76.539,25515.276524
2 Jan 2020 11:25:57.000,295.726,-76.755,25321.369127
2 Jan 2020 11:26:27.000,296.292,-76.987,25130.677938
2 Jan 2020 11:26:57.000,296.876,-77.234,24943.457852
2 Jan 2020 11:27:27.000,297.481,-77.498,24759.965766
2 Jan 2020 11:27:57.000,298.112,-77.777,24580.460110
2 Jan 2020 11:28:27.000,298.772,-78.071,24405.200040
2 Jan 2020 11:28:57.000,299.465,-78.381,24234.445994
2 Jan 2020 11:29:27.000,300.196,-78.706,24068.457372
2 Jan 2020 11:29:57.000,300.971,-79.046,23907.493007
2 Jan 2020 11:30:27.000,301.797,-79.401,23751.810152
2 Jan 2020 11:30:57.000,302.682,-79.770,23601.663717
2 Jan 2020 11:31:27.000,303.635,-80.152,23457.305209
2 Jan 2020 11:31:57.000,304.668,-80.548,23318.982865
2 Jan 2020 11:32:27.000,305.796,-80.955,23186.939255
2 Jan 2020 11:32:57.000,307.035,-81.374,23061.411367
2 Jan 2020 11:33:27.000,308.406,-81.803,22942.629391
2 Jan 2020 11:33:57.000,309.935,-82.240,22830.815555
2 Jan 2020 11:34:27.000,311.655,-82.685,22726.183901
2 Jan 2020 11:34:57.000,313.606,-83.135,22628.938119
2 Jan 2020 11:35:27.000,315.841,-83.588,22539.271352
2 Jan 2020 11:35:57.000,318.426,-84.041,22457.364897
2 Jan 2020 11:36:27.000,321.447,-84.490,22383.387754
2 Jan 2020 11:36:57.000,325.012,-84.931,22317.494955
2 Jan 2020 11:37:27.000,329.260,-85.357,22259.827219
2 Jan 2020 11:37:57.000,334.358,-85.760,22210.509952
2 Jan 2020 11:38:27.000,340.496,-86.129,22169.652810
2 Jan 2020 11:38:57.000,347.855,-86.451,22137.348578
2 Jan 2020 11:39:27.000,356.539,-86.709,22113.672945
2 Jan 2020 11:39:57.000,6.453,-86.883,22098.683940
2 Jan 2020 11:40:27.000,17.203,-86.959,22092.421632
2 Jan 2020 11:40:57.000,28.116,-86.929,22094.907782
2 Jan 2020 11:41:27.000,38.453,-86.794,22106.145795
2 Jan 2020 11:41:57.000,47.684,-86.570,22126.120737
2 Jan 2020 11:42:27.000,55.593,-86.272,22154.799228
2 Jan 2020 11:42:57.000,62.212,-85.920,22192.129946
2 Jan 2020 11:43:27.000,67.700,-85.528,22238.043782
2 Jan 2020 11:43:57.000,72.248,-85.109,22292.454427
2 Jan 2020 11:44:27.000,76.037,-84.671,22355.258457
2 Jan 2020 11:44:57.000,79.216,-84.222,22426.336613
2 Jan 2020 11:45:27.000,81.907,-83.767,22505.554084
2 Jan 2020 11:45:57.000,84.206,-83.311,22592.761557
2 Jan 2020 11:46:27.000,86.185,-82.856,22687.795417
2 Jan 2020 11:46:57.000,87.904,-82.405,22790.479577
2 Jan 2020 11:47:27.000,89.407,-81.961,22900.625804
2 Jan 2020 11:47:57.000,90.731,-81.524,23018.034823
2 Jan 2020 11:48:27.000,91.903,-81.097,23142.497550
2 Jan 2020 11:48:57.000,92.947,-80.681,23273.795082
2 Jan 2020 11:49:27.000,93.881,-80.277,23411.701154
2 Jan 2020 11:49:57.000,94.721,-79.885,23555.982141
2 Jan 2020 11:50:27.000,95.479,-79.507,23706.398253
2 Jan 2020 11:50:57.000,96.164,-79.143,23862.704455
2 Jan 2020 11:51:27.000,96.787,-78.793,24024.651683
2 Jan 2020 11:51:57.000,97.353,-78.459,24191.986446
2 Jan 2020 11:52:27.000,97.870,-78.140,24364.453504
2 Jan 2020 11:52:57.000,98.342,-77.837,24541.795409
2 Jan 2020 11:53:27.000,98.773,-77.549,24723.753532
2 Jan 2020 11:53:57.000,99.169,-77.278,24910.068739
2 Jan 2020 11:54:27.000,99.530,-77.022,25100.482019
2 Jan 2020 11:54:57.000,99.862,-76.783,25294.735059
2 Jan 2020 11:55:27.000,100.166,-76.560,25492.571118
2 Jan 2020 11:55:57.000,100.444,-76.353,25693.734131
2 Jan 2020 11:56:27.000,100.698,-76.163,25897.971200
2 Jan 2020 11:56:57.000,100.930,-75.988,26105.031622
2 Jan 2020 11:56:57.621,100.935,-75.985,26109.344494
2 Jan 2020 13:12:41.710,261.613,-75.993,26116.136549
2 Jan 2020 13:13:11.000,260.310,-76.120,25962.060980
2 Jan 2020 13:13:41.000,258.925,-76.258,25808.345941
2 Jan 2020 13:14:11.000,257.485,-76.402,25658.971615
2 Jan 2020 13:14:41.000,255.989,-76.552,25514.133512
2 Jan 2020 13:15:11.000,254.432,-76.707,25374.023729
2 Jan 2020 13:15:41.000,252.814,-76.865,25238.830404
2 Jan 2020 13:16:11.000,251.130,-77.028,25108.736912
2 Jan 2020 13:16:41.000,249.378,-77.192,24983.922259
2 Jan 2020 13:17:11.000,247.555,-77.359,24864.559030
2 Jan 2020 13:17:41.000,245.660,-77.525,24750.813787
2 Jan 2020 13:18:11.000,243.689,-77.692,24642.846218
2 Jan 2020 13:18:41.000,241.641,-77.856,24540.808553
2 Jan 2020 13:19:11.000,239.515,-78.018,24444.844764
2 Jan 2020 13:19:41.000,237.310,-78.175,24355.090846
2 Jan 2020 13:20:11.000,235.025,-78.327,24271.672963
2 Jan 2020 13:20:41.000,232.661,-78.473,24194.707790
2 Jan 2020 13:21:11.000,230.220,-78.611,24124.301781
2 Jan 2020 13:21:41.000,227.704,-78.739,24060.550558
2 Jan 2020 13:22:11.000,225.116,-78.858,24003.539037
2 Jan 2020 13:22:41.000,222.461,-78.964,23953.340165
2 Jan 2020 13:23:11.000,219.744,-79.059,23910.015163
2 Jan 2020 13:23:41.000,216.972,-79.139,23873.613076
2 Jan 2020 13:24:11.000,214.154,-79.205,23844.170444
2 Jan 2020 13:24:41.000,211.297,-79.257,23821.711467
2 Jan 2020 13:25:11.000,208.412,-79.292,23806.247335
2 Jan 2020 13:25:41.000,205.508,-79.312,23797.776539
2 Jan 2020 13:26:11.000,202.596,-79.315,23796.284769
2 Jan 2020 13:26:41.000,199.688,-79.302,23801.744957
2 Jan 2020 13:27:11.000,196.792,-79.273,23814.117494
2 Jan 2020 13:27:41.000,193.920,-79.229,23833.350252
2 Jan 2020 13:28:11.000,191.081,-79.170,23859.378946
2 Jan 2020 13:28:41.000,188.282,-79.097,23892.127404
2 Jan 2020 13:29:11.000,185.533,-79.010,23931.507953
2 Jan 2020 13:29:41.000,182.839,-78.911,23977.421677
2 Jan 2020 13:30:11.000,180.206,-78.801,24029.759062
2 Jan 2020 13:30:41.000,177.638,-78.681,24088.400366
2 Jan 2020 13:31:11.000,175.137,-78.552,24153.216157
2 Jan 2020 13:31:41.000,172.707,-78.415,24224.067961
2 Jan 2020 13:32:11.000,170.348,-78.271,24300.808488
2 Jan 2020 13:32:41.000,168.060,-78.122,24383.282729
2 Jan 2020 13:33:11.000,165.844,-77.970,24471.328239
2 Jan 2020 13:33:41.000,163.697,-77.814,24564.775833
2 Jan 2020 13:34:11.000,161.619,-77.656,24663.450208
2 Jan 2020 13:34:41.000,159.608,-77.498,24767.170705
2 Jan 2020 13:35:11.000,157.660,-77.339,24875.751345
2 Jan 2020 13:35:41.000,155.774,-77.182,24989.002294
2 Jan 2020 13:36:11.000,153.947,-77.027,25106.729891
2 Jan 2020 13:36:41.000,152.176,-76.874,25228.737360
2 Jan 2020 13:37:11.000,150.459,-76.725,25354.825374
2 Jan 2020 13:37:41.000,148.792,-76.579,25484.792583
2 Jan 2020 13:38:11.000,147.172,-76.439,25618.436138
2 Jan 2020 13:38:41.000,145.597,-76.304,25755.552374
2 Jan 2020 13:39:11.000,144.064,-76.174,25895.936476
2 Jan 2020 13:39:41.000,142.569,-76.050,26039.384109
2 Jan 2020 13:39:56.807,141.797,-75.988,26116.131152
2 Jan 2020 17:53:29.130,53.643,-75.992,26118.010921
2 Jan 2020 17:53:59.000,52.588,-76.141,25940.009729
2 Jan 2020 17:54:29.000,51.499,-76.302,25763.800852
2 Jan 2020 17:54:59.000,50.377,-76.474,25590.396452
2 Jan 2020 17:55:29.000,49.217,-76.657,25420.028744
2 Jan 2020 17:55:59.000,48.017,-76.851,25252.931693
2 Jan 2020 17:56:29.000,46.771,-77.056,25089.340596
2 Jan 2020 17:56:59.000,45.476,-77.271,24929.491639
2 Jan 2020 17:57:29.000,44.126,-77.496,24773.621402
2 Jan 2020 17:57:59.000,42.716,-77.729,24621.966112
2 Jan 2020 17:58:29.000,41.240,-77.972,24474.761988
2 Jan 2020 17:58:59.000,39.690,-78.222,24332.243252
2 Jan 2020 17:59:29.000,38.061,-78.480,24194.642416
2 Jan 2020 17:59:59.000,36.344,-78.743,24062.189372
2 Jan 2020 18:00:29.000,34.532,-79.012,23935.110677
2 Jan 2020 18:00:59.000,32.613,-79.284,23813.628636
2 Jan 2020 18:01:29.000,30.581,-79.558,23697.961262
2 Jan 2020 18:01:59.000,28.423,-79.834,23588.320371
2 Jan 2020 18:02:29.000,26.130,-80.108,23484.911526
2 Jan 2020 18:02:59.000,23.690,-80.380,23387.933030
2 Jan 2020 18:03:29.000,21.094,-80.646,23297.574967
2 Jan 2020 18:03:59.000,18.331,-80.905,23214.018907
2 Jan 2020 18:04:29.000,15.393,-81.154,23137.436288
2 Jan 2020 18:04:59.000,12.273,-81.390,23067.988165
2 Jan 2020 18:05:29.000,8.965,-81.611,23005.824300
2 Jan 2020 18:05:59.000,5.471,-81.813,22951.082351
2 Jan 2020 18:06:29.000,1.795,-81.994,22903.887481
2 Jan 2020 18:06:59.000,357.948,-82.150,22864.351236
2 Jan 2020 18:07:29.000,353.947,-82.279,22832.571290
2 Jan 2020 18:07:59.000,349.815,-82.379,22808.630825
2 Jan 2020 18:08:29.000,345.586,-82.446,22792.598137
2 Jan 2020 18:08:59.000,341.294,-82.481,22784.526168
2 Jan 2020 18:09:29.000,336.982,-82.481,22784.452290
2 Jan 2020 18:09:59.000,332.690,-82.447,22792.398133
2 Jan 2020 18:10:29.000,328.460,-82.380,22808.369303
2 Jan 2020 18:10:59.000,324.330,-82.281,22832.355592
2 Jan 2020 18:11:29.000,320.332,-82.151,22864.330907
2 Jan 2020 18:11:59.000,316.491,-81.994,22904.253561
2 Jan 2020 18:12:29.000,312.827,-81.811,22952.066143
2 Jan 2020 18:12:59.000,309.350,-81.606,23007.696394
2 Jan 2020 18:13:29.000,306.068,-81.381,23071.057268
2 Jan 2020 18:13:59.000,302.981,-81.140,23142.047641
2 Jan 2020 18:14:29.000,300.086,-80.886,23220.552305
2 Jan 2020 18:14:59.000,297.375,-80.621,23306.443398
2 Jan 2020 18:15:29.000,294.841,-80.348,23399.580528
2 Jan 2020 18:15:59.000,292.473,-80.070,23499.811614
2 Jan 2020 18:16:29.000,290.262,-79.788,23606.973855
2 Jan 2020 18:16:59.000,288.197,-79.505,23720.893600
2 Jan 2020 18:17:29.000,286.267,-79.222,23841.388462
2 Jan 2020 18:17:59.000,284.462,-78.942,23968.267251
2 Jan 2020 18:18:29.000,282.773,-78.666,24101.330989
2 Jan 2020 18:18:59.000,281.190,-78.395,24240.373955
2 Jan 2020 18:19:29.000,279.705,-78.130,24385.183510
2 Jan 2020 18:19:59.000,278.310,-77.872,24535.542311
2 Jan 2020 18:20:29.000,276.998,-77.623,24691.228117
2 Jan 2020 18:20:59.000,275.763,-77.383,24852.014756
2 Jan 2020 18:21:29.000,274.598,-77.153,25017.672828
2 Jan 2020 18:21:59.000,273.498,-76.934,25187.970378
2 Jan 2020 18:22:29.000,272.459,-76.725,25362.673850
2 Jan 2020 18:22:59.000,271.475,-76.528,25541.547414
2 Jan 2020 18:23:29.000,270.543,-76.343,25724.355439
2 Jan 2020 18:23:59.000,269.658,-76.170,25910.861754
2 Jan 2020 18:24:29.000,268.817,-76.009,26100.830456
2 Jan 2020 18:24:31.627,268.746,-75.996,26117.620870
2 Jan 2020 19:39:31.001,87.569,-75.988,26110.947669
2 Jan 2020 19:40:01.000,88.335,-76.150,25917.675492
2 Jan 2020 19:40:31.000,89.143,-76.325,25727.751547
2 Jan 2020 19:41:01.000,89.996,-76.514,25541.419453
2 Jan 2020 19:41:31.000,90.898,-76.714,25358.918532
2 Jan 2020 19:42:01.000,91.853,-76.927,25180.488302
2 Jan 2020 19:42:31.000,92.866,-77.152,25006.367964
2 Jan 2020 19:43:01.000,93.940,-77.388,24836.795847
2 Jan 2020 19:43:31.000,95.083,-77.636,24672.008517
2 Jan 2020 19:44:01.000,96.299,-77.893,24512.241360
2 Jan 2020 19:44:31.000,97.596,-78.160,24357.726085
2 Jan 2020 19:45:01.000,98.981,-78.435,24208.691248
2 Jan 2020 19:45:31.000,100.462,-78.718,24065.361214
2 Jan 2020 19:46:01.000,102.049,-79.008,23927.955389
2 Jan 2020 19:46:31.000,103.750,-79.303,23796.687170
2 Jan 2020 19:47:01.000,105.576,-79.602,23671.764219
2 Jan 2020 19:47:31.000,107.540,-79.903,23553.385998
2 Jan 2020 19:48:01.000,109.654,-80.204,23441.744051
2 Jan 2020 19:48:31.000,111.930,-80.504,23337.020889
2 Jan 2020 19:49:01.000,114.381,-80.800,23239.388970
2 Jan 2020 19:49:31.000,117.022,-81.089,23149.010699
2 Jan 2020 19:50:01.000,119.865,-81.369,23066.036406
2 Jan 2020 19:50:31.000,122.921,-81.637,22990.604427
2 Jan 2020 19:51:01.000,126.200,-81.890,22922.840052
2 Jan 2020 19:51:31.000,129.705,-82.125,22862.855371
2 Jan 2020 19:52:01.000,133.437,-82.337,22810.747875
2 Jan 2020 19:52:31.000,137.387,-82.524,22766.600452
2 Jan 2020 19:53:01.000,141.542,-82.681,22730.480694
2 Jan 2020 19:53:31.000,145.874,-82.807,22702.440834
2 Jan 2020 19:54:01.000,150.350,-82.899,22682.516925
2 Jan 2020 19:54:31.000,154.926,-82.953,22670.728972
2 Jan 2020 19:55:01.000,159.552,-82.971,22667.080693
2 Jan 2020 19:55:31.000,164.177,-82.950,22671.559583
2 Jan 2020 19:56:01.000,168.746,-82.892,22684.136804
2 Jan 2020 19:56:31.000,173.213,-82.797,22704.767466
2 Jan 2020 19:57:01.000,177.535,-82.670,22733.390876
2 Jan 2020 19:57:31.000,181.680,-82.511,22769.930749
2 Jan 2020 19:58:01.000,185.624,-82.324,22814.295792
2 Jan 2020 19:58:31.000,189.356,-82.112,22866.380106
2 Jan 2020 19:59:01.000,192.868,-81.880,22926.063861
2 Jan 2020 19:59:31.000,196.161,-81.630,22993.213612
2 Jan 2020 20:00:01.000,199.242,-81.366,23067.683448
2 Jan 2020 20:00:31.000,202.121,-81.090,23149.315444
2 Jan 2020 20:01:01.000,204.808,-80.807,23237.940501
2 Jan 2020 20:01:31.000,207.317,-80.517,23333.379326
2 Jan 2020 20:02:01.000,209.662,-80.224,23435.442628
2 Jan 2020 20:02:31.000,211.855,-79.930,23543.932891
2 Jan 2020 20:03:01.000,213.911,-79.637,23658.644619
2 Jan 2020 20:03:31.000,215.840,-79.346,23779.365336
2 Jan 2020 20:04:01.000,217.654,-79.059,23905.876420
2 Jan 2020 20:04:31.000,219.365,-78.778,24037.954162
2 Jan 2020 20:05:01.000,220.982,-78.503,24175.369656
2 Jan 2020 20:05:31.000,222.513,-78.235,24317.890926
2 Jan 2020 20:06:01.000,223.967,-77.976,24465.282783
2 Jan 2020 20:06:31.000,225.351,-77.725,24617.307757
2 Jan 2020 20:07:01.000,226.671,-77.485,24773.726777
2 Jan 2020 20:07:31.000,227.935,-77.254,24934.299805
2 Jan 2020 20:08:01.000,229.147,-77.034,25098.786438
2 Jan 2020 20:08:31.000,230.312,-76.826,25266.946749
2 Jan 2020 20:09:01.000,231.436,-76.629,25438.540675
2 Jan 2020 20:09:31.000,232.521,-76.443,25613.330180
2 Jan 2020 20:10:01.000,233.572,-76.269,25791.078572
2 Jan 2020 20:10:31.000,234.592,-76.108,25971.551182
2 Jan 2020 20:10:53.834,235.349,-75.993,26110.594885
3 Jan 2020 00:24:38.454,324.224,-75.985,26104.906950
3 Jan 2020 00:25:08.000,325.723,-76.099,25967.243709
3 Jan 2020 00:25:38.000,327.284,-76.220,25830.469100
3 Jan 2020 00:26:08.000,328.884,-76.347,25696.919208
3 Jan 2020 00:26:38.000,330.528,-76.478,25566.794050
3 Jan 2020 00:27:08.000,332.217,-76.613,25440.292984
3 Jan 2020 00:27:38.000,333.953,-76.752,25317.614254
3 Jan 2020 00:28:08.000,335.740,-76.893,25198.954512
3 Jan 2020 00:28:38.000,337.580,-77.038,25084.508319
3 Jan 2020 00:29:08.000,339.476,-77.183,24974.467469
3 Jan 2020 00:29:38.000,341.429,-77.329,24869.021079
3 Jan 2020 00:30:08.000,343.441,-77.476,24768.354073
3 Jan 2020 00:30:38.000,345.515,-77.621,24672.647254
3 Jan 2020 00:31:08.000,347.651,-77.764,24582.076566
3 Jan 2020 00:31:38.000,349.852,-77.904,24496.812493
3 Jan 2020 00:32:08.000,352.117,-78.040,24417.019377
3 Jan 2020 00:32:38.000,354.446,-78.171,24342.855213
3 Jan 2020 00:33:08.000,356.838,-78.295,24274.470453
3 Jan 2020 00:33:38.000,359.293,-78.412,24212.007844
3 Jan 2020 00:34:08.000,1.808,-78.521,24155.601747
3 Jan 2020 00:34:38.000,4.380,-78.620,24105.377554
3 Jan 2020 00:35:08.000,7.004,-78.708,24061.451344
3 Jan 2020 00:35:38.000,9.676,-78.785,24023.929096
3 Jan 2020 00:36:08.000,12.389,-78.850,23992.906436
3 Jan 2020 00:36:38.000,15.137,-78.902,23968.468161
3 Jan 2020 00:37:08.000,17.913,-78.940,23950.687864
3 Jan 2020 00:37:38.000,20.707,-78.963,23939.627578
3 Jan 2020 00:38:08.000,23.511,-78.973,23935.337521
3 Jan 2020 00:38:38.000,26.315,-78.967,23937.855855
3 Jan 2020 00:39:08.000,29.112,-78.947,23947.208519
3 Jan 2020 00:39:38.000,31.891,-78.912,23963.409179
3 Jan 2020 00:40:08.000,34.644,-78.863,23986.458908
3 Jan 2020 00:40:38.000,37.362,-78.801,24016.346572
3 Jan 2020 00:41:08.000,40.038,-78.725,24053.048649
3 Jan 2020 00:41:38.000,42.665,-78.637,24096.529409
3 Jan 2020 00:42:08.000,45.236,-78.537,24146.741219
3 Jan 2020 00:42:38.000,47.747,-78.427,24203.624275
3 Jan 2020 00:43:08.000,50.194,-78.307,24267.107621
3 Jan 2020 00:43:38.000,52.573,-78.180,24337.109002
3 Jan 2020 00:44:08.000,54.882,-78.044,24413.535358
3 Jan 2020 00:44:38.000,57.120,-77.903,24496.283413
3 Jan 2020 00:45:08.000,59.285,-77.757,24585.239448
3 Jan 2020 00:45:38.000,61.378,-77.607,24680.280790
3 Jan 2020 00:46:08.000,63.399,-77.455,24781.275661
3 Jan 2020 00:46:38.000,65.349,-77.301,24888.083871
3 Jan 2020 00:47:08.000,67.230,-77.146,25000.557366
3 Jan 2020 00:47:38.000,69.043,-76.992,25118.541029
3 Jan 2020 00:48:08.000,70.790,-76.839,25241.872289
3 Jan 2020 00:48:38.000,72.473,-76.689,25370.383109
3 Jan 2020 00:49:08.000,74.095,-76.542,25503.899616
3 Jan 2020 00:49:38.000,75.658,-76.398,25642.242895
3 Jan 2020 00:50:08.000,77.164,-76.260,25785.229542
3 Jan 2020 00:50:38.000,78.616,-76.127,25932.672204
3 Jan 2020 00:51:08.000,80.017,-75.999,26084.380381
3 Jan 2020 00:51:12.032,80.201,-75.983,26105.084099
3 Jan 2020 02:07:08.527,282.002,-75.990,26111.380746
3 Jan 2020 02:07:38.000,281.841,-76.162,25907.197675
3 Jan 2020 02:08:08.000,281.658,-76.353,25702.102304
3 Jan 2020 02:08:38.000,281.454,-76.560,25500.022033
3 Jan 2020 02:09:08.000,281.229,-76.783,25301.210828
3 Jan 2020 02:09:38.000,280.979,-77.023,25105.924957
3 Jan 2020 02:10:08.000,280.703,-77.280,24914.422570
3 Jan 2020 02:10:38.000,280.400,-77.553,24726.963220
3 Jan 2020 02:11:08.000,280.065,-77.842,24543.807350
3 Jan 2020 02:11:38.000,279.696,-78.147,24365.215393
3 Jan 2020 02:12:08.000,279.289,-78.469,24191.448466
3 Jan 2020 02:12:38.000,278.839,-78.807,24022.765725
3 Jan 2020 02:13:08.000,278.343,-79.160,23859.424970
3 Jan 2020 02:13:38.000,277.792,-79.529,23701.681549
3 Jan 2020 02:14:08.000,277.181,-79.912,23549.787539
3 Jan 2020 02:14:38.000,276.500,-80.310,23403.990622
3 Jan 2020 02:15:08.000,275.739,-80.721,23264.534305
3 Jan 2020 02:15:38.000,274.884,-81.145,23131.655292
3 Jan 2020 02:16:08.000,273.919,-81.582,23005.583672
3 Jan 2020 02:16:38.000,272.824,-82.029,22886.541651
3 Jan 2020 02:17:08.000,271.572,-82.486,22774.742346
3 Jan 2020 02:17:38.000,270.131,-82.952,22670.389655
3 Jan 2020 02:18:08.000,268.459,-83.424,22573.675938
3 Jan 2020 02:18:38.000,266.499,-83.900,22484.781940
3 Jan 2020 02:19:08.000,264.177,-84.378,22403.875467
3 Jan 2020 02:19:38.000,261.395,-84.855,22331.111044
3 Jan 2020 02:20:08.000,258.017,-85.325,22266.628175
3 Jan 2020 02:20:38.000,253.863,-85.783,22210.551128
3 Jan 2020 02:21:08.000,248.690,-86.219,22162.987965
3 Jan 2020 02:21:38.000,242.191,-86.623,22124.030249
3 Jan 2020 02:22:08.000,234.025,-86.976,22093.751911
3 Jan 2020 02:22:38.000,223.925,-87.257,22072.209182
3 Jan 2020 02:23:08.000,211.958,-87.438,22059.440105
3 Jan 2020 02:23:38.000,198.811,-87.497,22055.464406
3 Jan 2020 02:24:08.000,185.732,-87.425,22060.283168
3 Jan 2020 02:24:38.000,173.930,-87.233,22073.878963
3 Jan 2020 02:25:08.000,164.019,-86.944,22096.215959
3 Jan 2020 02:25:38.000,156.016,-86.586,22127.239996
3 Jan 2020 02:26:08.000,149.638,-86.180,22166.879118
3 Jan 2020 02:26:38.000,144.543,-85.742,22215.043902
3 Jan 2020 02:27:08.000,140.430,-85.285,22271.628129
3 Jan 2020 02:27:38.000,137.064,-84.816,22336.509035
3 Jan 2020 02:28:08.000,134.269,-84.341,22409.548590
3 Jan 2020 02:28:38.000,131.915,-83.865,22490.593943
3 Jan 2020 02:29:08.000,129.906,-83.392,22579.478510
3 Jan 2020 02:29:38.000,128.170,-82.923,22676.022307
3 Jan 2020 02:30:08.000,126.652,-82.461,22780.033753
3 Jan 2020 02:30:38.000,125.311,-82.008,22891.310096
3 Jan 2020 02:31:08.000,124.115,-81.564,23009.638545
3 Jan 2020 02:31:38.000,123.039,-81.132,23134.797510
3 Jan 2020 02:32:08.000,122.062,-80.712,23266.556690
3 Jan 2020 02:32:38.000,121.169,-80.305,23404.679416
3 Jan 2020 02:33:08.000,120.347,-79.911,23548.922733
3 Jan 2020 02:33:38.000,119.584,-79.532,23699.038566
3 Jan 2020 02:34:08.000,118.873,-79.168,23854.774628
3 Jan 2020 02:34:38.000,118.205,-78.818,24015.875583
3 Jan 2020 02:35:08.000,117.575,-78.484,24182.082733
3 Jan 2020 02:35:38.000,116.977,-78.166,24353.136499
3 Jan 2020 02:36:08.000,116.408,-77.863,24528.776039
3 Jan 2020 02:36:38.000,115.862,-77.577,24708.740206
3 Jan 2020 02:37:08.000,115.338,-77.307,24892.768186
3 Jan 2020 02:37:38.000,114.831,-77.052,25080.600087
3 Jan 2020 02:38:08.000,114.340,-76.814,25271.977466
3 Jan 2020 02:38:38.000,113.862,-76.592,25466.643822
3 Jan 2020 02:39:08.000,113.395,-76.386,25664.345372
3 Jan 2020 02:39:38.000,112.938,-76.196,25864.830088
3 Jan 2020 02:40:08.000,112.488,-76.021,26067.850072
3 Jan 2020 02:40:14.471,112.392,-75.986,26111.952414
3 Jan 2020 04:00:06.965,241.685,-75.993,26118.390250
3 Jan 2020 04:00:36.000,239.869,-76.056,26040.373088
3 Jan 2020 04:01:06.000,237.961,-76.120,25964.669514
3 Jan 2020 04:01:36.000,236.020,-76.182,25894.038896
3 Jan 2020 04:02:06.000,234.049,-76.242,25828.560092
3 Jan 2020 04:02:36.000,232.048,-76.298,25768.304134
3 Jan 2020 04:03:06.000,230.019,-76.351,25713.333971
3 Jan 2020 04:03:36.000,227.964,-76.400,25663.704122
3 Jan 2020 04:04:06.000,225.885,-76.444,25619.460973
3 Jan 2020 04:04:36.000,223.784,-76.484,25580.641839
3 Jan 2020 04:05:06.000,221.664,-76.519,25547.275344
3 Jan 2020 04:05:36.000,219.527,-76.548,25519.381175
3 Jan 2020 04:06:06.000,217.376,-76.572,25496.970013
3 Jan 2020 04:06:36.000,215.214,-76.590,25480.043416
3 Jan 2020 04:07:06.000,213.044,-76.603,25468.594089
3 Jan 2020 04:07:36.000,210.869,-76.609,25462.605491
3 Jan 2020 04:08:06.000,208.692,-76.610,25462.052179
3 Jan 2020 04:08:36.000,206.515,-76.604,25466.899837
3 Jan 2020 04:09:06.000,204.342,-76.593,25477.105404
3 Jan 2020 04:09:36.000,202.177,-76.576,25492.617221
3 Jan 2020 04:10:06.000,200.020,-76.554,25513.375279
3 Jan 2020 04:10:36.000,197.876,-76.526,25539.311351
3 Jan 2020 04:11:06.000,195.746,-76.493,25570.349313
3 Jan 2020 04:11:36.000,193.633,-76.456,25606.405394
3 Jan 2020 04:12:06.000,191.538,-76.414,25647.388482
3 Jan 2020 04:12:36.000,189.464,-76.368,25693.200479
3 Jan 2020 04:13:06.000,187.413,-76.319,25743.736493
3 Jan 2020 04:13:36.000,185.385,-76.267,25798.885403
3 Jan 2020 04:14:06.000,183.381,-76.212,25858.530091
3 Jan 2020 04:14:36.000,181.404,-76.154,25922.547853
3 Jan 2020 04:15:06.000,179.452,-76.095,25990.810790
3 Jan 2020 04:15:36.000,177.528,-76.034,26063.186190
3 Jan 2020 04:15:57.724,176.151,-75.990,26118.086358
3 Jan 2020 06:59:37.672,4.743,-75.996,26121.383794
3 Jan 2020 07:00:07.000,2.886,-76.058,26046.063074
3 Jan 2020 07:00:37.000,0.959,-76.119,25972.957846
3 Jan 2020 07:01:07.000,359.005,-76.180,25903.977043
3 Jan 2020 07:01:37.000,357.024,-76.239,25839.254510
3 Jan 2020 07:02:07.000,355.016,-76.295,25778.919281
3 Jan 2020 07:02:37.000,352.984,-76.349,25723.095181
3 Jan 2020 07:03:07.000,350.927,-76.399,25671.900438
3 Jan 2020 07:03:37.000,348.848,-76.446,25625.447262
3 Jan 2020 07:04:07.000,346.748,-76.489,25583.841627
3 Jan 2020 07:04:37.000,344.628,-76.527,25547.182668
3 Jan 2020 07:05:07.000,342.491,-76.561,25515.562511
3 Jan 2020 07:05:37.000,340.339,-76.589,25489.065900
3 Jan 2020 07:06:07.000,338.175,-76.613,25467.769897
3 Jan 2020 07:06:37.000,336.001,-76.630,25451.743617
3 Jan 2020 07:07:07.000,333.819,-76.642,25441.047911
3 Jan 2020 07:07:37.000,331.634,-76.648,25435.735225
3 Jan 2020 07:08:07.000,329.447,-76.648,25435.849348
3 Jan 2020 07:08:37.000,327.262,-76.642,25441.425269
3 Jan 2020 07:09:07.000,325.083,-76.630,25452.489034
3 Jan 2020 07:09:37.000,322.911,-76.612,25469.057723
3 Jan 2020 07:10:07.000,320.751,-76.588,25491.139109
3 Jan 2020 07:10:37.000,318.604,-76.558,25518.732033
3 Jan 2020 07:11:07.000,316.475,-76.523,25551.826148
3 Jan 2020 07:11:37.000,314.364,-76.483,25590.402025
3 Jan 2020 07:12:07.000,312.276,-76.438,25634.431229
3 Jan 2020 07:12:37.000,310.213,-76.388,25683.876553
3 Jan 2020 07:13:07.000,308.175,-76.334,25738.691674
3 Jan 2020 07:13:37.000,306.166,-76.277,25798.822044
3 Jan 2020 07:14:07.000,304.187,-76.217,25864.204619
3 Jan 2020 07:14:37.000,302.239,-76.154,25934.768210
3 Jan 2020 07:15:07.000,300.323,-76.089,26010.433739
3 Jan 2020 07:15:37.000,298.441,-76.022,26091.114670
3 Jan 2020 07:15:47.796,297.773,-75.998,26121.357491
3 Jan 2020 08:35:33.434,67.815,-75.991,26115.676173
3 Jan 2020 08:36:03.000,67.384,-76.160,25914.817285
3 Jan 2020 08:36:33.000,66.940,-76.347,25713.478725
