STKdata/stk_70fov_4leo/Satellite-MEO_Satellite10005-To-Satellite-LEO_Satellite10000 AER.csv

"Time (UTCG)","Azimuth (deg)","Elevation (deg)","Range (km)"
1 Jan 2020 01:18:07.681,144.912,-75.986,26106.999841
1 Jan 2020 01:18:37.000,143.614,-76.083,25989.642956
1 Jan 2020 01:19:07.000,142.260,-76.186,25871.703626
1 Jan 2020 01:19:37.000,140.877,-76.293,25756.027789
1 Jan 2020 01:20:07.000,139.465,-76.404,25642.712175
1 Jan 2020 01:20:37.000,138.022,-76.518,25531.853181
1 Jan 2020 01:21:07.000,136.548,-76.636,25423.546740
1 Jan 2020 01:21:37.000,135.039,-76.756,25317.888177
1 Jan 2020 01:22:07.000,133.495,-76.879,25214.972068
1 Jan 2020 01:22:37.000,131.915,-77.004,25114.892084
1 Jan 2020 01:23:07.000,130.297,-77.131,25017.740838
1 Jan 2020 01:23:37.000,128.640,-77.259,24923.609722
1 Jan 2020 01:24:07.000,126.942,-77.388,24832.588549
1 Jan 2020 01:24:37.000,125.201,-77.518,24744.766158
1 Jan 2020 01:25:07.000,123.418,-77.647,24660.229068
1 Jan 2020 01:25:37.000,121.591,-77.776,24579.062092
1 Jan 2020 01:26:07.000,119.718,-77.904,24501.347955
1 Jan 2020 01:26:37.000,117.798,-78.030,24427.167120
1 Jan 2020 01:27:07.000,115.833,-78.155,24356.597603
1 Jan 2020 01:27:37.000,113.819,-78.276,24289.714794
1 Jan 2020 01:28:07.000,111.759,-78.394,24226.591279
1 Jan 2020 01:28:37.000,109.651,-78.508,24167.296537
1 Jan 2020 01:29:07.000,107.497,-78.617,24111.897264
1 Jan 2020 01:29:37.000,105.296,-78.721,24060.456444
1 Jan 2020 01:30:07.000,103.051,-78.819,24013.033694
1 Jan 2020 01:30:37.000,100.763,-78.910,23969.684979
1 Jan 2020 01:31:07.000,98.433,-78.995,23930.462450
1 Jan 2020 01:31:37.000,96.066,-79.072,23895.414304
1 Jan 2020 01:32:07.000,93.663,-79.140,23864.584643
1 Jan 2020 01:32:37.000,91.228,-79.200,23838.013302
1 Jan 2020 01:33:07.000,88.765,-79.251,23815.735926
1 Jan 2020 01:33:37.000,86.278,-79.293,23797.783553
1 Jan 2020 01:34:07.000,83.773,-79.324,23784.182738
1 Jan 2020 01:34:37.000,81.253,-79.346,23774.955413
1 Jan 2020 01:35:07.000,78.725,-79.357,23770.118820
1 Jan 2020 01:35:37.000,76.193,-79.358,23769.685452
1 Jan 2020 01:36:07.000,73.663,-79.349,23773.663035
1 Jan 2020 01:36:37.000,71.140,-79.330,23782.054430
1 Jan 2020 01:37:07.000,68.630,-79.300,23794.857712
1 Jan 2020 01:37:37.000,66.138,-79.260,23812.066121
1 Jan 2020 01:38:07.000,63.669,-79.211,23833.668088
1 Jan 2020 01:38:37.000,61.227,-79.153,23859.647265
1 Jan 2020 01:39:07.000,58.816,-79.085,23889.982575
1 Jan 2020 01:39:37.000,56.440,-79.009,23924.648346
1 Jan 2020 01:40:07.000,54.103,-78.925,23963.614073
1 Jan 2020 01:40:37.000,51.807,-78.834,24006.844956
1 Jan 2020 01:41:07.000,49.555,-78.735,24054.301709
1 Jan 2020 01:41:37.000,47.348,-78.631,24105.940729
1 Jan 2020 01:42:07.000,45.189,-78.521,24161.714226
1 Jan 2020 01:42:37.000,43.078,-78.406,24221.570341
1 Jan 2020 01:43:07.000,41.015,-78.286,24285.453294
1 Jan 2020 01:43:37.000,39.002,-78.163,24353.303677
1 Jan 2020 01:44:07.000,37.038,-78.037,24425.057997
1 Jan 2020 01:44:37.000,35.123,-77.908,24500.649740
1 Jan 2020 01:45:07.000,33.256,-77.778,24580.008941
1 Jan 2020 01:45:37.000,31.438,-77.646,24663.062497
1 Jan 2020 01:46:07.000,29.666,-77.514,24749.734335
1 Jan 2020 01:46:37.000,27.939,-77.381,24839.945593
1 Jan 2020 01:47:07.000,26.258,-77.249,24933.614787
1 Jan 2020 01:47:37.000,24.620,-77.117,25030.657992
1 Jan 2020 01:48:07.000,23.024,-76.987,25130.989221
1 Jan 2020 01:48:37.000,21.468,-76.859,25234.519774
1 Jan 2020 01:49:07.000,19.952,-76.733,25341.159642
1 Jan 2020 01:49:37.000,18.474,-76.610,25450.816860
1 Jan 2020 01:50:07.000,17.032,-76.489,25563.397880
1 Jan 2020 01:50:37.000,15.625,-76.372,25678.807730
1 Jan 2020 01:51:07.000,14.252,-76.259,25796.950177
1 Jan 2020 01:51:37.000,12.911,-76.149,25917.727877
1 Jan 2020 01:52:07.000,11.600,-76.044,26041.042532
1 Jan 2020 01:52:22.782,10.923,-75.991,26106.898354
1 Jan 2020 03:23:38.646,135.322,-75.988,26103.960925
1 Jan 2020 03:24:08.000,134.746,-76.127,25936.603121
1 Jan 2020 03:24:38.000,134.146,-76.281,25767.400121
1 Jan 2020 03:25:08.000,133.531,-76.445,25600.206831
1 Jan 2020 03:25:38.000,132.901,-76.621,25435.177460
1 Jan 2020 03:26:08.000,132.254,-76.807,25272.467791
1 Jan 2020 03:26:38.000,131.587,-77.005,25112.235015
1 Jan 2020 03:27:08.000,130.899,-77.213,24954.637547
1 Jan 2020 03:27:38.000,130.187,-77.433,24799.834813
1 Jan 2020 03:28:08.000,129.449,-77.663,24647.987037
1 Jan 2020 03:28:38.000,128.681,-77.904,24499.254991
1 Jan 2020 03:29:08.000,127.881,-78.155,24353.799474
1 Jan 2020 03:29:38.000,127.045,-78.417,24211.782093
1 Jan 2020 03:30:08.000,126.168,-78.689,24073.363359
1 Jan 2020 03:30:38.000,125.246,-78.971,23938.703441
1 Jan 2020 03:31:08.000,124.274,-79.263,23807.961561
1 Jan 2020 03:31:38.000,123.245,-79.563,23681.295632
1 Jan 2020 03:32:08.000,122.151,-79.872,23558.861888
1 Jan 2020 03:32:38.000,120.986,-80.190,23440.814281
1 Jan 2020 03:33:08.000,119.740,-80.514,23327.304924
1 Jan 2020 03:33:38.000,118.401,-80.846,23218.482381
1 Jan 2020 03:34:08.000,116.958,-81.183,23114.492110
1 Jan 2020 03:34:38.000,115.395,-81.526,23015.475794
1 Jan 2020 03:35:08.000,113.695,-81.872,22921.570899
1 Jan 2020 03:35:38.000,111.840,-82.221,22832.910060
1 Jan 2020 03:36:08.000,109.804,-82.571,22749.621273
1 Jan 2020 03:36:38.000,107.562,-82.920,22671.826458
1 Jan 2020 03:37:08.000,105.083,-83.266,22599.641680
1 Jan 2020 03:37:38.000,102.330,-83.607,22533.176542
1 Jan 2020 03:38:08.000,99.263,-83.940,22472.533754
1 Jan 2020 03:38:38.000,95.839,-84.261,22417.808624
1 Jan 2020 03:39:08.000,92.011,-84.566,22369.089097
1 Jan 2020 03:39:38.000,87.734,-84.852,22326.454721
1 Jan 2020 03:40:08.000,82.971,-85.111,22289.976765
1 Jan 2020 03:40:38.000,77.700,-85.339,22259.717794
1 Jan 2020 03:41:08.000,71.925,-85.529,22235.731360
1 Jan 2020 03:41:38.000,65.693,-85.675,22218.061900
1 Jan 2020 03:42:08.000,59.096,-85.772,22206.744315
1 Jan 2020 03:42:38.000,52.275,-85.815,22201.803969
1 Jan 2020 03:43:08.000,45.403,-85.802,22203.256532
1 Jan 2020 03:43:38.000,38.663,-85.734,22211.107940
1 Jan 2020 03:44:08.000,32.217,-85.614,22225.354255
1 Jan 2020 03:44:38.000,26.187,-85.447,22245.981835
1 Jan 2020 03:45:08.000,20.644,-85.237,22272.967308
1 Jan 2020 03:45:38.000,15.615,-84.993,22306.277702
1 Jan 2020 03:46:08.000,11.093,-84.719,22345.870684
1 Jan 2020 03:46:38.000,7.048,-84.422,22391.694400
1 Jan 2020 03:47:08.000,3.437,-84.106,22443.688219
1 Jan 2020 03:47:38.000,0.216,-83.776,22501.782670
1 Jan 2020 03:48:08.000,357.338,-83.436,22565.899821
1 Jan 2020 03:48:38.000,354.762,-83.089,22635.953614
1 Jan 2020 03:49:08.000,352.448,-82.737,22711.850402
1 Jan 2020 03:49:38.000,350.363,-82.383,22793.488618
1 Jan 2020 03:50:08.000,348.478,-82.029,22880.760229
1 Jan 2020 03:50:38.000,346.767,-81.677,22973.550461
1 Jan 2020 03:51:08.000,345.209,-81.328,23071.738407
1 Jan 2020 03:51:38.000,343.785,-80.983,23175.197454
1 Jan 2020 03:52:08.000,342.479,-80.644,23283.795959
1 Jan 2020 03:52:38.000,341.278,-80.311,23397.396813
1 Jan 2020 03:53:08.000,340.170,-79.985,23515.859187
1 Jan 2020 03:53:38.000,339.144,-79.667,23639.038115
1 Jan 2020 03:54:08.000,338.191,-79.358,23766.785141
1 Jan 2020 03:54:38.000,337.305,-79.057,23898.948744
1 Jan 2020 03:55:08.000,336.479,-78.766,24035.374750
1 Jan 2020 03:55:38.000,335.706,-78.486,24175.906734
1 Jan 2020 03:56:08.000,334.982,-78.215,24320.386708
1 Jan 2020 03:56:38.000,334.302,-77.955,24468.654280
1 Jan 2020 03:57:08.000,333.663,-77.706,24620.548812
1 Jan 2020 03:57:38.000,333.061,-77.467,24775.908560
1 Jan 2020 03:58:08.000,332.492,-77.240,24934.571284
1 Jan 2020 03:58:38.000,331.955,-77.025,25096.374548
1 Jan 2020 03:59:08.000,331.446,-76.820,25261.155996
1 Jan 2020 03:59:38.000,330.964,-76.627,25428.753613
1 Jan 2020 04:00:08.000,330.506,-76.446,25599.005965
1 Jan 2020 04:00:38.000,330.072,-76.276,25771.752421
1 Jan 2020 04:01:08.000,329.658,-76.118,25946.833356
1 Jan 2020 04:01:34.612,329.308,-75.987,26103.966208
1 Jan 2020 05:27:25.213,155.475,-75.991,26107.712169
1 Jan 2020 05:27:55.000,156.112,-76.132,25939.405981
1 Jan 2020 05:28:25.000,156.780,-76.283,25772.225133
1 Jan 2020 05:28:55.000,157.476,-76.445,25607.529312
1 Jan 2020 05:29:25.000,158.203,-76.617,25445.469677
1 Jan 2020 05:29:55.000,158.962,-76.798,25286.197811
1 Jan 2020 05:30:25.000,159.756,-76.990,25129.865511
1 Jan 2020 05:30:55.000,160.589,-77.191,24976.624560
1 Jan 2020 05:31:25.000,161.462,-77.402,24826.626479
1 Jan 2020 05:31:55.000,162.379,-77.621,24680.022269
1 Jan 2020 05:32:25.000,163.344,-77.850,24536.961853
1 Jan 2020 05:32:55.000,164.360,-78.087,24397.594917
1 Jan 2020 05:33:25.000,165.433,-78.332,24262.068891
1 Jan 2020 05:33:55.000,166.567,-78.584,24130.529782
1 Jan 2020 05:34:25.000,167.768,-78.844,24003.121541
1 Jan 2020 05:34:55.000,169.041,-79.110,23879.985725
1 Jan 2020 05:35:25.000,170.394,-79.382,23761.261137
1 Jan 2020 05:35:55.000,171.833,-79.659,23647.083224
1 Jan 2020 05:36:25.000,173.367,-79.940,23537.584638
1 Jan 2020 05:36:55.000,175.004,-80.224,23432.893441
1 Jan 2020 05:37:25.000,176.756,-80.510,23333.133668
1 Jan 2020 05:37:55.000,178.631,-80.796,23238.424702
1 Jan 2020 05:38:25.000,180.642,-81.083,23148.880890
1 Jan 2020 05:38:55.000,182.801,-81.367,23064.610980
1 Jan 2020 05:39:25.000,185.120,-81.648,22985.718457
1 Jan 2020 05:39:55.000,187.614,-81.923,22912.300098
1 Jan 2020 05:40:25.000,190.295,-82.190,22844.446345
1 Jan 2020 05:40:55.000,193.177,-82.447,22782.240783
1 Jan 2020 05:41:25.000,196.270,-82.692,22725.759815
1 Jan 2020 05:41:55.000,199.583,-82.922,22675.072247
1 Jan 2020 05:42:25.000,203.121,-83.134,22630.239496
1 Jan 2020 05:42:55.000,206.884,-83.326,22591.314594
1 Jan 2020 05:43:25.000,210.865,-83.494,22558.342483
1 Jan 2020 05:43:55.000,215.048,-83.636,22531.359689
1 Jan 2020 05:44:25.000,219.408,-83.749,22510.394125
1 Jan 2020 05:44:55.000,223.911,-83.831,22495.465171
1 Jan 2020 05:45:25.000,228.514,-83.880,22486.583272
1 Jan 2020 05:45:55.000,233.168,-83.896,22483.750120
1 Jan 2020 05:46:25.000,237.819,-83.878,22486.958584
1 Jan 2020 05:46:55.000,242.416,-83.826,22496.192755
1 Jan 2020 05:47:25.000,246.909,-83.743,22511.427979
1 Jan 2020 05:47:55.000,251.258,-83.628,22532.630999
1 Jan 2020 05:48:25.000,255.429,-83.485,22559.760084
1 Jan 2020 05:48:55.000,259.400,-83.317,22592.765209
1 Jan 2020 05:49:25.000,263.156,-83.126,22631.588265
1 Jan 2020 05:49:55.000,266.691,-82.915,22676.163388
1 Jan 2020 05:50:25.000,270.006,-82.687,22726.416882
1 Jan 2020 05:50:55.000,273.107,-82.445,22782.268020
1 Jan 2020 05:51:25.000,276.003,-82.191,22843.629037
1 Jan 2020 05:51:55.000,278.706,-81.928,22910.405550
1 Jan 2020 05:52:25.000,281.228,-81.657,22982.496910
1 Jan 2020 05:52:55.000,283.584,-81.381,23059.796727
1 Jan 2020 05:53:25.000,285.786,-81.102,23142.192664
1 Jan 2020 05:53:55.000,287.846,-80.821,23229.567691
1 Jan 2020 05:54:25.000,289.779,-80.540,23321.799910
1 Jan 2020 05:54:55.000,291.593,-80.260,23418.763101
1 Jan 2020 05:55:25.000,293.302,-79.982,23520.327110
1 Jan 2020 05:55:55.000,294.913,-79.708,23626.358250
1 Jan 2020 05:56:25.000,296.435,-79.437,23736.719899
1 Jan 2020 05:56:55.000,297.878,-79.171,23851.272046
1 Jan 2020 05:57:25.000,299.247,-78.911,23969.872908
1 Jan 2020 05:57:55.000,300.550,-78.657,24092.378469
1 Jan 2020 05:58:25.000,301.793,-78.410,24218.643036
1 Jan 2020 05:58:55.000,302.980,-78.170,24348.519578
1 Jan 2020 05:59:25.000,304.118,-77.938,24481.860041
1 Jan 2020 05:59:55.000,305.209,-77.714,24618.515663
1 Jan 2020 06:00:25.000,306.259,-77.499,24758.337261
1 Jan 2020 06:00:55.000,307.271,-77.292,24901.175506
1 Jan 2020 06:01:25.000,308.248,-77.094,25046.881470
1 Jan 2020 06:01:55.000,309.193,-76.904,25195.305728
1 Jan 2020 06:02:25.000,310.109,-76.724,25346.300280
1 Jan 2020 06:02:55.000,310.998,-76.554,25499.717639
1 Jan 2020 06:03:25.000,311.863,-76.393,25655.411298
1 Jan 2020 06:03:55.000,312.707,-76.241,25813.235913
1 Jan 2020 06:04:25.000,313.529,-76.098,25973.047462
1 Jan 2020 06:04:50.097,314.203,-75.987,26108.162705
1 Jan 2020 07:38:17.136,201.522,-75.993,26115.593377
1 Jan 2020 07:38:47.000,202.864,-76.090,25997.934796
1 Jan 2020 07:39:17.000,204.240,-76.191,25882.104831
1 Jan 2020 07:39:47.000,205.646,-76.296,25768.738169
1 Jan 2020 07:40:17.000,207.083,-76.404,25657.926353
1 Jan 2020 07:40:47.000,208.551,-76.514,25549.760055
1 Jan 2020 07:41:17.000,210.053,-76.628,25444.328937
1 Jan 2020 07:41:47.000,211.589,-76.744,25341.721519
1 Jan 2020 07:42:17.000,213.161,-76.862,25242.025025
1 Jan 2020 07:42:47.000,214.770,-76.981,25145.325243
1 Jan 2020 07:43:17.000,216.416,-77.102,25051.706373
1 Jan 2020 07:43:47.000,218.102,-77.223,24961.250679
1 Jan 2020 07:44:17.000,219.828,-77.345,24874.039109
1 Jan 2020 07:44:47.000,221.595,-77.467,24790.149968
1 Jan 2020 07:45:17.000,223.404,-77.588,24709.659547
1 Jan 2020 07:45:47.000,225.255,-77.708,24632.641767
1 Jan 2020 07:46:17.000,227.150,-77.826,24559.168017
1 Jan 2020 07:46:47.000,229.088,-77.942,24489.307004
1 Jan 2020 07:47:17.000,231.070,-78.055,24423.124591
1 Jan 2020 07:47:47.000,233.095,-78.165,24360.683651
1 Jan 2020 07:48:17.000,235.164,-78.271,24302.043782
1 Jan 2020 07:48:47.000,237.275,-78.373,24247.261699
1 Jan 2020 07:49:17.000,239.428,-78.469,24196.390281
1 Jan 2020 07:49:47.000,241.621,-78.560,24149.478989
1 Jan 2020 07:50:17.000,243.853,-78.646,24106.573598
1 Jan 2020 07:50:47.000,246.121,-78.724,24067.716077
1 Jan 2020 07:51:17.000,248.424,-78.796,24032.944482
1 Jan 2020 07:51:47.000,250.758,-78.859,24002.292852
1 Jan 2020 07:52:17.000,253.120,-78.915,23975.791061
1 Jan 2020 07:52:47.000,255.508,-78.963,23953.464971
1 Jan 2020 07:53:17.000,257.916,-79.002,23935.335994
1 Jan 2020 07:53:47.000,260.341,-79.032,23921.421289
1 Jan 2020 07:54:17.000,262.779,-79.054,23911.733646
1 Jan 2020 07:54:47.000,265.225,-79.065,23906.281454
1 Jan 2020 07:55:17.000,267.674,-79.068,23905.068675
1 Jan 2020 07:55:47.000,270.123,-79.061,23908.094834
1 Jan 2020 07:56:17.000,272.566,-79.045,23915.355044
1 Jan 2020 07:56:47.000,274.998,-79.020,23926.839951
1 Jan 2020 07:57:17.000,277.416,-78.986,23942.535847
1 Jan 2020 07:57:47.000,279.815,-78.943,23962.424667
1 Jan 2020 07:58:17.000,282.191,-78.891,23986.484047
1 Jan 2020 07:58:47.000,284.541,-78.832,24014.687388
1 Jan 2020 07:59:17.000,286.861,-78.765,24047.003932
1 Jan 2020 07:59:47.000,289.149,-78.690,24083.398849
1 Jan 2020 08:00:17.000,291.401,-78.609,24123.833425
1 Jan 2020 08:00:47.000,293.616,-78.521,24168.264808
1 Jan 2020 08:01:17.000,295.792,-78.428,24216.646646
1 Jan 2020 08:01:47.000,297.927,-78.329,24268.928874
1 Jan 2020 08:02:17.000,300.020,-78.226,24325.057920
1 Jan 2020 08:02:47.000,302.071,-78.118,24384.976847
1 Jan 2020 08:03:17.000,304.079,-78.007,24448.625494
1 Jan 2020 08:03:47.000,306.043,-77.893,24515.940621
1 Jan 2020 08:04:17.000,307.964,-77.777,24586.856064
1 Jan 2020 08:04:47.000,309.843,-77.659,24661.303049
1 Jan 2020 08:05:17.000,311.678,-77.539,24739.209704
1 Jan 2020 08:05:47.000,313.472,-77.418,24820.502177
1 Jan 2020 08:06:17.000,315.225,-77.297,24905.104163
1 Jan 2020 08:06:47.000,316.938,-77.176,24992.937218
1 Jan 2020 08:07:17.000,318.612,-77.055,25083.920921
1 Jan 2020 08:07:47.000,320.248,-76.936,25177.973028
1 Jan 2020 08:08:17.000,321.846,-76.817,25275.009633
1 Jan 2020 08:08:47.000,323.409,-76.701,25374.945316
1 Jan 2020 08:09:17.000,324.938,-76.586,25477.693296
1 Jan 2020 08:09:47.000,326.433,-76.474,25583.165578
1 Jan 2020 08:10:17.000,327.896,-76.365,25691.273322
1 Jan 2020 08:10:47.000,329.328,-76.259,25801.926091
1 Jan 2020 08:11:17.000,330.730,-76.156,25915.033312
1 Jan 2020 08:11:47.000,332.104,-76.057,26030.503529
1 Jan 2020 08:12:08.753,333.084,-75.988,26115.655406
1 Jan 2020 09:46:41.177,225.886,-75.992,26120.504291
1 Jan 2020 09:47:11.000,226.797,-76.120,25966.270684
1 Jan 2020 09:47:41.000,227.734,-76.257,25813.002040
1 Jan 2020 09:48:11.000,228.695,-76.403,25661.755888
1 Jan 2020 09:48:41.000,229.681,-76.558,25512.669783
1 Jan 2020 09:49:11.000,230.694,-76.720,25365.882357
1 Jan 2020 09:49:41.000,231.737,-76.891,25221.533163
1 Jan 2020 09:50:11.000,232.812,-77.070,25079.762498
1 Jan 2020 09:50:41.000,233.922,-77.257,24940.711214
1 Jan 2020 09:51:11.000,235.071,-77.451,24804.520514
1 Jan 2020 09:51:41.000,236.260,-77.653,24671.331734
1 Jan 2020 09:52:11.000,237.495,-77.862,24541.286107
1 Jan 2020 09:52:41.000,238.778,-78.077,24414.524270
1 Jan 2020 09:53:11.000,240.114,-78.298,24291.187011
1 Jan 2020 09:53:41.000,241.507,-78.526,24171.413460
1 Jan 2020 09:54:11.000,242.963,-78.758,24055.341832
1 Jan 2020 09:54:41.000,244.487,-78.995,23943.108862
1 Jan 2020 09:55:11.000,246.084,-79.236,23834.849491
1 Jan 2020 09:55:41.000,247.761,-79.480,23730.696541
1 Jan 2020 09:56:11.000,249.524,-79.726,23630.780379
1 Jan 2020 09:56:41.000,251.381,-79.973,23535.228384
1 Jan 2020 09:57:11.000,253.338,-80.221,23444.165358
1 Jan 2020 09:57:41.000,255.404,-80.467,23357.712011
1 Jan 2020 09:58:11.000,257.587,-80.712,23275.985389
1 Jan 2020 09:58:41.000,259.893,-80.953,23199.098306
1 Jan 2020 09:59:11.000,262.332,-81.188,23127.158993
1 Jan 2020 09:59:41.000,264.911,-81.417,23060.270627
1 Jan 2020 10:00:11.000,267.636,-81.637,22998.531436
1 Jan 2020 10:00:41.000,270.513,-81.847,22942.033662
1 Jan 2020 10:01:11.000,273.544,-82.044,22890.863708
1 Jan 2020 10:01:41.000,276.732,-82.227,22845.101696
1 Jan 2020 10:02:11.000,280.073,-82.393,22804.821171
1 Jan 2020 10:02:41.000,283.561,-82.541,22770.088769
1 Jan 2020 10:03:11.000,287.186,-82.668,22740.964177
1 Jan 2020 10:03:41.000,290.933,-82.773,22717.499553
1 Jan 2020 10:04:11.000,294.782,-82.853,22699.739556
1 Jan 2020 10:04:41.000,298.709,-82.909,22687.721108
1 Jan 2020 10:05:11.000,302.684,-82.938,22681.473239
1 Jan 2020 10:05:41.000,306.679,-82.940,22681.016990
1 Jan 2020 10:06:11.000,310.660,-82.915,22686.365255
1 Jan 2020 10:06:41.000,314.597,-82.864,22697.522812
1 Jan 2020 10:07:11.000,318.461,-82.786,22714.486259
1 Jan 2020 10:07:41.000,322.226,-82.685,22737.244038
1 Jan 2020 10:08:11.000,325.870,-82.560,22765.776475
1 Jan 2020 10:08:41.000,329.378,-82.413,22800.055961
1 Jan 2020 10:09:11.000,332.736,-82.248,22840.046693
1 Jan 2020 10:09:41.000,335.938,-82.064,22885.705353
1 Jan 2020 10:10:11.000,338.979,-81.866,22936.980934
1 Jan 2020 10:10:41.000,341.861,-81.654,22993.815022
1 Jan 2020 10:11:11.000,344.585,-81.431,23056.142028
1 Jan 2020 10:11:41.000,347.156,-81.199,23123.889586
1 Jan 2020 10:12:11.000,349.581,-80.959,23196.978213
1 Jan 2020 10:12:41.000,351.867,-80.714,23275.322505
1 Jan 2020 10:13:11.000,354.020,-80.464,23358.830847
1 Jan 2020 10:13:41.000,356.050,-80.211,23447.405877
1 Jan 2020 10:14:11.000,357.965,-79.958,23540.944819
1 Jan 2020 10:14:41.000,359.771,-79.704,23639.339821
1 Jan 2020 10:15:11.000,1.477,-79.451,23742.478531
1 Jan 2020 10:15:41.000,3.090,-79.200,23850.243521
1 Jan 2020 10:16:11.000,4.616,-78.953,23962.514010
1 Jan 2020 10:16:41.000,6.062,-78.709,24079.165305
1 Jan 2020 10:17:11.000,7.433,-78.470,24200.069374
1 Jan 2020 10:17:41.000,8.736,-78.236,24325.095180
1 Jan 2020 10:18:11.000,9.974,-78.008,24454.109018
1 Jan 2020 10:18:41.000,11.154,-77.786,24586.974842
1 Jan 2020 10:19:11.000,12.278,-77.572,24723.554852
1 Jan 2020 10:19:41.000,13.351,-77.365,24863.708711
1 Jan 2020 10:20:11.000,14.376,-77.165,25007.295466
1 Jan 2020 10:20:41.000,15.358,-76.974,25154.172747
1 Jan 2020 10:21:11.000,16.298,-76.791,25304.197312
1 Jan 2020 10:21:41.000,17.200,-76.617,25457.225292
1 Jan 2020 10:22:11.000,18.066,-76.452,25613.112444
1 Jan 2020 10:22:41.000,18.898,-76.296,25771.714368
1 Jan 2020 10:23:11.000,19.699,-76.148,25932.886728
1 Jan 2020 10:23:41.000,20.471,-76.011,26096.485450
1 Jan 2020 10:23:45.402,20.582,-75.991,26120.684585
1 Jan 2020 11:49:49.287,213.646,-75.990,26118.928679
1 Jan 2020 11:50:19.000,213.397,-76.138,25940.996971
1 Jan 2020 11:50:49.000,213.130,-76.300,25763.450906
1 Jan 2020 11:51:19.000,212.846,-76.474,25588.178952
1 Jan 2020 11:51:49.000,212.544,-76.660,25415.343397
1 Jan 2020 11:52:19.000,212.223,-76.858,25245.107767
1 Jan 2020 11:52:49.000,211.881,-77.068,25077.636619
1 Jan 2020 11:53:19.000,211.517,-77.291,24913.095333
1 Jan 2020 11:53:49.000,211.129,-77.525,24751.649870
1 Jan 2020 11:54:19.000,210.715,-77.772,24593.466520
1 Jan 2020 11:54:49.000,210.272,-78.030,24438.711622
1 Jan 2020 11:55:19.000,209.798,-78.300,24287.550955
1 Jan 2020 11:55:49.000,209.289,-78.582,24140.150688
1 Jan 2020 11:56:19.000,208.742,-78.875,23996.675133
1 Jan 2020 11:56:49.000,208.153,-79.180,23857.287671
1 Jan 2020 11:57:19.000,207.517,-79.495,23722.150052
1 Jan 2020 11:57:49.000,206.829,-79.821,23591.422005
1 Jan 2020 11:58:19.000,206.081,-80.157,23465.260829
1 Jan 2020 11:58:49.000,205.266,-80.502,23343.820719
1 Jan 2020 11:59:19.000,204.376,-80.857,23227.253325
1 Jan 2020 11:59:49.000,203.399,-81.220,23115.705792
1 Jan 2020 12:00:19.000,202.323,-81.591,23009.321323
1 Jan 2020 12:00:49.000,201.133,-81.969,22908.238447
1 Jan 2020 12:01:19.000,199.809,-82.353,22812.590560
1 Jan 2020 12:01:49.000,198.329,-82.742,22722.505267
1 Jan 2020 12:02:19.000,196.665,-83.135,22638.104669
1 Jan 2020 12:02:49.000,194.783,-83.530,22559.503759
1 Jan 2020 12:03:19.000,192.641,-83.925,22486.810752
1 Jan 2020 12:03:49.000,190.185,-84.317,22420.126450
1 Jan 2020 12:04:19.000,187.349,-84.705,22359.543720
1 Jan 2020 12:04:49.000,184.055,-85.084,22305.147568
1 Jan 2020 12:05:19.000,180.202,-85.450,22257.014054
1 Jan 2020 12:05:49.000,175.678,-85.798,22215.210446
1 Jan 2020 12:06:19.000,170.355,-86.119,22179.794798
1 Jan 2020 12:06:49.000,164.113,-86.406,22150.815627
1 Jan 2020 12:07:19.000,156.871,-86.647,22128.311932
1 Jan 2020 12:07:49.000,148.644,-86.830,22112.312628
1 Jan 2020 12:08:19.000,139.603,-86.944,22102.836678
1 Jan 2020 12:08:49.000,130.103,-86.980,22099.892935
1 Jan 2020 12:09:19.000,120.628,-86.936,22103.480104
1 Jan 2020 12:09:49.000,111.651,-86.815,22113.586733
1 Jan 2020 12:10:19.000,103.510,-86.627,22130.191267
1 Jan 2020 12:10:49.000,96.357,-86.382,22153.262163
1 Jan 2020 12:11:19.000,90.194,-86.093,22182.758026
1 Jan 2020 12:11:49.000,84.934,-85.770,22218.627877
1 Jan 2020 12:12:19.000,80.453,-85.422,22260.811109
1 Jan 2020 12:12:49.000,76.627,-85.056,22309.238152
1 Jan 2020 12:13:19.000,73.342,-84.678,22363.830537
1 Jan 2020 12:13:49.000,70.502,-84.293,22424.501298
1 Jan 2020 12:14:19.000,68.028,-83.902,22491.155469
1 Jan 2020 12:14:49.000,65.857,-83.510,22563.689999
1 Jan 2020 12:15:19.000,63.937,-83.119,22641.994887
1 Jan 2020 12:15:49.000,62.226,-82.729,22725.953158
1 Jan 2020 12:16:19.000,60.690,-82.344,22815.441433
1 Jan 2020 12:16:49.000,59.302,-81.963,22910.330391
1 Jan 2020 12:17:19.000,58.040,-81.589,23010.485442
1 Jan 2020 12:17:49.000,56.886,-81.222,23115.766419
1 Jan 2020 12:18:19.000,55.824,-80.863,23226.029209
1 Jan 2020 12:18:49.000,54.842,-80.512,23341.125461
1 Jan 2020 12:19:19.000,53.929,-80.171,23460.903240
1 Jan 2020 12:19:49.000,53.077,-79.839,23585.207480
1 Jan 2020 12:20:19.000,52.278,-79.517,23713.880424
1 Jan 2020 12:20:49.000,51.524,-79.206,23846.762303
1 Jan 2020 12:21:19.000,50.812,-78.905,23983.690760
1 Jan 2020 12:21:49.000,50.136,-78.616,24124.502716
1 Jan 2020 12:22:19.000,49.492,-78.337,24269.033772
1 Jan 2020 12:22:49.000,48.876,-78.070,24417.118811
1 Jan 2020 12:23:19.000,48.285,-77.815,24568.592332
1 Jan 2020 12:23:49.000,47.717,-77.571,24723.288770
1 Jan 2020 12:24:19.000,47.169,-77.339,24881.042791
1 Jan 2020 12:24:49.000,46.638,-77.119,25041.689565
1 Jan 2020 12:25:19.000,46.123,-76.910,25205.065026
1 Jan 2020 12:25:49.000,45.623,-76.713,25371.006107
1 Jan 2020 12:26:19.000,45.135,-76.528,25539.351273
1 Jan 2020 12:26:49.000,44.658,-76.355,25709.939441
1 Jan 2020 12:27:19.000,44.192,-76.193,25882.612072
1 Jan 2020 12:27:49.000,43.733,-76.043,26057.212058
1 Jan 2020 12:27:59.466,43.576,-75.993,26118.549243
1 Jan 2020 13:58:00.662,175.149,-75.986,26111.669341
1 Jan 2020 13:58:30.000,173.937,-76.091,25984.260059
1 Jan 2020 13:59:00.000,172.667,-76.204,25856.468386
1 Jan 2020 13:59:30.000,171.365,-76.321,25731.302155
1 Jan 2020 14:00:00.000,170.028,-76.443,25608.865435
1 Jan 2020 14:00:30.000,168.656,-76.568,25489.261291
1 Jan 2020 14:01:00.000,167.247,-76.698,25372.591624
1 Jan 2020 14:01:30.000,165.799,-76.830,25258.956999
1 Jan 2020 14:02:00.000,164.310,-76.966,25148.456468
1 Jan 2020 14:02:30.000,162.779,-77.105,25041.187396
1 Jan 2020 14:03:00.000,161.204,-77.245,24937.245061
1 Jan 2020 14:03:30.000,159.584,-77.387,24836.723322
1 Jan 2020 14:04:00.000,157.916,-77.531,24739.713138
1 Jan 2020 14:04:30.000,156.200,-77.675,24646.303246
1 Jan 2020 14:05:00.000,154.433,-77.819,24556.579746
1 Jan 2020 14:05:30.000,152.615,-77.962,24470.625909
1 Jan 2020 14:06:00.000,150.744,-78.104,24388.521984
1 Jan 2020 14:06:30.000,148.820,-78.245,24310.345008
1 Jan 2020 14:07:00.000,146.840,-78.382,24236.168453
1 Jan 2020 14:07:30.000,144.806,-78.517,24166.062698
1 Jan 2020 14:08:00.000,142.716,-78.647,24100.093854
1 Jan 2020 14:08:30.000,140.571,-78.773,24038.324259
1 Jan 2020 14:09:00.000,138.371,-78.894,23980.812142
1 Jan 2020 14:09:30.000,136.117,-79.008,23927.611465
1 Jan 2020 14:10:00.000,133.811,-79.116,23878.771769
1 Jan 2020 14:10:30.000,131.456,-79.216,23834.337942
1 Jan 2020 14:11:00.000,129.052,-79.308,23794.350481
1 Jan 2020 14:11:30.000,126.604,-79.391,23758.844772
1 Jan 2020 14:12:00.000,124.116,-79.465,23727.851397
1 Jan 2020 14:12:30.000,121.592,-79.529,23701.395943
1 Jan 2020 14:13:00.000,119.036,-79.583,23679.498921
1 Jan 2020 14:13:30.000,116.454,-79.626,23662.175710
1 Jan 2020 14:14:00.000,113.851,-79.658,23649.436479
1 Jan 2020 14:14:30.000,111.234,-79.678,23641.286298
1 Jan 2020 14:15:00.000,108.610,-79.687,23637.724903
1 Jan 2020 14:15:30.000,105.983,-79.685,23638.746859
1 Jan 2020 14:16:00.000,103.362,-79.671,23644.341537
1 Jan 2020 14:16:30.000,100.751,-79.646,23654.493153
1 Jan 2020 14:17:00.000,98.158,-79.609,23669.180823
1 Jan 2020 14:17:30.000,95.587,-79.562,23688.378664
1 Jan 2020 14:18:00.000,93.045,-79.505,23712.055748
1 Jan 2020 14:18:30.000,90.537,-79.437,23740.176383
1 Jan 2020 14:19:00.000,88.065,-79.361,23772.700117
1 Jan 2020 14:19:30.000,85.635,-79.275,23809.581883
1 Jan 2020 14:20:00.000,83.250,-79.181,23850.772141
1 Jan 2020 14:20:30.000,80.912,-79.080,23896.217028
1 Jan 2020 14:21:00.000,78.624,-78.972,23945.858514
1 Jan 2020 14:21:30.000,76.386,-78.857,23999.634685
1 Jan 2020 14:22:00.000,74.201,-78.737,24057.479475
1 Jan 2020 14:22:30.000,72.068,-78.612,24119.323502
1 Jan 2020 14:23:00.000,69.988,-78.483,24185.093832
1 Jan 2020 14:23:30.000,67.960,-78.351,24254.714273
1 Jan 2020 14:24:00.000,65.985,-78.216,24328.105576
1 Jan 2020 14:24:30.000,64.060,-78.079,24405.185633
1 Jan 2020 14:25:00.000,62.187,-77.940,24485.869676
1 Jan 2020 14:25:30.000,60.362,-77.801,24570.070480
1 Jan 2020 14:26:00.000,58.585,-77.661,24657.698742
1 Jan 2020 14:26:30.000,56.854,-77.522,24748.662565
1 Jan 2020 14:27:00.000,55.168,-77.383,24842.868719
1 Jan 2020 14:27:30.000,53.525,-77.246,24940.222130
1 Jan 2020 14:28:00.000,51.924,-77.110,25040.626243
1 Jan 2020 14:28:30.000,50.362,-76.977,25143.983210
1 Jan 2020 14:29:00.000,48.839,-76.846,25250.194064
1 Jan 2020 14:29:30.000,47.352,-76.718,25359.158900
1 Jan 2020 14:30:00.000,45.899,-76.594,25470.777037
1 Jan 2020 14:30:30.000,44.480,-76.473,25584.947183
1 Jan 2020 14:31:00.000,43.092,-76.355,25701.567591
1 Jan 2020 14:31:30.000,41.735,-76.242,25820.536204
1 Jan 2020 14:32:00.000,40.405,-76.134,25941.750800
1 Jan 2020 14:32:30.000,39.103,-76.030,26065.109377
1 Jan 2020 14:32:41.162,38.625,-75.992,26111.534677
1 Jan 2020 16:09:14.484,136.361,-75.987,26105.201178
1 Jan 2020 16:09:44.000,135.213,-76.098,25970.938639
1 Jan 2020 16:10:14.000,134.022,-76.217,25836.443769
1 Jan 2020 16:10:44.000,132.803,-76.342,25704.051603
1 Jan 2020 16:11:14.000,131.555,-76.473,25573.879387
1 Jan 2020 16:11:44.000,130.277,-76.609,25446.044798
1 Jan 2020 16:12:14.000,128.965,-76.751,25320.665787
1 Jan 2020 16:12:44.000,127.619,-76.898,25197.860424
1 Jan 2020 16:13:14.000,126.235,-77.050,25077.746725
1 Jan 2020 16:13:44.000,124.812,-77.206,24960.442474
1 Jan 2020 16:14:14.000,123.346,-77.367,24846.065030
1 Jan 2020 16:14:44.000,121.836,-77.531,24734.731130
1 Jan 2020 16:15:14.000,120.279,-77.698,24626.556467
1 Jan 2020 16:15:44.000,118.672,-77.868,24521.656334
1 Jan 2020 16:16:14.000,117.013,-78.040,24420.144089
1 Jan 2020 16:16:44.000,115.298,-78.214,24322.131804
1 Jan 2020 16:17:14.000,113.525,-78.389,24227.729796
1 Jan 2020 16:17:44.000,111.691,-78.564,24137.046386
1 Jan 2020 16:18:14.000,109.793,-78.738,24050.187641
1 Jan 2020 16:18:44.000,107.828,-78.912,23967.257118
1 Jan 2020 16:19:14.000,105.795,-79.083,23888.355458
1 Jan 2020 16:19:44.000,103.690,-79.252,23813.580711
1 Jan 2020 16:20:14.000,101.513,-79.417,23743.027178
1 Jan 2020 16:20:44.000,99.261,-79.577,23676.785754
1 Jan 2020 16:21:14.000,96.933,-79.731,23614.943515
1 Jan 2020 16:21:44.000,94.530,-79.878,23557.583456
1 Jan 2020 16:22:14.000,92.051,-80.018,23504.784247
1 Jan 2020 16:22:44.000,89.498,-80.149,23456.619905
1 Jan 2020 16:23:14.000,86.873,-80.270,23413.159892
1 Jan 2020 16:23:44.000,84.180,-80.380,23374.468377
1 Jan 2020 16:24:14.000,81.423,-80.479,23340.604374
1 Jan 2020 16:24:44.000,78.607,-80.564,23311.621455
1 Jan 2020 16:25:14.000,75.740,-80.637,23287.567568
1 Jan 2020 16:25:44.000,72.829,-80.695,23268.484864
1 Jan 2020 16:26:14.000,69.884,-80.738,23254.409544
1 Jan 2020 16:26:44.000,66.914,-80.766,23245.371780
1 Jan 2020 16:27:14.000,63.930,-80.778,23241.395509
1 Jan 2020 16:27:44.000,60.942,-80.775,23242.498421
1 Jan 2020 16:28:14.000,57.962,-80.756,23248.691869
1 Jan 2020 16:28:44.000,55.000,-80.721,23259.980829
1 Jan 2020 16:29:14.000,52.067,-80.671,23276.363925
1 Jan 2020 16:29:44.000,49.173,-80.606,23297.833241
1 Jan 2020 16:30:14.000,46.326,-80.527,23324.374618
1 Jan 2020 16:30:44.000,43.534,-80.434,23355.967528
1 Jan 2020 16:31:14.000,40.805,-80.329,23392.585185
1 Jan 2020 16:31:44.000,38.144,-80.212,23434.194632
1 Jan 2020 16:32:14.000,35.555,-80.084,23480.756857
1 Jan 2020 16:32:44.000,33.041,-79.946,23532.227051
1 Jan 2020 16:33:14.000,30.605,-79.799,23588.554238
1 Jan 2020 16:33:44.000,28.249,-79.645,23649.682206
1 Jan 2020 16:34:14.000,25.972,-79.484,23715.549190
1 Jan 2020 16:34:44.000,23.775,-79.317,23786.088187
1 Jan 2020 16:35:14.000,21.655,-79.145,23861.227170
1 Jan 2020 16:35:44.000,19.613,-78.970,23940.889299
1 Jan 2020 16:36:14.000,17.645,-78.792,24024.993343
1 Jan 2020 16:36:44.000,15.750,-78.612,24113.453183
1 Jan 2020 16:37:14.000,13.925,-78.431,24206.179136
1 Jan 2020 16:37:44.000,12.167,-78.250,24303.077493
1 Jan 2020 16:38:14.000,10.474,-78.070,24404.050945
1 Jan 2020 16:38:44.000,8.843,-77.891,24508.998834
1 Jan 2020 16:39:14.000,7.272,-77.714,24617.817406
1 Jan 2020 16:39:44.000,5.756,-77.539,24730.400064
1 Jan 2020 16:40:14.000,4.294,-77.368,24846.637618
1 Jan 2020 16:40:44.000,2.884,-77.200,24966.418791
1 Jan 2020 16:41:14.000,1.521,-77.037,25089.629410
1 Jan 2020 16:41:44.000,0.204,-76.878,25216.154213
1 Jan 2020 16:42:14.000,358.931,-76.724,25345.876036
1 Jan 2020 16:42:44.000,357.699,-76.576,25478.676295
1 Jan 2020 16:43:14.000,356.506,-76.433,25614.435199
1 Jan 2020 16:43:44.000,355.349,-76.297,25753.031960
1 Jan 2020 16:44:14.000,354.228,-76.167,25894.344987
1 Jan 2020 16:44:44.000,353.140,-76.044,26038.252078
1 Jan 2020 16:44:57.734,352.652,-75.989,26104.966734
1 Jan 2020 18:12:47.540,139.848,-75.989,26104.563775
1 Jan 2020 18:13:17.000,139.699,-76.137,25927.107973
1 Jan 2020 18:13:47.000,139.549,-76.301,25748.322053
1 Jan 2020 18:14:17.000,139.400,-76.476,25571.640138
1 Jan 2020 18:14:47.000,139.253,-76.665,25397.226179
1 Jan 2020 18:15:17.000,139.107,-76.866,25225.245789
1 Jan 2020 18:15:47.000,138.962,-77.079,25055.866066
1 Jan 2020 18:16:17.000,138.818,-77.306,24889.255390
1 Jan 2020 18:16:47.000,138.674,-77.545,24725.583198
1 Jan 2020 18:17:17.000,138.531,-77.797,24565.019748
1 Jan 2020 18:17:47.000,138.387,-78.062,24407.735851
1 Jan 2020 18:18:17.000,138.242,-78.340,24253.902287
1 Jan 2020 18:18:47.000,138.096,-78.630,24103.690703
1 Jan 2020 18:19:17.000,137.949,-78.933,23957.271468
1 Jan 2020 18:19:47.000,137.799,-79.249,23814.814541
1 Jan 2020 18:20:17.000,137.646,-79.577,23676.488787
1 Jan 2020 18:20:47.000,137.489,-79.917,23542.461592
1 Jan 2020 18:21:17.000,137.327,-80.270,23412.898441
1 Jan 2020 18:21:47.000,137.159,-80.634,23287.962252
1 Jan 2020 18:22:17.000,136.984,-81.010,23167.813896
1 Jan 2020 18:22:47.000,136.800,-81.397,23052.610262
1 Jan 2020 18:23:17.000,136.604,-81.796,22942.504768
1 Jan 2020 18:23:47.000,136.394,-82.205,22837.646624
1 Jan 2020 18:24:17.000,136.168,-82.624,22738.180340
1 Jan 2020 18:24:47.000,135.920,-83.053,22644.245032
1 Jan 2020 18:25:17.000,135.645,-83.491,22555.974682
1 Jan 2020 18:25:47.000,135.337,-83.938,22473.496488
1 Jan 2020 18:26:17.000,134.985,-84.393,22396.931149
1 Jan 2020 18:26:47.000,134.577,-84.856,22326.392188
1 Jan 2020 18:27:17.000,134.094,-85.326,22261.985369
1 Jan 2020 18:27:47.000,133.508,-85.803,22203.808727
1 Jan 2020 18:28:17.000,132.777,-86.285,22151.951412
1 Jan 2020 18:28:47.000,131.832,-86.771,22106.493798
1 Jan 2020 18:29:17.000,130.556,-87.261,22067.506988
1 Jan 2020 18:29:47.000,128.727,-87.754,22035.052432
1 Jan 2020 18:30:17.000,125.874,-88.246,22009.181887
1 Jan 2020 18:30:47.000,120.818,-88.733,21989.936782
1 Jan 2020 18:31:17.000,109.679,-89.200,21977.348295
1 Jan 2020 18:31:47.000,75.174,-89.568,21971.437131
1 Jan 2020 18:32:17.000,9.441,-89.503,21972.213430
1 Jan 2020 18:32:47.000,343.686,-89.093,21979.676698
1 Jan 2020 18:33:17.000,334.693,-88.619,21993.815818
1 Jan 2020 18:33:47.000,330.356,-88.130,22014.609117
1 Jan 2020 18:34:17.000,327.832,-87.637,22042.024457
1 Jan 2020 18:34:47.000,326.188,-87.145,22076.019474
1 Jan 2020 18:35:17.000,325.035,-86.655,22116.541483
1 Jan 2020 18:35:47.000,324.185,-86.170,22163.528149
1 Jan 2020 18:36:17.000,323.534,-85.689,22216.907507
1 Jan 2020 18:36:47.000,323.022,-85.213,22276.598359
1 Jan 2020 18:37:17.000,322.611,-84.745,22342.510771
1 Jan 2020 18:37:47.000,322.274,-84.283,22414.545949
1 Jan 2020 18:38:17.000,321.996,-83.829,22492.597428
1 Jan 2020 18:38:47.000,321.764,-83.384,22576.551024
1 Jan 2020 18:39:17.000,321.569,-82.947,22666.285422
1 Jan 2020 18:39:47.000,321.404,-82.520,22761.672655
1 Jan 2020 18:40:17.000,321.265,-82.103,22862.578817
1 Jan 2020 18:40:47.000,321.148,-81.696,22968.863706
1 Jan 2020 18:41:17.000,321.049,-81.300,23080.382586
1 Jan 2020 18:41:47.000,320.966,-80.915,23196.985857
1 Jan 2020 18:42:17.000,320.898,-80.541,23318.519755
1 Jan 2020 18:42:47.000,320.842,-80.179,23444.826838
1 Jan 2020 18:43:17.000,320.798,-79.829,23575.746459
1 Jan 2020 18:43:47.000,320.764,-79.491,23711.115504
1 Jan 2020 18:44:17.000,320.739,-79.165,23850.767756
1 Jan 2020 18:44:47.000,320.724,-78.852,23994.535932
1 Jan 2020 18:45:17.000,320.716,-78.552,24142.251034
1 Jan 2020 18:45:47.000,320.715,-78.264,24293.742996
1 Jan 2020 18:46:17.000,320.722,-77.989,24448.841059
1 Jan 2020 18:46:47.000,320.736,-77.727,24607.374120
1 Jan 2020 18:47:17.000,320.756,-77.478,24769.171053
1 Jan 2020 18:47:47.000,320.781,-77.241,24934.061017
1 Jan 2020 18:48:17.000,320.813,-77.018,25101.873739
1 Jan 2020 18:48:47.000,320.851,-76.807,25272.440097
1 Jan 2020 18:49:17.000,320.894,-76.609,25445.591063
1 Jan 2020 18:49:47.000,320.942,-76.424,25621.159865
1 Jan 2020 18:50:17.000,320.995,-76.251,25798.980892
1 Jan 2020 18:50:47.000,321.054,-76.090,25978.890201
1 Jan 2020 18:51:07.797,321.097,-75.986,26104.748131
1 Jan 2020 20:18:26.700,169.412,-75.992,26110.440442
1 Jan 2020 20:18:56.000,170.402,-76.114,25964.362468
1 Jan 2020 20:19:26.000,171.447,-76.245,25817.283448
1 Jan 2020 20:19:56.000,172.525,-76.383,25672.850436
1 Jan 2020 20:20:26.000,173.639,-76.528,25531.190726
1 Jan 2020 20:20:56.000,174.792,-76.680,25392.431051
1 Jan 2020 20:21:26.000,175.984,-76.838,25256.697382
1 Jan 2020 20:21:56.000,177.220,-77.002,25124.114717
1 Jan 2020 20:22:26.000,178.500,-77.171,24994.806861
1 Jan 2020 20:22:56.000,179.829,-77.346,24868.896200
1 Jan 2020 20:23:26.000,181.208,-77.525,24746.503206
1 Jan 2020 20:23:56.000,182.641,-77.708,24627.747214
1 Jan 2020 20:24:26.000,184.131,-77.895,24512.744633
1 Jan 2020 20:24:56.000,185.681,-78.085,24401.609711
1 Jan 2020 20:25:26.000,187.295,-78.277,24294.454023
1 Jan 2020 20:25:56.000,188.975,-78.471,24191.386193
1 Jan 2020 20:26:26.000,190.725,-78.666,24092.511629
1 Jan 2020 20:26:56.000,192.548,-78.861,23997.932056
1 Jan 2020 20:27:26.000,194.449,-79.055,23907.746016
1 Jan 2020 20:27:56.000,196.429,-79.247,23822.047429
1 Jan 2020 20:28:26.000,198.493,-79.436,23740.926110
1 Jan 2020 20:28:56.000,200.642,-79.622,23664.467309
1 Jan 2020 20:29:26.000,202.880,-79.802,23592.751453
1 Jan 2020 20:29:56.000,205.207,-79.977,23525.853895
1 Jan 2020 20:30:26.000,207.624,-80.145,23463.844539
1 Jan 2020 20:30:56.000,210.132,-80.304,23406.788197
1 Jan 2020 20:31:26.000,212.730,-80.453,23354.743478
1 Jan 2020 20:31:56.000,215.415,-80.592,23307.763202
1 Jan 2020 20:32:26.000,218.185,-80.719,23265.894067
1 Jan 2020 20:32:56.000,221.033,-80.832,23229.176487
1 Jan 2020 20:33:26.000,223.954,-80.932,23197.644380
1 Jan 2020 20:33:56.000,226.940,-81.017,23171.325349
1 Jan 2020 20:34:26.000,229.981,-81.085,23150.240117
1 Jan 2020 20:34:56.000,233.067,-81.138,23134.402780
1 Jan 2020 20:35:26.000,236.185,-81.173,23123.820673
1 Jan 2020 20:35:56.000,239.322,-81.190,23118.494345
1 Jan 2020 20:36:26.000,242.466,-81.190,23118.417552
1 Jan 2020 20:36:56.000,245.603,-81.173,23123.577332
1 Jan 2020 20:37:26.000,248.720,-81.138,23133.953966
1 Jan 2020 20:37:56.000,251.805,-81.087,23149.521123
1 Jan 2020 20:38:26.000,254.845,-81.019,23170.245943
1 Jan 2020 20:38:56.000,257.831,-80.936,23196.089154
1 Jan 2020 20:39:26.000,260.754,-80.838,23227.005272
1 Jan 2020 20:39:56.000,263.605,-80.726,23262.942567
1 Jan 2020 20:40:26.000,266.380,-80.602,23303.843529
1 Jan 2020 20:40:56.000,269.073,-80.466,23349.644895
1 Jan 2020 20:41:26.000,271.681,-80.320,23400.277906
1 Jan 2020 20:41:56.000,274.204,-80.164,23455.668543
1 Jan 2020 20:42:26.000,276.640,-80.001,23515.737773
1 Jan 2020 20:42:56.000,278.989,-79.831,23580.401933
1 Jan 2020 20:43:26.000,281.253,-79.656,23649.572493
1 Jan 2020 20:43:56.000,283.434,-79.475,23723.157069
1 Jan 2020 20:44:26.000,285.534,-79.292,23801.059219
1 Jan 2020 20:44:56.000,287.556,-79.105,23883.178844
1 Jan 2020 20:45:26.000,289.503,-78.917,23969.412468
1 Jan 2020 20:45:56.000,291.378,-78.729,24059.653527
1 Jan 2020 20:46:26.000,293.184,-78.540,24153.792648
1 Jan 2020 20:46:56.000,294.926,-78.353,24251.718123
1 Jan 2020 20:47:26.000,296.607,-78.166,24353.315426
1 Jan 2020 20:47:56.000,298.229,-77.982,24458.468604
1 Jan 2020 20:48:26.000,299.796,-77.801,24567.059806
1 Jan 2020 20:48:56.000,301.312,-77.623,24678.969717
1 Jan 2020 20:49:26.000,302.779,-77.449,24794.077810
1 Jan 2020 20:49:56.000,304.200,-77.280,24912.262581
1 Jan 2020 20:50:26.000,305.579,-77.115,25033.401781
1 Jan 2020 20:50:56.000,306.917,-76.955,25157.372637
1 Jan 2020 20:51:26.000,308.218,-76.800,25284.052054
1 Jan 2020 20:51:56.000,309.484,-76.651,25413.316820
1 Jan 2020 20:52:26.000,310.716,-76.509,25545.044042
1 Jan 2020 20:52:56.000,311.918,-76.372,25679.110322
1 Jan 2020 20:53:26.000,313.091,-76.241,25815.393412
1 Jan 2020 20:53:56.000,314.237,-76.117,25953.771383
1 Jan 2020 20:54:26.000,315.358,-76.000,26094.123014
1 Jan 2020 20:54:29.524,315.488,-75.987,26110.731897
1 Jan 2020 22:30:46.101,216.511,-75.993,26117.950883
1 Jan 2020 22:31:16.000,217.823,-76.093,25996.918372
1 Jan 2020 22:31:46.000,219.166,-76.197,25877.617034
1 Jan 2020 22:32:16.000,220.537,-76.305,25760.558587
1 Jan 2020 22:32:46.000,221.937,-76.417,25645.841585
1 Jan 2020 22:33:16.000,223.368,-76.533,25533.564323
1 Jan 2020 22:33:46.000,224.832,-76.653,25423.824695
1 Jan 2020 22:34:16.000,226.329,-76.775,25316.720062
1 Jan 2020 22:34:46.000,227.862,-76.900,25212.347095
1 Jan 2020 22:35:16.000,229.431,-77.027,25110.801627
1 Jan 2020 22:35:46.000,231.039,-77.157,25012.178494
1 Jan 2020 22:36:16.000,232.686,-77.288,24916.571365
1 Jan 2020 22:36:46.000,234.375,-77.419,24824.072386
1 Jan 2020 22:37:16.000,236.107,-77.552,24734.772781
1 Jan 2020 22:37:46.000,237.882,-77.685,24648.761498
1 Jan 2020 22:38:16.000,239.703,-77.817,24566.125816
1 Jan 2020 22:38:46.000,241.570,-77.949,24486.950970
1 Jan 2020 22:39:16.000,243.484,-78.079,24411.319955
1 Jan 2020 22:39:46.000,245.447,-78.206,24339.313349
1 Jan 2020 22:40:16.000,247.458,-78.332,24271.009120
1 Jan 2020 22:40:46.000,249.518,-78.453,24206.482443
1 Jan 2020 22:41:16.000,251.627,-78.571,24145.805389
1 Jan 2020 22:41:46.000,253.785,-78.685,24089.047252
1 Jan 2020 22:42:16.000,255.991,-78.793,24036.273594
1 Jan 2020 22:42:46.000,258.243,-78.895,23987.546597
1 Jan 2020 22:43:16.000,260.541,-78.990,23942.924764
1 Jan 2020 22:43:46.000,262.882,-79.079,23902.462753
1 Jan 2020 22:44:16.000,265.264,-79.159,23866.211223
1 Jan 2020 22:44:46.000,267.684,-79.232,23834.216691
1 Jan 2020 22:45:16.000,270.138,-79.295,23806.521349
1 Jan 2020 22:45:46.000,272.621,-79.349,23783.163135
1 Jan 2020 22:46:16.000,275.131,-79.394,23764.175305
1 Jan 2020 22:46:46.000,277.662,-79.428,23749.586554
1 Jan 2020 22:47:16.000,280.208,-79.452,23739.420864
1 Jan 2020 22:47:46.000,282.764,-79.466,23733.697432
1 Jan 2020 22:48:16.000,285.325,-79.469,23732.430609
1 Jan 2020 22:48:46.000,287.885,-79.461,23735.629869
1 Jan 2020 22:49:16.000,290.438,-79.443,23743.299709
1 Jan 2020 22:49:46.000,292.979,-79.414,23755.439723
1 Jan 2020 22:50:16.000,295.502,-79.375,23772.044546
1 Jan 2020 22:50:46.000,298.002,-79.325,23793.103881
1 Jan 2020 22:51:16.000,300.474,-79.266,23818.602520
1 Jan 2020 22:51:46.000,302.913,-79.198,23848.520397
1 Jan 2020 22:52:16.000,305.317,-79.121,23882.832716
1 Jan 2020 22:52:46.000,307.680,-79.035,23921.509709
1 Jan 2020 22:53:16.000,310.000,-78.942,23964.517183
1 Jan 2020 22:53:46.000,312.276,-78.842,24011.816319
1 Jan 2020 22:54:16.000,314.503,-78.735,24063.363848
1 Jan 2020 22:54:46.000,316.682,-78.622,24119.112178
1 Jan 2020 22:55:16.000,318.810,-78.504,24179.009517
1 Jan 2020 22:55:46.000,320.888,-78.382,24243.000019
1 Jan 2020 22:56:16.000,322.915,-78.255,24311.024087
1 Jan 2020 22:56:46.000,324.890,-78.126,24383.017907
1 Jan 2020 22:57:16.000,326.815,-77.994,24458.914531
1 Jan 2020 22:57:46.000,328.689,-77.860,24538.643439
1 Jan 2020 22:58:16.000,330.513,-77.724,24622.130861
1 Jan 2020 22:58:46.000,332.290,-77.588,24709.299954
1 Jan 2020 22:59:16.000,334.018,-77.452,24800.070977
1 Jan 2020 22:59:46.000,335.701,-77.316,24894.361473
1 Jan 2020 23:00:16.000,337.339,-77.180,24992.086451
1 Jan 2020 23:00:46.000,338.933,-77.047,25093.158777
1 Jan 2020 23:01:16.000,340.486,-76.915,25197.488505
1 Jan 2020 23:01:46.000,341.997,-76.785,25304.984322
1 Jan 2020 23:02:16.000,343.470,-76.658,25415.552882
1 Jan 2020 23:02:46.000,344.906,-76.534,25529.099192
1 Jan 2020 23:03:16.000,346.305,-76.414,25645.526774
1 Jan 2020 23:03:46.000,347.670,-76.297,25764.737834
1 Jan 2020 23:04:16.000,349.002,-76.185,25886.633423
1 Jan 2020 23:04:46.000,350.303,-76.077,26011.113586
1 Jan 2020 23:05:11.324,351.377,-75.989,26118.128706
2 Jan 2020 00:35:57.053,224.307,-75.991,26120.728045
2 Jan 2020 00:36:27.000,224.845,-76.135,25948.358461
2 Jan 2020 00:36:57.000,225.396,-76.290,25777.544710
2 Jan 2020 00:37:27.000,225.959,-76.456,25608.746881
2 Jan 2020 00:37:57.000,226.535,-76.634,25442.120541
2 Jan 2020 00:38:27.000,227.128,-76.823,25277.822856
2 Jan 2020 00:38:57.000,227.737,-77.023,25116.012421
2 Jan 2020 00:39:27.000,228.366,-77.234,24956.849074
2 Jan 2020 00:39:57.000,229.016,-77.457,24800.493692
2 Jan 2020 00:40:27.000,229.689,-77.691,24647.107964
2 Jan 2020 00:40:57.000,230.390,-77.935,24496.854148
2 Jan 2020 00:41:27.000,231.120,-78.191,24349.894541
2 Jan 2020 00:41:57.000,231.883,-78.458,24206.392280
2 Jan 2020 00:42:27.000,232.683,-78.735,24066.509400
2 Jan 2020 00:42:57.000,233.525,-79.023,23930.407614
2 Jan 2020 00:43:27.000,234.414,-79.320,23798.247692
2 Jan 2020 00:43:57.000,235.355,-79.627,23670.189099
2 Jan 2020 00:44:27.000,236.356,-79.944,23546.389623
2 Jan 2020 00:44:57.000,237.424,-80.269,23427.004758
2 Jan 2020 00:45:27.000,238.568,-80.602,23312.188164
2 Jan 2020 00:45:57.000,239.800,-80.943,23202.089926
2 Jan 2020 00:46:27.000,241.132,-81.291,23096.857003
2 Jan 2020 00:46:57.000,242.577,-81.645,22996.632559
2 Jan 2020 00:47:27.000,244.155,-82.003,22901.555504
2 Jan 2020 00:47:57.000,245.886,-82.365,22811.759876
2 Jan 2020 00:48:27.000,247.793,-82.729,22727.375039
2 Jan 2020 00:48:57.000,249.906,-83.094,22648.524221
2 Jan 2020 00:49:27.000,252.261,-83.458,22575.324734
2 Jan 2020 00:49:57.000,254.896,-83.817,22507.887365
2 Jan 2020 00:50:27.000,257.861,-84.170,22446.315933
2 Jan 2020 00:50:57.000,261.210,-84.513,22390.706775
2 Jan 2020 00:51:27.000,265.003,-84.842,22341.148782
2 Jan 2020 00:51:57.000,269.305,-85.152,22297.722351
2 Jan 2020 00:52:27.000,274.179,-85.437,22260.499501
2 Jan 2020 00:52:57.000,279.672,-85.690,22229.543443
2 Jan 2020 00:53:27.000,285.803,-85.904,22204.908265
2 Jan 2020 00:53:57.000,292.539,-86.072,22186.638834
2 Jan 2020 00:54:27.000,299.779,-86.185,22174.770355
2 Jan 2020 00:54:57.000,307.344,-86.238,22169.328380
2 Jan 2020 00:55:27.000,314.997,-86.228,22170.328648
2 Jan 2020 00:55:57.000,322.486,-86.156,22177.777038
2 Jan 2020 00:56:27.000,329.586,-86.025,22191.669439
2 Jan 2020 00:56:57.000,336.141,-85.842,22211.991910
2 Jan 2020 00:57:27.000,342.069,-85.614,22238.720663
2 Jan 2020 00:57:57.000,347.356,-85.349,22271.822191
2 Jan 2020 00:58:27.000,352.030,-85.054,22311.253515
2 Jan 2020 00:58:57.000,356.145,-84.735,22356.962026
2 Jan 2020 00:59:27.000,359.764,-84.399,22408.886231
2 Jan 2020 00:59:57.000,2.951,-84.050,22466.955702
2 Jan 2020 01:00:27.000,5.766,-83.691,22531.091457
2 Jan 2020 01:00:57.000,8.261,-83.327,22601.206300
2 Jan 2020 01:01:27.000,10.482,-82.959,22677.205371
2 Jan 2020 01:01:57.000,12.467,-82.591,22758.985816
2 Jan 2020 01:02:27.000,14.250,-82.223,22846.438251
2 Jan 2020 01:02:57.000,15.859,-81.858,22939.446500
2 Jan 2020 01:03:27.000,17.316,-81.497,23037.888200
2 Jan 2020 01:03:57.000,18.641,-81.141,23141.635246
2 Jan 2020 01:04:27.000,19.851,-80.792,23250.554469
2 Jan 2020 01:04:57.000,20.959,-80.449,23364.507207
2 Jan 2020 01:05:27.000,21.978,-80.114,23483.351061
2 Jan 2020 01:05:57.000,22.919,-79.788,23606.939487
2 Jan 2020 01:06:27.000,23.788,-79.470,23735.122442
2 Jan 2020 01:06:57.000,24.595,-79.162,23867.746823
2 Jan 2020 01:07:27.000,25.346,-78.864,24004.656877
2 Jan 2020 01:07:57.000,26.046,-78.577,24145.694617
2 Jan 2020 01:08:27.000,26.700,-78.300,24290.700509
2 Jan 2020 01:08:57.000,27.312,-78.034,24439.512632
2 Jan 2020 01:09:27.000,27.886,-77.780,24591.968851
2 Jan 2020 01:09:57.000,28.426,-77.536,24747.905952
2 Jan 2020 01:10:27.000,28.934,-77.304,24907.160256
2 Jan 2020 01:10:57.000,29.413,-77.084,25069.567924
2 Jan 2020 01:11:27.000,29.865,-76.875,25234.965232
2 Jan 2020 01:11:57.000,30.293,-76.678,25403.188838
2 Jan 2020 01:12:27.000,30.697,-76.493,25574.076018
2 Jan 2020 01:12:57.000,31.080,-76.320,25747.464894
2 Jan 2020 01:13:27.000,31.444,-76.158,25923.194638
2 Jan 2020 01:13:57.000,31.788,-76.008,26101.105656
2 Jan 2020 01:14:00.295,31.825,-75.992,26120.773718
2 Jan 2020 02:39:53.030,203.131,-75.988,26116.720829
2 Jan 2020 02:40:23.000,202.444,-76.128,25949.355020
2 Jan 2020 02:40:53.000,201.728,-76.277,25784.181309
2 Jan 2020 02:41:23.000,200.984,-76.436,25621.515074
2 Jan 2020 02:41:53.000,200.207,-76.605,25461.504840
2 Jan 2020 02:42:23.000,199.397,-76.784,25304.299437
2 Jan 2020 02:42:53.000,198.551,-76.972,25150.047794
2 Jan 2020 02:43:23.000,197.666,-77.169,24998.898707
2 Jan 2020 02:43:53.000,196.739,-77.375,24851.000601
2 Jan 2020 02:44:23.000,195.766,-77.590,24706.501269
2 Jan 2020 02:44:53.000,194.745,-77.813,24565.547323
2 Jan 2020 02:45:23.000,193.670,-78.043,24428.285032
2 Jan 2020 02:45:53.000,192.538,-78.282,24294.858324
2 Jan 2020 02:46:23.000,191.345,-78.527,24165.409608
2 Jan 2020 02:46:53.000,190.083,-78.779,24040.079165
2 Jan 2020 02:47:23.000,188.749,-79.037,23919.004807
2 Jan 2020 02:47:53.000,187.335,-79.300,23802.321532
2 Jan 2020 02:48:23.000,185.834,-79.567,23690.160938
2 Jan 2020 02:48:53.000,184.239,-79.837,23582.651777
2 Jan 2020 02:49:23.000,182.541,-80.110,23479.918200
2 Jan 2020 02:49:53.000,180.732,-80.384,23382.080314
2 Jan 2020 02:50:23.000,178.802,-80.659,23289.253579
2 Jan 2020 02:50:53.000,176.741,-80.931,23201.548437
2 Jan 2020 02:51:23.000,174.539,-81.202,23119.069772
2 Jan 2020 02:51:53.000,172.183,-81.467,23041.917240
2 Jan 2020 02:52:23.000,169.664,-81.727,22970.183876
2 Jan 2020 02:52:53.000,166.971,-81.978,22903.956456
2 Jan 2020 02:53:23.000,164.094,-82.219,22843.315005
2 Jan 2020 02:53:53.000,161.026,-82.447,22788.332485
2 Jan 2020 02:54:23.000,157.762,-82.660,22739.074403
2 Jan 2020 02:54:53.000,154.300,-82.856,22695.599020
2 Jan 2020 02:55:23.000,150.644,-83.031,22657.956392
2 Jan 2020 02:55:53.000,146.803,-83.184,22626.188666
2 Jan 2020 02:56:23.000,142.794,-83.312,22600.329773
2 Jan 2020 02:56:53.000,138.640,-83.412,22580.405290
2 Jan 2020 02:57:23.000,134.371,-83.484,22566.432293
2 Jan 2020 02:57:53.000,130.025,-83.526,22558.419454
2 Jan 2020 02:58:23.000,125.642,-83.537,22556.366728
2 Jan 2020 02:58:53.000,121.266,-83.517,22560.265554
2 Jan 2020 02:59:23.000,116.940,-83.466,22570.098833
2 Jan 2020 02:59:53.000,112.703,-83.386,22585.841006
2 Jan 2020 03:00:23.000,108.590,-83.277,22607.458199
2 Jan 2020 03:00:53.000,104.628,-83.143,22634.908216
2 Jan 2020 03:01:23.000,100.837,-82.984,22668.140923
2 Jan 2020 03:01:53.000,97.232,-82.805,22707.098326
2 Jan 2020 03:02:23.000,93.818,-82.607,22751.714838
2 Jan 2020 03:02:53.000,90.597,-82.392,22801.917541
2 Jan 2020 03:03:23.000,87.566,-82.163,22857.626584
2 Jan 2020 03:03:53.000,84.719,-81.923,22918.755064
2 Jan 2020 03:04:23.000,82.046,-81.674,22985.209979
2 Jan 2020 03:04:53.000,79.539,-81.417,23056.892167
2 Jan 2020 03:05:23.000,77.185,-81.156,23133.696766
2 Jan 2020 03:05:53.000,74.975,-80.890,23215.513579
2 Jan 2020 03:06:23.000,72.897,-80.622,23302.227450
2 Jan 2020 03:06:53.000,70.941,-80.354,23393.718841
2 Jan 2020 03:07:23.000,69.097,-80.086,23489.863457
2 Jan 2020 03:07:53.000,67.356,-79.820,23590.533744
2 Jan 2020 03:08:23.000,65.709,-79.557,23695.598538
2 Jan 2020 03:08:53.000,64.148,-79.297,23804.923622
2 Jan 2020 03:09:23.000,62.665,-79.042,23918.372092
2 Jan 2020 03:09:53.000,61.254,-78.792,24035.804717
2 Jan 2020 03:10:23.000,59.909,-78.547,24157.080290
2 Jan 2020 03:10:53.000,58.623,-78.309,24282.056204
2 Jan 2020 03:11:23.000,57.393,-78.078,24410.587829
2 Jan 2020 03:11:53.000,56.213,-77.854,24542.530234
2 Jan 2020 03:12:23.000,55.079,-77.638,24677.737551
2 Jan 2020 03:12:53.000,53.986,-77.429,24816.063488
2 Jan 2020 03:13:23.000,52.933,-77.229,24957.361594
2 Jan 2020 03:13:53.000,51.915,-77.038,25101.485513
2 Jan 2020 03:14:23.000,50.929,-76.855,25248.289214
2 Jan 2020 03:14:53.000,49.972,-76.680,25397.627213
2 Jan 2020 03:15:23.000,49.043,-76.515,25549.354777
2 Jan 2020 03:15:53.000,48.139,-76.359,25703.328107
2 Jan 2020 03:16:23.000,47.258,-76.212,25859.404516
2 Jan 2020 03:16:53.000,46.397,-76.074,26017.442586
2 Jan 2020 03:17:11.600,45.873,-75.993,26116.349882
2 Jan 2020 04:51:03.676,156.442,-75.986,26108.891489
2 Jan 2020 04:51:33.000,155.121,-76.081,25993.972460
2 Jan 2020 04:52:03.000,153.741,-76.181,25878.717818
2 Jan 2020 04:52:33.000,152.333,-76.285,25765.895978
2 Jan 2020 04:53:03.000,150.894,-76.393,25655.598131
2 Jan 2020 04:53:33.000,149.424,-76.503,25547.914665
2 Jan 2020 04:54:03.000,147.920,-76.616,25442.935032
2 Jan 2020 04:54:33.000,146.383,-76.731,25340.747613
2 Jan 2020 04:55:03.000,144.810,-76.849,25241.439569
2 Jan 2020 04:55:33.000,143.201,-76.968,25145.096704
2 Jan 2020 04:56:03.000,141.554,-77.088,25051.803309
2 Jan 2020 04:56:33.000,139.869,-77.209,24961.641823
2 Jan 2020 04:57:03.000,138.144,-77.330,24874.693438
2 Jan 2020 04:57:33.000,136.378,-77.451,24791.036795
2 Jan 2020 04:58:03.000,134.570,-77.572,24710.748600
2 Jan 2020 04:58:33.000,132.721,-77.691,24633.903266
2 Jan 2020 04:59:03.000,130.828,-77.809,24560.572759
2 Jan 2020 04:59:33.000,128.892,-77.925,24490.826441
2 Jan 2020 05:00:03.000,126.913,-78.037,24424.730909
2 Jan 2020 05:00:33.000,124.891,-78.147,24362.349849
2 Jan 2020 05:01:03.000,122.825,-78.253,24303.743752
2 Jan 2020 05:01:33.000,120.718,-78.355,24248.970291
2 Jan 2020 05:02:03.000,118.569,-78.451,24198.083384
2 Jan 2020 05:02:33.000,116.379,-78.542,24151.133596
2 Jan 2020 05:03:03.000,114.152,-78.628,24108.167873
2 Jan 2020 05:03:33.000,111.887,-78.706,24069.229422
2 Jan 2020 05:04:03.000,109.589,-78.778,24034.357590
2 Jan 2020 05:04:33.000,107.259,-78.842,24003.587767
2 Jan 2020 05:05:03.000,104.901,-78.899,23976.951227
2 Jan 2020 05:05:33.000,102.517,-78.947,23954.475275
2 Jan 2020 05:06:03.000,100.113,-78.986,23936.182813
2 Jan 2020 05:06:33.000,97.691,-79.017,23922.092524
2 Jan 2020 05:07:03.000,95.257,-79.039,23912.218754
2 Jan 2020 05:07:33.000,92.814,-79.051,23906.571469
2 Jan 2020 05:08:03.000,90.367,-79.054,23905.156232
2 Jan 2020 05:08:33.000,87.921,-79.048,23907.974183
2 Jan 2020 05:09:03.000,85.480,-79.033,23915.022058
2 Jan 2020 05:09:33.000,83.049,-79.008,23926.292124
2 Jan 2020 05:10:03.000,80.633,-78.975,23941.772297
2 Jan 2020 05:10:33.000,78.234,-78.933,23961.446123
2 Jan 2020 05:11:03.000,75.858,-78.882,23985.292836
2 Jan 2020 05:11:33.000,73.508,-78.823,24013.287413
2 Jan 2020 05:12:03.000,71.188,-78.757,24045.400649
2 Jan 2020 05:12:33.000,68.900,-78.683,24081.599233
2 Jan 2020 05:13:03.000,66.646,-78.603,24121.845937
2 Jan 2020 05:13:33.000,64.430,-78.516,24166.099349
2 Jan 2020 05:14:03.000,62.253,-78.423,24214.314518
2 Jan 2020 05:14:33.000,60.116,-78.325,24266.442726
2 Jan 2020 05:15:03.000,58.021,-78.222,24322.431699
2 Jan 2020 05:15:33.000,55.968,-78.115,24382.225737
2 Jan 2020 05:16:03.000,53.959,-78.004,24445.765858
2 Jan 2020 05:16:33.000,51.992,-77.891,24512.989938
2 Jan 2020 05:17:03.000,50.069,-77.775,24583.832861
2 Jan 2020 05:17:33.000,48.189,-77.657,24658.226839
2 Jan 2020 05:18:03.000,46.351,-77.537,24736.100908
2 Jan 2020 05:18:33.000,44.555,-77.417,24817.382058
2 Jan 2020 05:19:03.000,42.800,-77.296,24901.994754
2 Jan 2020 05:19:33.000,41.086,-77.175,24989.861248
2 Jan 2020 05:20:03.000,39.411,-77.054,25080.901740
2 Jan 2020 05:20:33.000,37.774,-76.935,25175.034534
2 Jan 2020 05:21:03.000,36.174,-76.817,25272.176197
2 Jan 2020 05:21:33.000,34.610,-76.700,25372.241708
2 Jan 2020 05:22:03.000,33.081,-76.586,25475.144615
2 Jan 2020 05:22:33.000,31.585,-76.474,25580.797178
2 Jan 2020 05:23:03.000,30.122,-76.365,25689.110742
2 Jan 2020 05:23:33.000,28.690,-76.258,25799.994978
2 Jan 2020 05:24:03.000,27.287,-76.156,25913.359360
2 Jan 2020 05:24:33.000,25.914,-76.057,26029.112410
2 Jan 2020 05:24:53.313,24.999,-75.992,26108.799770
2 Jan 2020 06:59:04.058,134.097,-75.987,26104.209043
2 Jan 2020 06:59:34.000,133.222,-76.118,25946.990427
2 Jan 2020 07:00:04.000,132.324,-76.258,25791.344282
2 Jan 2020 07:00:34.000,131.404,-76.407,25637.716200
2 Jan 2020 07:01:04.000,130.460,-76.565,25486.246518
2 Jan 2020 07:01:34.000,129.489,-76.732,25337.076744
2 Jan 2020 07:02:04.000,128.490,-76.907,25190.349397
2 Jan 2020 07:02:34.000,127.458,-77.090,25046.207825
2 Jan 2020 07:03:04.000,126.393,-77.282,24904.796017
2 Jan 2020 07:03:34.000,125.290,-77.482,24766.258392
2 Jan 2020 07:04:04.000,124.147,-77.690,24630.739576
2 Jan 2020 07:04:34.000,122.960,-77.905,24498.384164
2 Jan 2020 07:05:04.000,121.724,-78.128,24369.336210
2 Jan 2020 07:05:34.000,120.435,-78.357,24243.739991
2 Jan 2020 07:06:04.000,119.090,-78.592,24121.738160
2 Jan 2020 07:06:34.000,117.682,-78.834,24003.472496
2 Jan 2020 07:07:04.000,116.205,-79.080,23889.083329
2 Jan 2020 07:07:34.000,114.655,-79.331,23778.709212
2 Jan 2020 07:08:04.000,113.023,-79.585,23672.486585
2 Jan 2020 07:08:34.000,111.303,-79.842,23570.549427
2 Jan 2020 07:09:04.000,109.487,-80.101,23473.028705
2 Jan 2020 07:09:34.000,107.566,-80.361,23380.052792
2 Jan 2020 07:10:04.000,105.533,-80.621,23291.745904
2 Jan 2020 07:10:34.000,103.376,-80.879,23208.228535
2 Jan 2020 07:11:04.000,101.088,-81.134,23129.616869
2 Jan 2020 07:11:34.000,98.658,-81.384,23056.022410
2 Jan 2020 07:12:04.000,96.077,-81.627,22987.551497
2 Jan 2020 07:12:34.000,93.337,-81.862,22924.305400
2 Jan 2020 07:13:04.000,90.428,-82.087,22866.379251
2 Jan 2020 07:13:34.000,87.347,-82.300,22813.862185
2 Jan 2020 07:14:04.000,84.090,-82.497,22766.836883
2 Jan 2020 07:14:34.000,80.656,-82.678,22725.379257
2 Jan 2020 07:15:04.000,77.052,-82.839,22689.558106
2 Jan 2020 07:15:34.000,73.286,-82.978,22659.435069
2 Jan 2020 07:16:04.000,69.375,-83.094,22635.064019
2 Jan 2020 07:16:34.000,65.342,-83.184,22616.491093
2 Jan 2020 07:17:04.000,61.213,-83.247,22603.754442
2 Jan 2020 07:17:34.000,57.022,-83.281,22596.884066
2 Jan 2020 07:18:04.000,52.805,-83.286,22595.901713
2 Jan 2020 07:18:34.000,48.601,-83.261,22600.820719
2 Jan 2020 07:19:04.000,44.447,-83.208,22611.646031
2 Jan 2020 07:19:34.000,40.377,-83.126,22628.374147
2 Jan 2020 07:20:04.000,36.422,-83.018,22650.993132
2 Jan 2020 07:20:34.000,32.608,-82.885,22679.482676
2 Jan 2020 07:21:04.000,28.952,-82.729,22713.814268
2 Jan 2020 07:21:34.000,25.468,-82.553,22753.950944
2 Jan 2020 07:22:04.000,22.163,-82.358,22799.847978
2 Jan 2020 07:22:34.000,19.039,-82.147,22851.452716
2 Jan 2020 07:23:04.000,16.094,-81.922,22908.704874
2 Jan 2020 07:23:34.000,13.325,-81.686,22971.536769
2 Jan 2020 07:24:04.000,10.724,-81.440,23039.873748
2 Jan 2020 07:24:34.000,8.283,-81.187,23113.633841
2 Jan 2020 07:25:04.000,5.993,-80.928,23192.728993
2 Jan 2020 07:25:34.000,3.844,-80.665,23277.064779
2 Jan 2020 07:26:04.000,1.827,-80.400,23366.540887
2 Jan 2020 07:26:34.000,359.932,-80.134,23461.051462
2 Jan 2020 07:27:04.000,358.151,-79.868,23560.485469
2 Jan 2020 07:27:34.000,356.474,-79.604,23664.727282
2 Jan 2020 07:28:04.000,354.894,-79.342,23773.656112
2 Jan 2020 07:28:34.000,353.403,-79.084,23887.147770
2 Jan 2020 07:29:04.000,351.995,-78.830,24005.074106
2 Jan 2020 07:29:34.000,350.663,-78.581,24127.303600
2 Jan 2020 07:30:04.000,349.400,-78.338,24253.701714
2 Jan 2020 07:30:34.000,348.203,-78.102,24384.131239
2 Jan 2020 07:31:04.000,347.065,-77.872,24518.452635
2 Jan 2020 07:31:34.000,345.983,-77.650,24656.524637
2 Jan 2020 07:32:04.000,344.952,-77.435,24798.203461
2 Jan 2020 07:32:34.000,343.969,-77.229,24943.344764
2 Jan 2020 07:33:04.000,343.029,-77.031,25091.802837
2 Jan 2020 07:33:34.000,342.131,-76.842,25243.431159
2 Jan 2020 07:34:04.000,341.270,-76.662,25398.082653
2 Jan 2020 07:34:34.000,340.446,-76.492,25555.609938
2 Jan 2020 07:35:04.000,339.654,-76.330,25715.865565
2 Jan 2020 07:35:34.000,338.893,-76.179,25878.702230
2 Jan 2020 07:36:04.000,338.161,-76.036,26043.972982
2 Jan 2020 07:36:14.786,337.904,-75.988,26103.961830
2 Jan 2020 09:02:14.056,147.433,-75.990,26106.060016
2 Jan 2020 09:02:44.000,147.740,-76.139,25927.572450
2 Jan 2020 09:03:14.000,148.064,-76.301,25750.895811
2 Jan 2020 09:03:44.000,148.407,-76.474,25576.525314
2 Jan 2020 09:04:14.000,148.769,-76.659,25404.622737
2 Jan 2020 09:04:44.000,149.154,-76.856,25235.351002
2 Jan 2020 09:05:14.000,149.561,-77.065,25068.873977
2 Jan 2020 09:05:44.000,149.993,-77.286,24905.356250
2 Jan 2020 09:06:14.000,150.452,-77.519,24744.962894
2 Jan 2020 09:06:44.000,150.941,-77.764,24587.859201
2 Jan 2020 09:07:14.000,151.462,-78.020,24434.210410
2 Jan 2020 09:07:44.000,152.018,-78.287,24284.181086
2 Jan 2020 09:08:14.000,152.613,-78.566,24137.936073
2 Jan 2020 09:08:44.000,153.251,-78.856,23995.638241
2 Jan 2020 09:09:14.000,153.936,-79.156,23857.449409
2 Jan 2020 09:09:44.000,154.674,-79.467,23723.529652
2 Jan 2020 09:10:14.000,155.471,-79.788,23594.036903
2 Jan 2020 09:10:44.000,156.333,-80.119,23469.126547
2 Jan 2020 09:11:14.000,157.270,-80.458,23348.950751
2 Jan 2020 09:11:44.000,158.291,-80.806,23233.659018
2 Jan 2020 09:12:14.000,159.407,-81.162,23123.396242
2 Jan 2020 09:12:44.000,160.632,-81.524,23018.303260
2 Jan 2020 09:13:14.000,161.983,-81.892,22918.516143
2 Jan 2020 09:13:44.000,163.478,-82.266,22824.165726
2 Jan 2020 09:14:14.000,165.142,-82.643,22735.376970
2 Jan 2020 09:14:44.000,167.001,-83.022,22652.269247
