STKdata/stk_70fov_4leo/Satellite-MEO_Satellite10001-To-Satellite-LEO_Satellite10000 AER.csv

"Time (UTCG)","Azimuth (deg)","Elevation (deg)","Range (km)"
1 Jan 2020 00:11:44.007,192.186,-75.993,26114.212028
1 Jan 2020 00:12:14.000,193.489,-76.095,25990.645549
1 Jan 2020 00:12:44.000,194.823,-76.201,25869.522381
1 Jan 2020 00:13:14.000,196.187,-76.311,25750.970159
1 Jan 2020 00:13:44.000,197.584,-76.425,25635.085580
1 Jan 2020 00:14:14.000,199.015,-76.543,25521.964315
1 Jan 2020 00:14:44.000,200.481,-76.663,25411.700863
1 Jan 2020 00:15:14.000,201.984,-76.786,25304.388398
1 Jan 2020 00:15:44.000,203.525,-76.912,25200.118609
1 Jan 2020 00:16:14.000,205.105,-77.039,25098.981538
1 Jan 2020 00:16:44.000,206.726,-77.168,25001.065417
1 Jan 2020 00:17:14.000,208.390,-77.298,24906.456286
1 Jan 2020 00:17:44.000,210.096,-77.428,24815.238677
1 Jan 2020 00:18:14.000,211.848,-77.559,24727.494155
1 Jan 2020 00:18:44.000,213.644,-77.689,24643.302011
1 Jan 2020 00:19:14.000,215.488,-77.818,24562.738873
1 Jan 2020 00:19:44.000,217.378,-77.946,24485.878535
1 Jan 2020 00:20:14.000,219.316,-78.071,24412.791788
1 Jan 2020 00:20:44.000,221.303,-78.194,24343.546255
1 Jan 2020 00:21:14.000,223.337,-78.313,24278.206090
1 Jan 2020 00:21:44.000,225.420,-78.429,24216.832378
1 Jan 2020 00:22:14.000,227.550,-78.539,24159.482133
1 Jan 2020 00:22:44.000,229.727,-78.645,24106.208726
1 Jan 2020 00:23:14.000,231.949,-78.744,24057.061599
1 Jan 2020 00:23:44.000,234.214,-78.837,24012.086139
1 Jan 2020 00:24:14.000,236.521,-78.923,23971.323548
1 Jan 2020 00:24:44.000,238.867,-79.002,23934.810664
1 Jan 2020 00:25:14.000,241.249,-79.072,23902.580165
1 Jan 2020 00:25:44.000,243.663,-79.134,23874.660002
1 Jan 2020 00:26:14.000,246.105,-79.187,23851.073649
1 Jan 2020 00:26:44.000,248.572,-79.231,23831.839954
1 Jan 2020 00:27:14.000,251.059,-79.264,23816.973085
1 Jan 2020 00:27:44.000,253.560,-79.289,23806.482495
1 Jan 2020 00:28:14.000,256.071,-79.303,23800.372880
1 Jan 2020 00:28:44.000,258.587,-79.306,23798.644238
1 Jan 2020 00:29:14.000,261.101,-79.300,23801.291756
1 Jan 2020 00:29:44.000,263.610,-79.284,23808.305913
1 Jan 2020 00:30:14.000,266.107,-79.257,23819.672491
1 Jan 2020 00:30:44.000,268.589,-79.221,23835.372619
1 Jan 2020 00:31:14.000,271.049,-79.176,23855.382832
1 Jan 2020 00:31:44.000,273.485,-79.121,23879.675189
1 Jan 2020 00:32:14.000,275.891,-79.058,23908.217182
1 Jan 2020 00:32:44.000,278.264,-78.986,23940.972088
1 Jan 2020 00:33:14.000,280.602,-78.907,23977.898912
1 Jan 2020 00:33:44.000,282.900,-78.820,24018.952548
1 Jan 2020 00:34:14.000,285.157,-78.727,24064.083908
1 Jan 2020 00:34:44.000,287.372,-78.628,24113.240054
1 Jan 2020 00:35:14.000,289.542,-78.523,24166.364353
1 Jan 2020 00:35:44.000,291.666,-78.413,24223.396739
1 Jan 2020 00:36:14.000,293.745,-78.299,24284.273413
1 Jan 2020 00:36:44.000,295.777,-78.181,24348.927689
1 Jan 2020 00:37:14.000,297.762,-78.060,24417.289719
1 Jan 2020 00:37:44.000,299.701,-77.936,24489.286769
1 Jan 2020 00:38:14.000,301.595,-77.811,24564.843396
1 Jan 2020 00:38:44.000,303.443,-77.684,24643.881627
1 Jan 2020 00:39:14.000,305.247,-77.556,24726.321129
1 Jan 2020 00:39:44.000,307.008,-77.428,24812.079392
1 Jan 2020 00:40:14.000,308.727,-77.301,24901.072078
1 Jan 2020 00:40:44.000,310.405,-77.174,24993.212496
1 Jan 2020 00:41:14.000,312.043,-77.048,25088.412811
1 Jan 2020 00:41:44.000,313.644,-76.923,25186.583531
1 Jan 2020 00:42:14.000,315.207,-76.801,25287.633836
1 Jan 2020 00:42:44.000,316.735,-76.680,25391.471744
1 Jan 2020 00:43:14.000,318.228,-76.563,25498.004266
1 Jan 2020 00:43:44.000,319.689,-76.448,25607.137555
1 Jan 2020 00:44:14.000,321.119,-76.337,25718.777058
1 Jan 2020 00:44:44.000,322.518,-76.229,25832.827650
1 Jan 2020 00:45:14.000,323.889,-76.125,25949.193776
1 Jan 2020 00:45:44.000,325.233,-76.025,26067.779576
1 Jan 2020 00:45:55.625,325.747,-75.987,26114.306465
1 Jan 2020 02:21:50.688,225.120,-75.993,26120.056807
1 Jan 2020 02:22:20.000,226.165,-76.109,25978.778458
1 Jan 2020 02:22:50.000,227.257,-76.236,25836.097539
1 Jan 2020 02:23:20.000,228.375,-76.370,25695.475644
1 Jan 2020 02:23:50.000,229.521,-76.510,25557.038939
1 Jan 2020 02:24:20.000,230.698,-76.658,25420.914304
1 Jan 2020 02:24:50.000,231.906,-76.812,25287.229184
1 Jan 2020 02:25:20.000,233.149,-76.972,25156.111413
1 Jan 2020 02:25:50.000,234.429,-77.138,25027.689042
1 Jan 2020 02:26:20.000,235.749,-77.310,24902.090147
1 Jan 2020 02:26:50.000,237.111,-77.488,24779.442625
1 Jan 2020 02:27:20.000,238.519,-77.670,24659.873980
1 Jan 2020 02:27:50.000,239.976,-77.857,24543.510868
1 Jan 2020 02:28:20.000,241.486,-78.049,24430.479789
1 Jan 2020 02:28:50.000,243.051,-78.243,24320.905434
1 Jan 2020 02:29:20.000,244.675,-78.441,24214.911371
1 Jan 2020 02:29:50.000,246.363,-78.641,24112.619538
1 Jan 2020 02:30:20.000,248.119,-78.843,24014.149970
1 Jan 2020 02:30:50.000,249.946,-79.045,23919.620513
1 Jan 2020 02:31:20.000,251.848,-79.248,23829.146533
1 Jan 2020 02:31:50.000,253.831,-79.450,23742.840457
1 Jan 2020 02:32:20.000,255.898,-79.650,23660.812132
1 Jan 2020 02:32:50.000,258.052,-79.847,23583.167526
1 Jan 2020 02:33:20.000,260.298,-80.040,23510.009091
1 Jan 2020 02:33:50.000,262.639,-80.227,23441.435299
1 Jan 2020 02:34:20.000,265.077,-80.409,23377.540336
1 Jan 2020 02:34:50.000,267.614,-80.582,23318.413811
1 Jan 2020 02:35:20.000,270.251,-80.747,23264.140370
1 Jan 2020 02:35:50.000,272.986,-80.901,23214.799810
1 Jan 2020 02:36:20.000,275.819,-81.044,23170.466205
1 Jan 2020 02:36:50.000,278.746,-81.173,23131.208065
1 Jan 2020 02:37:20.000,281.760,-81.288,23097.087988
1 Jan 2020 02:37:50.000,284.854,-81.388,23068.162436
1 Jan 2020 02:38:20.000,288.019,-81.471,23044.481502
1 Jan 2020 02:38:50.000,291.243,-81.536,23026.088846
1 Jan 2020 02:39:20.000,294.513,-81.583,23013.021334
1 Jan 2020 02:39:50.000,297.815,-81.611,23005.309042
1 Jan 2020 02:40:20.000,301.132,-81.619,23002.975097
1 Jan 2020 02:40:50.000,304.448,-81.608,23006.035596
1 Jan 2020 02:41:20.000,307.747,-81.577,23014.499573
1 Jan 2020 02:41:50.000,311.013,-81.528,23028.368826
1 Jan 2020 02:42:20.000,314.231,-81.459,23047.638100
1 Jan 2020 02:42:50.000,317.388,-81.373,23072.294987
1 Jan 2020 02:43:20.000,320.471,-81.270,23102.319998
1 Jan 2020 02:43:50.000,323.472,-81.151,23137.686634
1 Jan 2020 02:44:20.000,326.381,-81.017,23178.361586
1 Jan 2020 02:44:50.000,329.194,-80.870,23224.304456
1 Jan 2020 02:45:20.000,331.906,-80.711,23275.468487
1 Jan 2020 02:45:50.000,334.515,-80.542,23331.800350
1 Jan 2020 02:46:20.000,337.020,-80.363,23393.240427
1 Jan 2020 02:46:50.000,339.422,-80.176,23459.723017
1 Jan 2020 02:47:20.000,341.722,-79.982,23531.176561
1 Jan 2020 02:47:50.000,343.923,-79.783,23607.524065
1 Jan 2020 02:48:20.000,346.028,-79.580,23688.682624
1 Jan 2020 02:48:50.000,348.039,-79.374,23774.564767
1 Jan 2020 02:49:20.000,349.962,-79.165,23865.078022
1 Jan 2020 02:49:50.000,351.801,-78.956,23960.125368
1 Jan 2020 02:50:20.000,353.558,-78.747,24059.605526
1 Jan 2020 02:50:50.000,355.239,-78.539,24163.413246
1 Jan 2020 02:51:20.000,356.848,-78.333,24271.439601
1 Jan 2020 02:51:50.000,358.388,-78.129,24383.572532
1 Jan 2020 02:52:20.000,359.864,-77.929,24499.696125
1 Jan 2020 02:52:50.000,1.279,-77.732,24619.692408
1 Jan 2020 02:53:20.000,2.636,-77.540,24743.440630
1 Jan 2020 02:53:50.000,3.940,-77.353,24870.817793
1 Jan 2020 02:54:20.000,5.194,-77.172,25001.698914
1 Jan 2020 02:54:50.000,6.400,-76.996,25135.957294
1 Jan 2020 02:55:20.000,7.561,-76.827,25273.464762
1 Jan 2020 02:55:50.000,8.680,-76.664,25414.091928
1 Jan 2020 02:56:20.000,9.759,-76.508,25557.708410
1 Jan 2020 02:56:50.000,10.801,-76.360,25704.183354
1 Jan 2020 02:57:20.000,11.809,-76.218,25853.384476
1 Jan 2020 02:57:50.000,12.783,-76.085,26005.180012
1 Jan 2020 02:58:12.423,13.491,-75.991,26120.250371
1 Jan 2020 04:25:04.304,217.634,-75.990,26119.743558
1 Jan 2020 04:25:34.000,217.611,-76.140,25940.201124
1 Jan 2020 04:26:04.000,217.581,-76.304,25760.816342
1 Jan 2020 04:26:34.000,217.543,-76.480,25583.600044
1 Jan 2020 04:27:04.000,217.495,-76.669,25408.716445
1 Jan 2020 04:27:34.000,217.439,-76.870,25236.331287
1 Jan 2020 04:28:04.000,217.373,-77.084,25066.611654
1 Jan 2020 04:28:34.000,217.297,-77.311,24899.725764
1 Jan 2020 04:29:04.000,217.209,-77.551,24735.842741
1 Jan 2020 04:29:34.000,217.110,-77.803,24575.132368
1 Jan 2020 04:30:04.000,216.998,-78.068,24417.764818
1 Jan 2020 04:30:34.000,216.872,-78.346,24263.910058
1 Jan 2020 04:31:04.000,216.732,-78.637,24113.738769
1 Jan 2020 04:31:34.000,216.575,-78.940,23967.420154
1 Jan 2020 04:32:04.000,216.400,-79.255,23825.122830
1 Jan 2020 04:32:34.000,216.205,-79.583,23687.014136
1 Jan 2020 04:33:04.000,215.988,-79.922,23553.259744
1 Jan 2020 04:33:34.000,215.746,-80.274,23424.023238
1 Jan 2020 04:34:04.000,215.476,-80.637,23299.465438
1 Jan 2020 04:34:34.000,215.174,-81.011,23179.744943
1 Jan 2020 04:35:04.000,214.835,-81.397,23065.016168
1 Jan 2020 04:35:34.000,214.454,-81.793,22955.429876
1 Jan 2020 04:36:04.000,214.023,-82.199,22851.132442
1 Jan 2020 04:36:34.000,213.534,-82.614,22752.265362
1 Jan 2020 04:37:04.000,212.974,-83.039,22658.964569
1 Jan 2020 04:37:34.000,212.330,-83.472,22571.360705
1 Jan 2020 04:38:04.000,211.581,-83.913,22489.577471
1 Jan 2020 04:38:34.000,210.702,-84.362,22413.731927
1 Jan 2020 04:39:04.000,209.657,-84.816,22343.933830
1 Jan 2020 04:39:34.000,208.398,-85.275,22280.285059
1 Jan 2020 04:40:04.000,206.852,-85.738,22222.879668
1 Jan 2020 04:40:34.000,204.914,-86.203,22171.802740
1 Jan 2020 04:41:04.000,202.421,-86.668,22127.130509
1 Jan 2020 04:41:34.000,199.106,-87.128,22088.929894
1 Jan 2020 04:42:04.000,194.522,-87.580,22057.258125
1 Jan 2020 04:42:34.000,187.874,-88.012,22032.162735
1 Jan 2020 04:43:04.000,177.735,-88.405,22013.680929
1 Jan 2020 04:43:34.000,161.836,-88.721,22001.839693
1 Jan 2020 04:44:04.000,138.707,-88.887,21996.655587
1 Jan 2020 04:44:34.000,113.087,-88.838,21998.134671
1 Jan 2020 04:45:04.000,93.061,-88.595,22006.272463
1 Jan 2020 04:45:34.000,80.007,-88.239,22021.053960
1 Jan 2020 04:46:04.000,71.623,-87.825,22042.453724
1 Jan 2020 04:46:34.000,65.995,-87.384,22070.435993
1 Jan 2020 04:47:04.000,62.017,-86.928,22104.954931
1 Jan 2020 04:47:34.000,59.075,-86.465,22145.954557
1 Jan 2020 04:48:04.000,56.815,-86.001,22193.369411
1 Jan 2020 04:48:34.000,55.024,-85.538,22247.124600
1 Jan 2020 04:49:04.000,53.569,-85.077,22307.136198
1 Jan 2020 04:49:34.000,52.359,-84.621,22373.311745
1 Jan 2020 04:50:04.000,51.336,-84.170,22445.550149
1 Jan 2020 04:50:34.000,50.455,-83.726,22523.742854
1 Jan 2020 04:51:04.000,49.688,-83.290,22607.773808
1 Jan 2020 04:51:34.000,49.010,-82.861,22697.520049
1 Jan 2020 04:52:04.000,48.404,-82.442,22792.852186
1 Jan 2020 04:52:34.000,47.859,-82.031,22893.635099
1 Jan 2020 04:53:04.000,47.362,-81.631,22999.727607
1 Jan 2020 04:53:34.000,46.906,-81.241,23110.984186
1 Jan 2020 04:54:04.000,46.484,-80.861,23227.254663
1 Jan 2020 04:54:34.000,46.091,-80.493,23348.384896
1 Jan 2020 04:55:04.000,45.723,-80.136,23474.217259
1 Jan 2020 04:55:34.000,45.376,-79.791,23604.591103
1 Jan 2020 04:56:04.000,45.047,-79.458,23739.343483
1 Jan 2020 04:56:34.000,44.734,-79.137,23878.308535
1 Jan 2020 04:57:04.000,44.433,-78.828,24021.319468
1 Jan 2020 04:57:34.000,44.144,-78.531,24168.207930
1 Jan 2020 04:58:04.000,43.865,-78.247,24318.804640
1 Jan 2020 04:58:34.000,43.595,-77.975,24472.939757
1 Jan 2020 04:59:04.000,43.331,-77.716,24630.443210
1 Jan 2020 04:59:34.000,43.074,-77.470,24791.145022
1 Jan 2020 05:00:04.000,42.821,-77.237,24954.875604
1 Jan 2020 05:00:34.000,42.573,-77.016,25121.466024
1 Jan 2020 05:01:04.000,42.329,-76.807,25290.748585
1 Jan 2020 05:01:34.000,42.088,-76.612,25462.555785
1 Jan 2020 05:02:04.000,41.849,-76.428,25636.722425
1 Jan 2020 05:02:34.000,41.612,-76.257,25813.084538
1 Jan 2020 05:03:04.000,41.376,-76.098,25991.479884
1 Jan 2020 05:03:25.321,41.209,-75.993,26119.414155
1 Jan 2020 06:31:44.609,184.251,-75.987,26113.177043
1 Jan 2020 06:32:14.000,183.151,-76.101,25975.098299
1 Jan 2020 06:32:44.000,181.996,-76.223,25836.670850
1 Jan 2020 06:33:14.000,180.807,-76.352,25700.900381
1 Jan 2020 06:33:44.000,179.583,-76.486,25567.903550
1 Jan 2020 06:34:14.000,178.321,-76.626,25437.796196
1 Jan 2020 06:34:44.000,177.020,-76.771,25310.693156
1 Jan 2020 06:35:14.000,175.677,-76.920,25186.708071
1 Jan 2020 06:35:44.000,174.290,-77.074,25065.953184
1 Jan 2020 06:36:14.000,172.858,-77.232,24948.539136
1 Jan 2020 06:36:44.000,171.377,-77.393,24834.574514
1 Jan 2020 06:37:14.000,169.846,-77.556,24724.166583
1 Jan 2020 06:37:44.000,168.262,-77.723,24617.419625
1 Jan 2020 06:38:14.000,166.623,-77.890,24514.435678
1 Jan 2020 06:38:44.000,164.925,-78.059,24415.314057
1 Jan 2020 06:39:14.000,163.168,-78.229,24320.151128
1 Jan 2020 06:39:44.000,161.349,-78.398,24229.040069
1 Jan 2020 06:40:14.000,159.465,-78.566,24142.070635
1 Jan 2020 06:40:44.000,157.514,-78.732,24059.328744
1 Jan 2020 06:41:14.000,155.496,-78.896,23980.897005
1 Jan 2020 06:41:44.000,153.408,-79.056,23906.853336
1 Jan 2020 06:42:14.000,151.249,-79.212,23837.271528
1 Jan 2020 06:42:44.000,149.020,-79.362,23772.220832
1 Jan 2020 06:43:14.000,146.719,-79.506,23711.765761
1 Jan 2020 06:43:44.000,144.348,-79.643,23655.965891
1 Jan 2020 06:44:14.000,141.908,-79.772,23604.875562
1 Jan 2020 06:44:44.000,139.401,-79.892,23558.544196
1 Jan 2020 06:45:14.000,136.830,-80.002,23517.015398
1 Jan 2020 06:45:44.000,134.199,-80.101,23480.327323
1 Jan 2020 06:46:14.000,131.513,-80.188,23448.512421
1 Jan 2020 06:46:44.000,128.779,-80.263,23421.597337
1 Jan 2020 06:47:14.000,126.002,-80.326,23399.602823
1 Jan 2020 06:47:44.000,123.190,-80.375,23382.543619
1 Jan 2020 06:48:14.000,120.352,-80.410,23370.428614
1 Jan 2020 06:48:44.000,117.495,-80.431,23363.260497
1 Jan 2020 06:49:14.000,114.631,-80.437,23361.035975
1 Jan 2020 06:49:44.000,111.767,-80.429,23363.745727
1 Jan 2020 06:50:14.000,108.913,-80.408,23371.374444
1 Jan 2020 06:50:44.000,106.077,-80.372,23383.900883
1 Jan 2020 06:51:14.000,103.270,-80.322,23401.297971
1 Jan 2020 06:51:44.000,100.497,-80.259,23423.532794
1 Jan 2020 06:52:14.000,97.767,-80.184,23450.566858
1 Jan 2020 06:52:44.000,95.086,-80.097,23482.356134
1 Jan 2020 06:53:14.000,92.459,-79.999,23518.851224
1 Jan 2020 06:53:44.000,89.890,-79.890,23559.997528
1 Jan 2020 06:54:14.000,87.383,-79.772,23605.735423
1 Jan 2020 06:54:44.000,84.941,-79.646,23656.000550
1 Jan 2020 06:55:14.000,82.566,-79.512,23710.723637
1 Jan 2020 06:55:44.000,80.258,-79.371,23769.831273
1 Jan 2020 06:56:14.000,78.018,-79.224,23833.245766
1 Jan 2020 06:56:44.000,75.844,-79.073,23900.885461
1 Jan 2020 06:57:14.000,73.738,-78.917,23972.664973
1 Jan 2020 06:57:44.000,71.697,-78.758,24048.495434
1 Jan 2020 06:58:14.000,69.720,-78.597,24128.284727
1 Jan 2020 06:58:44.000,67.804,-78.434,24211.937901
1 Jan 2020 06:59:14.000,65.949,-78.271,24299.356755
1 Jan 2020 06:59:44.000,64.151,-78.107,24390.441058
1 Jan 2020 07:00:14.000,62.408,-77.944,24485.088145
1 Jan 2020 07:00:44.000,60.718,-77.782,24583.193313
1 Jan 2020 07:01:14.000,59.079,-77.622,24684.650057
1 Jan 2020 07:01:44.000,57.488,-77.463,24789.350293
1 Jan 2020 07:02:14.000,55.942,-77.308,24897.184580
1 Jan 2020 07:02:44.000,54.440,-77.156,25008.042339
1 Jan 2020 07:03:14.000,52.980,-77.007,25121.812056
1 Jan 2020 07:03:44.000,51.558,-76.862,25238.381703
1 Jan 2020 07:04:14.000,50.173,-76.722,25357.638048
1 Jan 2020 07:04:44.000,48.822,-76.586,25479.468156
1 Jan 2020 07:05:14.000,47.505,-76.455,25603.758686
1 Jan 2020 07:05:44.000,46.218,-76.329,25730.396276
1 Jan 2020 07:06:14.000,44.961,-76.208,25859.267695
1 Jan 2020 07:06:44.000,43.731,-76.093,25990.259994
1 Jan 2020 07:07:11.682,42.619,-75.992,26112.914631
1 Jan 2020 08:43:53.165,139.713,-75.986,26106.019699
1 Jan 2020 08:44:23.000,138.455,-76.091,25979.754671
1 Jan 2020 08:44:53.000,137.165,-76.201,25854.854295
1 Jan 2020 08:45:23.000,135.846,-76.315,25732.129023
1 Jan 2020 08:45:53.000,134.498,-76.435,25611.684752
1 Jan 2020 08:46:23.000,133.118,-76.558,25493.627413
1 Jan 2020 08:46:53.000,131.706,-76.686,25378.062829
1 Jan 2020 08:47:23.000,130.260,-76.817,25265.096568
1 Jan 2020 08:47:53.000,128.777,-76.952,25154.833786
1 Jan 2020 08:48:23.000,127.256,-77.090,25047.379060
1 Jan 2020 08:48:53.000,125.696,-77.231,24942.836218
1 Jan 2020 08:49:23.000,124.093,-77.374,24841.308160
1 Jan 2020 08:49:53.000,122.447,-77.519,24742.896472
1 Jan 2020 08:50:23.000,120.755,-77.666,24647.702041
1 Jan 2020 08:50:53.000,119.015,-77.813,24555.823637
1 Jan 2020 08:51:23.000,117.227,-77.960,24467.358531
1 Jan 2020 08:51:53.000,115.387,-78.107,24382.402081
1 Jan 2020 08:52:23.000,113.495,-78.254,24301.047522
1 Jan 2020 08:52:53.000,111.549,-78.398,24223.385752
1 Jan 2020 08:53:23.000,109.548,-78.541,24149.505118
1 Jan 2020 08:53:53.000,107.490,-78.680,24079.491074
1 Jan 2020 08:54:23.000,105.376,-78.816,24013.426473
1 Jan 2020 08:54:53.000,103.204,-78.948,23951.390581
1 Jan 2020 08:55:23.000,100.975,-79.074,23893.459383
1 Jan 2020 08:55:53.000,98.690,-79.194,23839.705248
1 Jan 2020 08:56:23.000,96.349,-79.308,23790.196724
1 Jan 2020 08:56:53.000,93.954,-79.414,23744.998338
1 Jan 2020 08:57:23.000,91.508,-79.512,23704.170343
1 Jan 2020 08:57:53.000,89.013,-79.601,23667.768811
1 Jan 2020 08:58:23.000,86.474,-79.680,23635.845033
1 Jan 2020 08:58:53.000,83.894,-79.750,23608.445659
1 Jan 2020 08:59:23.000,81.278,-79.808,23585.612466
1 Jan 2020 08:59:53.000,78.632,-79.855,23567.382229
1 Jan 2020 09:00:23.000,75.962,-79.891,23553.786600
1 Jan 2020 09:00:53.000,73.275,-79.914,23544.852001
1 Jan 2020 09:01:23.000,70.578,-79.926,23540.599549
1 Jan 2020 09:01:53.000,67.877,-79.924,23541.044949
1 Jan 2020 09:02:23.000,65.180,-79.911,23546.198469
1 Jan 2020 09:02:53.000,62.495,-79.885,23556.064897
1 Jan 2020 09:03:23.000,59.827,-79.847,23570.643514
1 Jan 2020 09:03:53.000,57.185,-79.798,23589.928100
1 Jan 2020 09:04:23.000,54.574,-79.737,23613.907011
1 Jan 2020 09:04:53.000,51.999,-79.665,23642.562955
1 Jan 2020 09:05:23.000,49.467,-79.582,23675.873418
1 Jan 2020 09:05:53.000,46.982,-79.490,23713.810495
1 Jan 2020 09:06:23.000,44.547,-79.388,23756.341026
1 Jan 2020 09:06:53.000,42.165,-79.279,23803.426702
1 Jan 2020 09:07:23.000,39.840,-79.161,23855.024175
1 Jan 2020 09:07:53.000,37.573,-79.037,23911.085323
1 Jan 2020 09:08:23.000,35.365,-78.906,23971.556876
1 Jan 2020 09:08:53.000,33.216,-78.770,24036.381322
1 Jan 2020 09:09:23.000,31.128,-78.630,24105.496585
1 Jan 2020 09:09:53.000,29.100,-78.486,24178.836313
1 Jan 2020 09:10:23.000,27.132,-78.338,24256.330066
1 Jan 2020 09:10:53.000,25.222,-78.189,24337.903502
1 Jan 2020 09:11:23.000,23.369,-78.038,24423.478574
1 Jan 2020 09:11:53.000,21.572,-77.886,24512.973928
1 Jan 2020 09:12:23.000,19.830,-77.734,24606.304321
1 Jan 2020 09:12:53.000,18.140,-77.582,24703.381995
1 Jan 2020 09:13:23.000,16.501,-77.431,24804.116114
1 Jan 2020 09:13:53.000,14.912,-77.282,24908.413160
1 Jan 2020 09:14:23.000,13.369,-77.135,25016.177142
1 Jan 2020 09:14:53.000,11.872,-76.990,25127.309800
1 Jan 2020 09:15:23.000,10.419,-76.849,25241.710806
1 Jan 2020 09:15:53.000,9.007,-76.710,25359.277965
1 Jan 2020 09:16:23.000,7.635,-76.576,25479.907409
1 Jan 2020 09:16:53.000,6.301,-76.446,25603.494041
1 Jan 2020 09:17:23.000,5.003,-76.321,25729.930701
1 Jan 2020 09:17:53.000,3.740,-76.200,25859.109869
1 Jan 2020 09:18:23.000,2.509,-76.085,25990.922824
1 Jan 2020 09:18:48.693,1.481,-75.990,26105.823307
1 Jan 2020 10:48:12.510,137.201,-75.988,26104.146775
1 Jan 2020 10:48:42.000,136.831,-76.134,25929.956158
1 Jan 2020 10:49:12.000,136.449,-76.294,25754.619809
1 Jan 2020 10:49:42.000,136.061,-76.465,25581.325777
1 Jan 2020 10:50:12.000,135.665,-76.649,25410.234497
1 Jan 2020 10:50:42.000,135.260,-76.845,25241.508099
1 Jan 2020 10:51:12.000,134.845,-77.053,25075.310230
1 Jan 2020 10:51:42.000,134.419,-77.273,24911.805862
1 Jan 2020 10:52:12.000,133.980,-77.505,24751.161082
1 Jan 2020 10:52:42.000,133.527,-77.750,24593.542851
1 Jan 2020 10:53:12.000,133.057,-78.007,24439.118764
1 Jan 2020 10:53:42.000,132.569,-78.275,24288.056479
1 Jan 2020 10:54:12.000,132.060,-78.556,24140.524572
1 Jan 2020 10:54:42.000,131.527,-78.848,23996.690496
1 Jan 2020 10:55:12.000,130.967,-79.153,23856.721398
1 Jan 2020 10:55:42.000,130.376,-79.468,23720.783467
1 Jan 2020 10:56:12.000,129.750,-79.795,23589.041562
1 Jan 2020 10:56:42.000,129.084,-80.133,23461.658808
1 Jan 2020 10:57:12.000,128.371,-80.481,23338.795953
1 Jan 2020 10:57:42.000,127.605,-80.840,23220.611854
1 Jan 2020 10:58:12.000,126.777,-81.209,23107.261639
1 Jan 2020 10:58:42.000,125.877,-81.586,22998.897175
1 Jan 2020 10:59:12.000,124.892,-81.973,22895.666368
1 Jan 2020 10:59:42.000,123.807,-82.367,22797.712673
1 Jan 2020 11:00:12.000,122.602,-82.768,22705.174441
1 Jan 2020 11:00:42.000,121.254,-83.176,22618.185134
1 Jan 2020 11:01:12.000,119.733,-83.589,22536.871767
1 Jan 2020 11:01:42.000,118.000,-84.005,22461.355147
1 Jan 2020 11:02:12.000,116.006,-84.423,22391.749227
1 Jan 2020 11:02:42.000,113.685,-84.841,22328.160534
1 Jan 2020 11:03:12.000,110.953,-85.256,22270.688174
1 Jan 2020 11:03:42.000,107.696,-85.666,22219.422730
1 Jan 2020 11:04:12.000,103.765,-86.064,22174.446337
1 Jan 2020 11:04:42.000,98.963,-86.445,22135.832199
1 Jan 2020 11:05:12.000,93.045,-86.800,22103.644208
1 Jan 2020 11:05:42.000,85.733,-87.116,22077.936872
1 Jan 2020 11:06:12.000,76.784,-87.379,22058.754716
1 Jan 2020 11:06:42.000,66.148,-87.567,22046.132313
1 Jan 2020 11:07:12.000,54.192,-87.663,22040.094065
1 Jan 2020 11:07:42.000,41.785,-87.654,22040.654094
1 Jan 2020 11:08:12.000,30.007,-87.541,22047.816141
1 Jan 2020 11:08:42.000,19.651,-87.338,22061.573583
1 Jan 2020 11:09:12.000,11.002,-87.064,22081.909456
1 Jan 2020 11:09:42.000,3.962,-86.739,22108.796536
1 Jan 2020 11:10:12.000,358.275,-86.378,22142.197548
1 Jan 2020 11:10:42.000,353.665,-85.992,22182.065037
1 Jan 2020 11:11:12.000,349.894,-85.590,22228.342030
1 Jan 2020 11:11:42.000,346.775,-85.178,22280.962018
1 Jan 2020 11:12:12.000,344.164,-84.760,22339.849323
1 Jan 2020 11:12:42.000,341.954,-84.340,22404.919577
1 Jan 2020 11:13:12.000,340.064,-83.920,22476.079560
1 Jan 2020 11:13:42.000,338.431,-83.502,22553.228374
1 Jan 2020 11:14:12.000,337.008,-83.088,22636.257362
1 Jan 2020 11:14:42.000,335.757,-82.678,22725.050673
1 Jan 2020 11:15:12.000,334.651,-82.276,22819.485721
1 Jan 2020 11:15:42.000,333.666,-81.880,22919.433874
1 Jan 2020 11:16:12.000,332.784,-81.493,23024.760074
1 Jan 2020 11:16:42.000,331.989,-81.114,23135.324591
1 Jan 2020 11:17:12.000,331.271,-80.744,23250.982665
1 Jan 2020 11:17:42.000,330.618,-80.385,23371.585200
1 Jan 2020 11:18:12.000,330.023,-80.036,23496.979230
1 Jan 2020 11:18:42.000,329.479,-79.697,23627.008391
1 Jan 2020 11:19:12.000,328.980,-79.370,23761.513643
1 Jan 2020 11:19:42.000,328.521,-79.054,23900.332618
1 Jan 2020 11:20:12.000,328.098,-78.750,24043.301674
1 Jan 2020 11:20:42.000,327.707,-78.458,24190.255220
1 Jan 2020 11:21:12.000,327.345,-78.178,24341.026376
1 Jan 2020 11:21:42.000,327.009,-77.910,24495.447336
1 Jan 2020 11:22:12.000,326.698,-77.654,24653.349722
1 Jan 2020 11:22:42.000,326.409,-77.411,24814.564904
1 Jan 2020 11:23:12.000,326.140,-77.180,24978.924314
1 Jan 2020 11:23:42.000,325.890,-76.961,25146.259726
1 Jan 2020 11:24:12.000,325.657,-76.755,25316.403858
1 Jan 2020 11:24:42.000,325.440,-76.561,25489.189281
1 Jan 2020 11:25:12.000,325.239,-76.380,25664.450638
1 Jan 2020 11:25:42.000,325.051,-76.211,25842.023522
1 Jan 2020 11:26:12.000,324.877,-76.054,26021.744994
1 Jan 2020 11:26:25.657,324.802,-75.987,26104.230641
1 Jan 2020 12:52:46.412,161.933,-75.992,26109.020081
1 Jan 2020 12:53:16.000,162.761,-76.123,25950.881047
1 Jan 2020 12:53:46.000,163.630,-76.266,25792.968341
1 Jan 2020 12:54:16.000,164.532,-76.416,25637.639453
1 Jan 2020 12:54:46.000,165.468,-76.576,25485.034693
1 Jan 2020 12:55:16.000,166.441,-76.743,25335.294277
1 Jan 2020 12:55:46.000,167.453,-76.919,25188.558115
1 Jan 2020 12:56:16.000,168.507,-77.102,25044.965584
1 Jan 2020 12:56:46.000,169.605,-77.293,24904.655294
1 Jan 2020 12:57:16.000,170.752,-77.491,24767.764837
1 Jan 2020 12:57:46.000,171.950,-77.695,24634.430255
1 Jan 2020 12:58:16.000,173.204,-77.906,24504.786857
1 Jan 2020 12:58:46.000,174.516,-78.122,24378.967286
1 Jan 2020 12:59:16.000,175.892,-78.344,24257.102334
1 Jan 2020 12:59:46.000,177.336,-78.570,24139.320355
1 Jan 2020 13:00:16.000,178.853,-78.800,24025.746957
1 Jan 2020 13:00:46.000,180.448,-79.033,23916.504680
1 Jan 2020 13:01:16.000,182.127,-79.268,23811.712464
1 Jan 2020 13:01:46.000,183.895,-79.504,23711.486178
1 Jan 2020 13:02:16.000,185.758,-79.740,23615.936990
1 Jan 2020 13:02:46.000,187.723,-79.976,23525.171913
1 Jan 2020 13:03:16.000,189.795,-80.209,23439.293258
1 Jan 2020 13:03:46.000,191.980,-80.439,23358.398315
1 Jan 2020 13:04:16.000,194.286,-80.664,23282.578875
1 Jan 2020 13:04:46.000,196.716,-80.883,23211.921560
1 Jan 2020 13:05:16.000,199.275,-81.094,23146.506564
1 Jan 2020 13:05:46.000,201.967,-81.296,23086.408024
1 Jan 2020 13:06:16.000,204.794,-81.486,23031.693588
1 Jan 2020 13:06:46.000,207.755,-81.664,22982.424168
1 Jan 2020 13:07:16.000,210.849,-81.826,22938.653614
1 Jan 2020 13:07:46.000,214.070,-81.972,22900.428924
1 Jan 2020 13:08:16.000,217.410,-82.100,22867.789427
1 Jan 2020 13:08:46.000,220.858,-82.209,22840.767069
1 Jan 2020 13:09:16.000,224.398,-82.296,22819.386174
1 Jan 2020 13:09:46.000,228.013,-82.361,22803.663352
1 Jan 2020 13:10:16.000,231.681,-82.403,22793.607400
1 Jan 2020 13:10:46.000,235.379,-82.422,22789.219406
1 Jan 2020 13:11:16.000,239.084,-82.416,22790.492526
1 Jan 2020 13:11:46.000,242.770,-82.387,22797.412167
1 Jan 2020 13:12:16.000,246.415,-82.334,22809.956012
1 Jan 2020 13:12:46.000,249.997,-82.259,22828.094104
1 Jan 2020 13:13:16.000,253.496,-82.163,22851.789014
1 Jan 2020 13:13:46.000,256.896,-82.047,22880.995831
1 Jan 2020 13:14:16.000,260.186,-81.912,22915.662556
1 Jan 2020 13:14:46.000,263.355,-81.760,22955.730173
1 Jan 2020 13:15:16.000,266.397,-81.594,23001.132907
1 Jan 2020 13:15:46.000,269.310,-81.413,23051.798469
1 Jan 2020 13:16:16.000,272.092,-81.222,23107.648430
1 Jan 2020 13:16:46.000,274.744,-81.020,23168.598105
1 Jan 2020 13:17:16.000,277.271,-80.810,23234.557438
1 Jan 2020 13:17:46.000,279.676,-80.593,23305.430938
1 Jan 2020 13:18:16.000,281.964,-80.371,23381.118096
1 Jan 2020 13:18:46.000,284.141,-80.145,23461.513712
1 Jan 2020 13:19:16.000,286.213,-79.916,23546.508234
1 Jan 2020 13:19:46.000,288.186,-79.686,23635.988275
1 Jan 2020 13:20:16.000,290.066,-79.456,23729.836261
1 Jan 2020 13:20:46.000,291.860,-79.227,23827.931793
1 Jan 2020 13:21:16.000,293.572,-78.999,23930.151314
1 Jan 2020 13:21:46.000,295.210,-78.774,24036.368603
1 Jan 2020 13:22:16.000,296.778,-78.552,24146.455103
1 Jan 2020 13:22:46.000,298.280,-78.334,24260.280241
1 Jan 2020 13:23:16.000,299.723,-78.121,24377.711728
1 Jan 2020 13:23:46.000,301.110,-77.912,24498.615868
1 Jan 2020 13:24:16.000,302.445,-77.709,24622.858082
1 Jan 2020 13:24:46.000,303.732,-77.513,24750.302208
1 Jan 2020 13:25:16.000,304.975,-77.322,24880.812221
1 Jan 2020 13:25:46.000,306.177,-77.138,25014.251516
1 Jan 2020 13:26:16.000,307.341,-76.962,25150.483385
1 Jan 2020 13:26:46.000,308.470,-76.792,25289.371234
1 Jan 2020 13:27:16.000,309.566,-76.630,25430.778797
1 Jan 2020 13:27:46.000,310.633,-76.476,25574.570326
1 Jan 2020 13:28:16.000,311.672,-76.330,25720.610775
1 Jan 2020 13:28:46.000,312.685,-76.191,25868.765966
1 Jan 2020 13:29:16.000,313.674,-76.061,26018.902741
1 Jan 2020 13:29:33.908,314.254,-75.987,26109.414747
1 Jan 2020 15:04:41.794,209.856,-75.993,26116.840678
1 Jan 2020 15:05:11.000,211.172,-76.087,26002.447867
1 Jan 2020 15:05:41.000,212.551,-76.188,25887.168219
1 Jan 2020 15:06:11.000,213.957,-76.291,25774.233972
1 Jan 2020 15:06:41.000,215.394,-76.399,25663.737520
1 Jan 2020 15:07:11.000,216.861,-76.509,25555.770663
1 Jan 2020 15:07:41.000,218.361,-76.622,25450.424470
1 Jan 2020 15:08:11.000,219.894,-76.738,25347.789146
1 Jan 2020 15:08:41.000,221.462,-76.856,25247.953890
1 Jan 2020 15:09:11.000,223.066,-76.975,25151.006749
1 Jan 2020 15:09:41.000,224.707,-77.096,25057.034471
1 Jan 2020 15:10:11.000,226.386,-77.218,24966.122167
1 Jan 2020 15:10:41.000,228.105,-77.340,24878.353889
1 Jan 2020 15:11:11.000,229.864,-77.463,24793.811362
1 Jan 2020 15:11:41.000,231.665,-77.585,24712.574572
1 Jan 2020 15:12:11.000,233.508,-77.706,24634.721409
1 Jan 2020 15:12:41.000,235.394,-77.825,24560.327509
1 Jan 2020 15:13:11.000,237.324,-77.943,24489.466088
1 Jan 2020 15:13:41.000,239.297,-78.058,24422.207780
1 Jan 2020 15:14:11.000,241.314,-78.170,24358.620475
1 Jan 2020 15:14:41.000,243.375,-78.279,24298.769033
1 Jan 2020 15:15:11.000,245.479,-78.383,24242.715642
1 Jan 2020 15:15:41.000,247.625,-78.482,24190.518881
1 Jan 2020 15:16:11.000,249.813,-78.576,24142.234106
1 Jan 2020 15:16:41.000,252.041,-78.665,24097.913170
1 Jan 2020 15:17:11.000,254.306,-78.747,24057.604286
1 Jan 2020 15:17:41.000,256.608,-78.822,24021.351901
1 Jan 2020 15:18:11.000,258.942,-78.889,23989.196577
1 Jan 2020 15:18:41.000,261.307,-78.949,23961.174820
1 Jan 2020 15:19:11.000,263.698,-79.000,23937.319208
1 Jan 2020 15:19:41.000,266.112,-79.043,23917.657942
1 Jan 2020 15:20:11.000,268.545,-79.077,23902.215017
1 Jan 2020 15:20:41.000,270.993,-79.101,23891.010081
1 Jan 2020 15:21:11.000,273.451,-79.117,23884.058380
1 Jan 2020 15:21:41.000,275.914,-79.123,23881.370715
1 Jan 2020 15:22:11.000,278.378,-79.119,23882.953406
1 Jan 2020 15:22:41.000,280.838,-79.106,23888.808296
1 Jan 2020 15:23:11.000,283.289,-79.083,23898.932663
1 Jan 2020 15:23:41.000,285.727,-79.051,23913.319332
1 Jan 2020 15:24:11.000,288.146,-79.011,23931.956636
1 Jan 2020 15:24:41.000,290.544,-78.961,23954.828457
1 Jan 2020 15:25:11.000,292.916,-78.903,23981.914269
1 Jan 2020 15:25:41.000,295.258,-78.837,24013.189201
1 Jan 2020 15:26:11.000,297.567,-78.763,24048.624101
1 Jan 2020 15:26:41.000,299.841,-78.682,24088.185710
1 Jan 2020 15:27:11.000,302.077,-78.595,24131.836383
1 Jan 2020 15:27:41.000,304.274,-78.501,24179.534734
1 Jan 2020 15:28:11.000,306.428,-78.402,24231.235392
1 Jan 2020 15:28:41.000,308.540,-78.298,24286.889205
1 Jan 2020 15:29:11.000,310.608,-78.189,24346.443369
1 Jan 2020 15:29:41.000,312.631,-78.077,24409.841558
1 Jan 2020 15:30:11.000,314.610,-77.961,24477.024070
1 Jan 2020 15:30:41.000,316.544,-77.842,24547.927966
1 Jan 2020 15:31:11.000,318.433,-77.722,24622.487401
1 Jan 2020 15:31:41.000,320.278,-77.599,24700.633083
1 Jan 2020 15:32:11.000,322.080,-77.476,24782.293456
1 Jan 2020 15:32:41.000,323.838,-77.352,24867.394184
1 Jan 2020 15:33:11.000,325.555,-77.228,24955.858477
1 Jan 2020 15:33:41.000,327.231,-77.104,25047.607255
1 Jan 2020 15:34:11.000,328.868,-76.982,25142.559305
1 Jan 2020 15:34:41.000,330.465,-76.860,25240.631442
1 Jan 2020 15:35:11.000,332.025,-76.741,25341.738669
1 Jan 2020 15:35:41.000,333.549,-76.623,25445.794331
1 Jan 2020 15:36:11.000,335.037,-76.508,25552.710272
1 Jan 2020 15:36:41.000,336.492,-76.395,25662.397221
1 Jan 2020 15:37:11.000,337.915,-76.286,25774.763989
1 Jan 2020 15:37:41.000,339.306,-76.180,25889.719032
1 Jan 2020 15:38:11.000,340.668,-76.078,26007.169651
1 Jan 2020 15:38:38.500,341.891,-75.988,26116.944744
1 Jan 2020 17:11:21.786,225.556,-75.992,26120.706271
1 Jan 2020 17:11:51.000,226.275,-76.125,25960.218681
1 Jan 2020 17:12:21.000,227.030,-76.272,25797.249306
1 Jan 2020 17:12:51.000,227.803,-76.429,25636.282851
1 Jan 2020 17:13:21.000,228.597,-76.596,25477.466843
1 Jan 2020 17:13:51.000,229.413,-76.772,25320.950197
1 Jan 2020 17:14:21.000,230.254,-76.959,25166.883057
1 Jan 2020 17:14:51.000,231.123,-77.155,25015.416611
1 Jan 2020 17:15:21.000,232.021,-77.361,24866.702892
1 Jan 2020 17:15:51.000,232.952,-77.576,24720.894572
1 Jan 2020 17:16:21.000,233.919,-77.801,24578.144720
1 Jan 2020 17:16:51.000,234.925,-78.035,24438.606561
1 Jan 2020 17:17:21.000,235.976,-78.278,24302.432932
1 Jan 2020 17:17:51.000,237.075,-78.529,24169.777105
1 Jan 2020 17:18:21.000,238.227,-78.788,24040.790814
1 Jan 2020 17:18:51.000,239.438,-79.055,23915.625063
1 Jan 2020 17:19:21.000,240.714,-79.329,23794.429505
1 Jan 2020 17:19:51.000,242.063,-79.610,23677.352096
1 Jan 2020 17:20:21.000,243.491,-79.896,23564.538729
1 Jan 2020 17:20:51.000,245.008,-80.188,23456.132669
1 Jan 2020 17:21:21.000,246.624,-80.484,23352.274937
1 Jan 2020 17:21:51.000,248.350,-80.783,23253.102738
1 Jan 2020 17:22:21.000,250.197,-81.084,23158.749848
1 Jan 2020 17:22:51.000,252.180,-81.386,23069.345998
1 Jan 2020 17:23:21.000,254.313,-81.687,22985.016466
1 Jan 2020 17:23:51.000,256.613,-81.986,22905.881519
1 Jan 2020 17:24:21.000,259.098,-82.281,22832.056564
1 Jan 2020 17:24:51.000,261.785,-82.570,22763.650881
1 Jan 2020 17:25:21.000,264.694,-82.850,22700.767808
1 Jan 2020 17:25:51.000,267.843,-83.118,22643.504204
1 Jan 2020 17:26:21.000,271.249,-83.373,22591.950077
1 Jan 2020 17:26:51.000,274.926,-83.610,22546.188149
1 Jan 2020 17:27:21.000,278.882,-83.826,22506.293857
1 Jan 2020 17:27:51.000,283.116,-84.018,22472.334525
1 Jan 2020 17:28:21.000,287.616,-84.182,22444.369440
1 Jan 2020 17:28:51.000,292.359,-84.315,22422.449514
1 Jan 2020 17:29:21.000,297.303,-84.413,22406.617046
1 Jan 2020 17:29:51.000,302.394,-84.474,22396.905606
1 Jan 2020 17:30:21.000,307.565,-84.497,22393.339776
1 Jan 2020 17:30:51.000,312.742,-84.480,22395.935128
1 Jan 2020 17:31:21.000,317.851,-84.425,22404.698132
1 Jan 2020 17:31:51.000,322.824,-84.332,22419.626173
1 Jan 2020 17:32:21.000,327.601,-84.204,22440.707391
1 Jan 2020 17:32:51.000,332.139,-84.044,22467.920973
1 Jan 2020 17:33:21.000,336.411,-83.855,22501.237097
1 Jan 2020 17:33:51.000,340.401,-83.640,22540.617098
1 Jan 2020 17:34:21.000,344.106,-83.403,22586.013634
1 Jan 2020 17:34:51.000,347.534,-83.148,22637.371019
1 Jan 2020 17:35:21.000,350.697,-82.878,22694.624944
1 Jan 2020 17:35:51.000,353.610,-82.596,22757.703500
1 Jan 2020 17:36:21.000,356.292,-82.304,22826.526977
1 Jan 2020 17:36:51.000,358.762,-82.006,22901.008307
1 Jan 2020 17:37:21.000,1.039,-81.702,22981.053402
1 Jan 2020 17:37:51.000,3.140,-81.396,23066.561704
1 Jan 2020 17:38:21.000,5.081,-81.089,23157.425807
1 Jan 2020 17:38:51.000,6.880,-80.782,23253.532959
1 Jan 2020 17:39:21.000,8.548,-80.477,23354.764723
1 Jan 2020 17:39:51.000,10.099,-80.175,23460.997564
1 Jan 2020 17:40:21.000,11.543,-79.877,23572.103251
1 Jan 2020 17:40:51.000,12.891,-79.584,23687.949260
1 Jan 2020 17:41:21.000,14.153,-79.297,23808.399441
1 Jan 2020 17:41:51.000,15.335,-79.017,23933.313385
1 Jan 2020 17:42:21.000,16.445,-78.744,24062.548341
1 Jan 2020 17:42:51.000,17.490,-78.479,24195.958594
1 Jan 2020 17:43:21.000,18.474,-78.222,24333.396078
1 Jan 2020 17:43:51.000,19.404,-77.974,24474.710742
1 Jan 2020 17:44:21.000,20.284,-77.735,24619.750891
1 Jan 2020 17:44:51.000,21.118,-77.505,24768.363516
1 Jan 2020 17:45:21.000,21.909,-77.285,24920.394611
1 Jan 2020 17:45:51.000,22.660,-77.076,25075.689781
1 Jan 2020 17:46:21.000,23.376,-76.876,25234.093286
1 Jan 2020 17:46:51.000,24.058,-76.687,25395.450159
1 Jan 2020 17:47:21.000,24.709,-76.508,25559.605224
1 Jan 2020 17:47:51.000,25.332,-76.340,25726.403633
1 Jan 2020 17:48:21.000,25.927,-76.182,25895.691087
1 Jan 2020 17:48:51.000,26.497,-76.035,26067.314027
1 Jan 2020 17:49:00.281,26.669,-75.992,26120.856289
1 Jan 2020 19:14:44.401,208.838,-75.989,26117.915110
1 Jan 2020 19:15:14.000,208.368,-76.133,25945.296159
1 Jan 2020 19:15:44.000,207.870,-76.290,25772.559801
1 Jan 2020 19:16:14.000,207.348,-76.458,25602.214576
1 Jan 2020 19:16:44.000,206.801,-76.637,25434.417525
1 Jan 2020 19:17:14.000,206.225,-76.827,25269.326502
1 Jan 2020 19:17:44.000,205.621,-77.028,25107.099967
1 Jan 2020 19:18:14.000,204.984,-77.240,24947.896759
1 Jan 2020 19:18:44.000,204.312,-77.463,24791.875859
1 Jan 2020 19:19:14.000,203.602,-77.697,24639.196127
1 Jan 2020 19:19:44.000,202.851,-77.940,24490.015736
1 Jan 2020 19:20:14.000,202.055,-78.194,24344.493028
1 Jan 2020 19:20:44.000,201.210,-78.458,24202.784467
1 Jan 2020 19:21:14.000,200.311,-78.731,24065.045470
1 Jan 2020 19:21:44.000,199.353,-79.013,23931.429767
1 Jan 2020 19:22:14.000,198.329,-79.303,23802.089041
1 Jan 2020 19:22:44.000,197.232,-79.602,23677.172546
1 Jan 2020 19:23:14.000,196.056,-79.908,23556.826482
1 Jan 2020 19:23:44.000,194.790,-80.220,23441.194561
1 Jan 2020 19:24:14.000,193.425,-80.539,23330.416125
1 Jan 2020 19:24:44.000,191.949,-80.862,23224.626719
1 Jan 2020 19:25:14.000,190.348,-81.189,23123.957415
1 Jan 2020 19:25:44.000,188.608,-81.519,23028.534389
1 Jan 2020 19:26:14.000,186.711,-81.850,22938.478307
1 Jan 2020 19:26:44.000,184.638,-82.180,22853.904655
1 Jan 2020 19:27:14.000,182.367,-82.509,22774.922183
1 Jan 2020 19:27:44.000,179.873,-82.833,22701.633267
1 Jan 2020 19:28:14.000,177.129,-83.150,22634.133325
1 Jan 2020 19:28:44.000,174.108,-83.458,22572.510444
1 Jan 2020 19:29:14.000,170.780,-83.753,22516.844888
1 Jan 2020 19:29:44.000,167.117,-84.032,22467.209304
1 Jan 2020 19:30:14.000,163.094,-84.290,22423.667601
1 Jan 2020 19:30:44.000,158.697,-84.524,22386.275231
1 Jan 2020 19:31:14.000,153.921,-84.729,22355.078810
1 Jan 2020 19:31:44.000,148.783,-84.900,22330.115854
1 Jan 2020 19:32:14.000,143.322,-85.033,22311.414839
1 Jan 2020 19:32:44.000,137.605,-85.123,22298.994720
1 Jan 2020 19:33:14.000,131.724,-85.169,22292.865091
1 Jan 2020 19:33:44.000,125.788,-85.168,22293.026075
1 Jan 2020 19:34:14.000,119.912,-85.120,22299.468332
1 Jan 2020 19:34:44.000,114.205,-85.028,22312.173080
1 Jan 2020 19:35:14.000,108.757,-84.894,22331.112190
1 Jan 2020 19:35:44.000,103.632,-84.723,22356.248319
1 Jan 2020 19:36:14.000,98.866,-84.518,22387.535064
1 Jan 2020 19:36:44.000,94.475,-84.284,22424.917242
1 Jan 2020 19:37:14.000,90.452,-84.027,22468.330867
1 Jan 2020 19:37:44.000,86.782,-83.750,22517.703798
1 Jan 2020 19:38:14.000,83.439,-83.457,22572.955804
1 Jan 2020 19:38:44.000,80.396,-83.153,22633.998958
1 Jan 2020 19:39:14.000,77.623,-82.839,22700.737995
1 Jan 2020 19:39:44.000,75.092,-82.519,22773.070837
1 Jan 2020 19:40:14.000,72.776,-82.195,22850.888409
1 Jan 2020 19:40:44.000,70.651,-81.869,22934.075908
1 Jan 2020 19:41:14.000,68.695,-81.543,23022.512665
1 Jan 2020 19:41:44.000,66.889,-81.218,23116.072714
1 Jan 2020 19:42:14.000,65.217,-80.896,23214.625223
1 Jan 2020 19:42:44.000,63.662,-80.578,23318.034933
1 Jan 2020 19:43:14.000,62.212,-80.265,23426.162814
1 Jan 2020 19:43:44.000,60.855,-79.958,23538.865602
1 Jan 2020 19:44:14.000,59.581,-79.657,23655.997544
1 Jan 2020 19:44:44.000,58.381,-79.364,23777.409939
1 Jan 2020 19:45:14.000,57.248,-79.078,23902.951753
1 Jan 2020 19:45:44.000,56.174,-78.801,24032.470008
1 Jan 2020 19:46:14.000,55.154,-78.532,24165.810152
1 Jan 2020 19:46:44.000,54.181,-78.273,24302.816418
1 Jan 2020 19:47:14.000,53.252,-78.023,24443.332167
1 Jan 2020 19:47:44.000,52.362,-77.783,24587.200493
1 Jan 2020 19:48:14.000,51.507,-77.553,24734.263385
1 Jan 2020 19:48:44.000,50.683,-77.333,24884.363725
1 Jan 2020 19:49:14.000,49.889,-77.123,25037.344418
1 Jan 2020 19:49:44.000,49.121,-76.924,25193.048926
1 Jan 2020 19:50:14.000,48.376,-76.735,25351.321497
1 Jan 2020 19:50:44.000,47.652,-76.556,25512.007383
1 Jan 2020 19:51:14.000,46.948,-76.388,25674.953027
1 Jan 2020 19:51:44.000,46.261,-76.231,25840.006252
1 Jan 2020 19:52:14.000,45.591,-76.084,26007.016414
1 Jan 2020 19:52:33.671,45.158,-75.993,26117.518096
1 Jan 2020 21:24:30.875,165.629,-75.986,26110.244595
1 Jan 2020 21:25:00.000,164.352,-76.084,25991.835079
1 Jan 2020 21:25:30.000,163.007,-76.188,25872.279671
1 Jan 2020 21:26:00.000,161.631,-76.297,25755.267253
1 Jan 2020 21:26:30.000,160.224,-76.409,25640.892756
1 Jan 2020 21:27:00.000,158.783,-76.524,25529.250128
1 Jan 2020 21:27:30.000,157.307,-76.642,25420.432188
1 Jan 2020 21:28:00.000,155.795,-76.763,25314.530476
1 Jan 2020 21:28:30.000,154.246,-76.886,25211.635099
1 Jan 2020 21:29:00.000,152.659,-77.011,25111.834577
1 Jan 2020 21:29:30.000,151.031,-77.138,25015.215678
1 Jan 2020 21:30:00.000,149.362,-77.265,24921.863054
1 Jan 2020 21:30:30.000,147.651,-77.393,24831.859901
1 Jan 2020 21:31:00.000,145.897,-77.521,24745.286540
1 Jan 2020 21:31:30.000,144.098,-77.648,24662.221097
1 Jan 2020 21:32:00.000,142.253,-77.774,24582.739117
1 Jan 2020 21:32:30.000,140.363,-77.899,24506.913401
1 Jan 2020 21:33:00.000,138.426,-78.022,24434.813842
1 Jan 2020 21:33:30.000,136.443,-78.141,24366.507259
1 Jan 2020 21:34:00.000,134.413,-78.258,24302.057111
1 Jan 2020 21:34:30.000,132.336,-78.370,24241.523878
1 Jan 2020 21:35:00.000,130.214,-78.478,24184.964090
1 Jan 2020 21:35:30.000,128.046,-78.581,24132.430739
1 Jan 2020 21:36:00.000,125.835,-78.678,24083.973002
1 Jan 2020 21:36:30.000,123.582,-78.769,24039.636113
1 Jan 2020 21:37:00.000,121.288,-78.853,23999.461239
1 Jan 2020 21:37:30.000,118.958,-78.929,23963.485373
1 Jan 2020 21:38:00.000,116.593,-78.998,23931.741157
1 Jan 2020 21:38:30.000,114.197,-79.058,23904.257097
1 Jan 2020 21:39:00.000,111.773,-79.109,23881.057013
1 Jan 2020 21:39:30.000,109.327,-79.152,23862.160296
1 Jan 2020 21:40:00.000,106.861,-79.184,23847.581774
1 Jan 2020 21:40:30.000,104.381,-79.208,23837.331667
1 Jan 2020 21:41:00.000,101.892,-79.221,23831.415561
1 Jan 2020 21:41:30.000,99.399,-79.225,23829.834390
1 Jan 2020 21:42:00.000,96.906,-79.219,23832.584465
1 Jan 2020 21:42:30.000,94.419,-79.203,23839.657428
1 Jan 2020 21:43:00.000,91.943,-79.177,23851.040329
1 Jan 2020 21:43:30.000,89.483,-79.142,23866.715650
1 Jan 2020 21:44:00.000,87.042,-79.098,23886.661362
1 Jan 2020 21:44:30.000,84.626,-79.045,23910.850988
1 Jan 2020 21:45:00.000,82.238,-78.983,23939.253681
1 Jan 2020 21:45:30.000,79.881,-78.913,23971.834393
1 Jan 2020 21:46:00.000,77.559,-78.836,24008.553690
1 Jan 2020 21:46:30.000,75.275,-78.751,24049.368272
1 Jan 2020 21:47:00.000,73.030,-78.660,24094.230836
1 Jan 2020 21:47:30.000,70.827,-78.563,24143.090268
1 Jan 2020 21:48:00.000,68.667,-78.460,24195.891780
1 Jan 2020 21:48:30.000,66.551,-78.353,24252.577059
1 Jan 2020 21:49:00.000,64.480,-78.241,24313.084417
1 Jan 2020 21:49:30.000,62.455,-78.126,24377.349079
1 Jan 2020 21:50:00.000,60.474,-78.007,24445.302836
1 Jan 2020 21:50:30.000,58.539,-77.886,24516.874963
1 Jan 2020 21:51:00.000,56.648,-77.764,24591.991890
1 Jan 2020 21:51:30.000,54.802,-77.639,24670.577502
1 Jan 2020 21:52:00.000,52.999,-77.514,24752.553301
1 Jan 2020 21:52:30.000,51.238,-77.389,24837.838582
1 Jan 2020 21:53:00.000,49.519,-77.263,24926.350602
1 Jan 2020 21:53:30.000,47.840,-77.139,25018.004752
1 Jan 2020 21:54:00.000,46.199,-77.015,25112.714721
1 Jan 2020 21:54:30.000,44.597,-76.893,25210.392863
1 Jan 2020 21:55:00.000,43.031,-76.772,25310.949561
1 Jan 2020 21:55:30.000,41.500,-76.654,25414.294571
1 Jan 2020 21:56:00.000,40.003,-76.539,25520.336394
1 Jan 2020 21:56:30.000,38.539,-76.426,25628.982615
1 Jan 2020 21:57:00.000,37.105,-76.317,25740.140051
1 Jan 2020 21:57:30.000,35.702,-76.211,25853.714887
1 Jan 2020 21:58:00.000,34.327,-76.108,25969.612815
1 Jan 2020 21:58:30.000,32.979,-76.010,26087.739156
1 Jan 2020 21:58:35.631,32.729,-75.992,26110.151862
1 Jan 2020 23:34:16.243,134.586,-75.987,26104.600702
1 Jan 2020 23:34:46.000,133.559,-76.108,25958.726244
1 Jan 2020 23:35:16.000,132.499,-76.238,25813.573523
1 Jan 2020 23:35:46.000,131.414,-76.375,25670.471448
1 Jan 2020 23:36:16.000,130.302,-76.519,25529.549157
1 Jan 2020 23:36:46.000,129.159,-76.670,25390.936606
1 Jan 2020 23:37:16.000,127.985,-76.829,25254.764409
1 Jan 2020 23:37:46.000,126.777,-76.994,25121.163669
1 Jan 2020 23:38:16.000,125.531,-77.165,24990.265793
1 Jan 2020 23:38:46.000,124.246,-77.343,24862.202299
1 Jan 2020 23:39:16.000,122.918,-77.526,24737.104610
1 Jan 2020 23:39:46.000,121.544,-77.715,24615.103831
1 Jan 2020 23:40:16.000,120.121,-77.909,24496.330281
1 Jan 2020 23:40:46.000,118.644,-78.108,24380.914200
1 Jan 2020 23:41:16.000,117.112,-78.310,24268.984055
1 Jan 2020 23:41:46.000,115.518,-78.516,24160.667238
1 Jan 2020 23:42:16.000,113.859,-78.725,24056.089546
1 Jan 2020 23:42:46.000,112.131,-78.936,23955.374892
1 Jan 2020 23:43:16.000,110.328,-79.148,23858.645010
1 Jan 2020 23:43:46.000,108.447,-79.361,23766.019151
1 Jan 2020 23:44:16.000,106.482,-79.573,23677.613607
1 Jan 2020 23:44:46.000,104.429,-79.784,23593.542076
1 Jan 2020 23:45:16.000,102.283,-79.992,23513.914309
1 Jan 2020 23:45:46.000,100.039,-80.196,23438.836495
1 Jan 2020 23:46:16.000,97.693,-80.396,23368.410760
1 Jan 2020 23:46:46.000,95.242,-80.589,23302.734857
1 Jan 2020 23:47:16.000,92.683,-80.774,23241.901850
1 Jan 2020 23:47:46.000,90.015,-80.951,23185.999712
1 Jan 2020 23:48:16.000,87.237,-81.117,23135.111442
1 Jan 2020 23:48:46.000,84.351,-81.270,23089.314146
1 Jan 2020 23:49:16.000,81.359,-81.411,23048.679196
1 Jan 2020 23:49:46.000,78.268,-81.536,23013.271869
1 Jan 2020 23:50:16.000,75.084,-81.645,22983.151103
1 Jan 2020 23:50:46.000,71.819,-81.736,22958.369254
1 Jan 2020 23:51:16.000,68.484,-81.808,22938.972024
1 Jan 2020 23:51:46.000,65.094,-81.861,22924.998077
1 Jan 2020 23:52:16.000,61.666,-81.894,22916.479042
1 Jan 2020 23:52:46.000,58.218,-81.906,22913.439347
1 Jan 2020 23:53:16.000,54.769,-81.896,22915.896127
1 Jan 2020 23:53:46.000,51.337,-81.866,22923.859184
1 Jan 2020 23:54:16.000,47.941,-81.815,22937.330818
1 Jan 2020 23:54:46.000,44.598,-81.744,22956.306001
1 Jan 2020 23:55:16.000,41.324,-81.654,22980.772280
1 Jan 2020 23:55:46.000,38.131,-81.545,23010.709851
1 Jan 2020 23:56:16.000,35.031,-81.420,23046.091629
1 Jan 2020 23:56:46.000,32.033,-81.279,23086.883461
1 Jan 2020 23:57:16.000,29.143,-81.124,23133.043842
1 Jan 2020 23:57:46.000,26.364,-80.956,23184.524664
1 Jan 2020 23:58:16.000,23.699,-80.777,23241.271007
1 Jan 2020 23:58:46.000,21.148,-80.588,23303.221432
1 Jan 2020 23:59:16.000,18.710,-80.391,23370.308200
1 Jan 2020 23:59:46.000,16.382,-80.187,23442.457666
2 Jan 2020 00:00:16.000,14.162,-79.978,23519.589913
2 Jan 2020 00:00:46.000,12.045,-79.764,23601.619933
2 Jan 2020 00:01:16.000,10.028,-79.547,23688.457306
2 Jan 2020 00:01:46.000,8.105,-79.329,23780.006640
2 Jan 2020 00:02:16.000,6.272,-79.110,23876.167861
2 Jan 2020 00:02:46.000,4.524,-78.891,23976.836520
2 Jan 2020 00:03:16.000,2.856,-78.674,24081.904320
2 Jan 2020 00:03:46.000,1.263,-78.458,24191.258540
2 Jan 2020 00:04:16.000,359.742,-78.245,24304.783651
2 Jan 2020 00:04:46.000,358.288,-78.036,24422.360759
2 Jan 2020 00:05:16.000,356.896,-77.831,24543.868116
2 Jan 2020 00:05:46.000,355.564,-77.631,24669.181418
2 Jan 2020 00:06:16.000,354.286,-77.436,24798.174094
2 Jan 2020 00:06:46.000,353.060,-77.248,24930.717586
2 Jan 2020 00:07:16.000,351.883,-77.065,25066.681628
2 Jan 2020 00:07:46.000,350.752,-76.889,25205.934785
2 Jan 2020 00:08:16.000,349.663,-76.720,25348.343585
2 Jan 2020 00:08:46.000,348.614,-76.558,25493.774443
2 Jan 2020 00:09:16.000,347.602,-76.404,25642.092776
2 Jan 2020 00:09:46.000,346.626,-76.258,25793.163503
2 Jan 2020 00:10:16.000,345.683,-76.120,25946.851250
2 Jan 2020 00:10:46.000,344.771,-75.990,26103.020550
2 Jan 2020 00:10:46.252,344.764,-75.988,26104.342825
2 Jan 2020 01:37:26.989,143.250,-75.989,26105.205678
2 Jan 2020 01:37:56.000,143.325,-76.136,25929.880283
2 Jan 2020 01:38:26.000,143.413,-76.300,25750.575685
2 Jan 2020 01:38:56.000,143.510,-76.476,25573.462091
2 Jan 2020 01:39:26.000,143.618,-76.664,25398.703945
2 Jan 2020 01:39:56.000,143.739,-76.866,25226.467177
2 Jan 2020 01:40:26.000,143.871,-77.079,25056.919009
2 Jan 2020 01:40:56.000,144.017,-77.306,24890.227745
2 Jan 2020 01:41:26.000,144.177,-77.545,24726.562540
2 Jan 2020 01:41:56.000,144.353,-77.797,24566.093147
2 Jan 2020 01:42:26.000,144.545,-78.061,24408.989647
2 Jan 2020 01:42:56.000,144.756,-78.339,24255.421845
2 Jan 2020 01:43:26.000,144.986,-78.628,24105.560197
2 Jan 2020 01:43:56.000,145.238,-78.930,23959.573600
2 Jan 2020 01:44:26.000,145.515,-79.244,23817.630290
2 Jan 2020 01:44:56.000,145.819,-79.571,23679.897148
2 Jan 2020 01:45:26.000,146.153,-79.909,23546.539300
2 Jan 2020 01:45:56.000,146.520,-80.258,23417.719703
2 Jan 2020 01:46:26.000,146.927,-80.619,23293.598460
2 Jan 2020 01:46:56.000,147.377,-80.991,23174.333367
2 Jan 2020 01:47:26.000,147.877,-81.374,23060.077946
2 Jan 2020 01:47:56.000,148.436,-81.767,22950.981973
2 Jan 2020 01:48:26.000,149.064,-82.169,22847.190751
2 Jan 2020 01:48:56.000,149.772,-82.580,22748.844608
2 Jan 2020 01:49:26.000,150.576,-83.000,22656.078227
2 Jan 2020 01:49:56.000,151.497,-83.427,22569.020911
2 Jan 2020 01:50:26.000,152.560,-83.861,22487.794938
2 Jan 2020 01:50:56.000,153.799,-84.301,22412.515866
2 Jan 2020 01:51:26.000,155.262,-84.745,22343.291874
2 Jan 2020 01:51:56.000,157.009,-85.192,22280.223195
2 Jan 2020 01:52:26.000,159.132,-85.641,22223.402169
2 Jan 2020 01:52:56.000,161.756,-86.088,22172.912106
2 Jan 2020 01:53:26.000,165.069,-86.529,22128.827421
2 Jan 2020 01:53:56.000,169.353,-86.961,22091.213166
2 Jan 2020 01:54:26.000,175.036,-87.373,22060.124671
2 Jan 2020 01:54:56.000,182.755,-87.754,22035.607541
2 Jan 2020 01:55:26.000,193.367,-88.081,22017.697038
2 Jan 2020 01:55:56.000,207.629,-88.319,22006.418195
2 Jan 2020 01:56:26.000,225.143,-88.428,22001.785622
2 Jan 2020 01:56:56.000,243.328,-88.379,22003.803439
2 Jan 2020 01:57:26.000,259.017,-88.186,22012.465246
2 Jan 2020 01:57:56.000,270.995,-87.889,22027.754152
2 Jan 2020 01:58:26.000,279.742,-87.527,22049.642868
2 Jan 2020 01:58:56.000,286.146,-87.125,22078.093834
2 Jan 2020 01:59:26.000,290.938,-86.701,22113.059468
2 Jan 2020 01:59:56.000,294.619,-86.263,22154.482109
2 Jan 2020 02:00:26.000,297.521,-85.819,22202.294691
2 Jan 2020 02:00:56.000,299.862,-85.372,22256.420789
2 Jan 2020 02:01:26.000,301.789,-84.926,22316.775032
2 Jan 2020 02:01:56.000,303.406,-84.481,22383.263604
2 Jan 2020 02:02:26.000,304.783,-84.041,22455.784153
2 Jan 2020 02:02:56.000,305.972,-83.606,22534.226956
2 Jan 2020 02:03:26.000,307.013,-83.178,22618.474897
2 Jan 2020 02:03:56.000,307.933,-82.757,22708.404053
2 Jan 2020 02:04:26.000,308.755,-82.344,22803.884173
2 Jan 2020 02:04:56.000,309.496,-81.940,22904.779382
2 Jan 2020 02:05:26.000,310.169,-81.545,23010.947853
2 Jan 2020 02:05:56.000,310.786,-81.160,23122.243515
2 Jan 2020 02:06:26.000,311.355,-80.786,23238.515750
2 Jan 2020 02:06:56.000,311.884,-80.422,23359.610074
2 Jan 2020 02:07:26.000,312.377,-80.069,23485.368615
2 Jan 2020 02:07:56.000,312.840,-79.728,23615.630579
2 Jan 2020 02:08:26.000,313.277,-79.399,23750.232958
2 Jan 2020 02:08:56.000,313.692,-79.081,23889.009930
2 Jan 2020 02:09:26.000,314.088,-78.776,24031.794823
2 Jan 2020 02:09:56.000,314.466,-78.482,24178.419485
2 Jan 2020 02:10:26.000,314.830,-78.201,24328.714919
2 Jan 2020 02:10:56.000,315.181,-77.933,24482.511638
2 Jan 2020 02:11:26.000,315.521,-77.677,24639.640002
2 Jan 2020 02:11:56.000,315.850,-77.433,24799.930528
2 Jan 2020 02:12:26.000,316.172,-77.202,24963.214183
2 Jan 2020 02:12:56.000,316.486,-76.983,25129.322655
2 Jan 2020 02:13:26.000,316.793,-76.777,25298.088603
2 Jan 2020 02:13:56.000,317.096,-76.584,25469.346218
2 Jan 2020 02:14:26.000,317.393,-76.402,25642.930091
2 Jan 2020 02:14:56.000,317.687,-76.233,25818.677409
2 Jan 2020 02:15:26.000,317.978,-76.076,25996.426790
2 Jan 2020 02:15:44.250,318.153,-75.986,26105.467496
2 Jan 2020 03:44:27.661,177.888,-75.993,26111.912775
2 Jan 2020 03:44:57.000,179.019,-76.105,25976.666497
2 Jan 2020 03:45:27.000,180.206,-76.225,25840.888806
2 Jan 2020 03:45:57.000,181.427,-76.351,25707.769063
2 Jan 2020 03:46:27.000,182.684,-76.482,25577.420919
2 Jan 2020 03:46:57.000,183.978,-76.618,25449.957130
2 Jan 2020 03:47:27.000,185.311,-76.759,25325.489377
2 Jan 2020 03:47:57.000,186.684,-76.904,25204.128080
2 Jan 2020 03:48:27.000,188.101,-77.053,25085.982199
2 Jan 2020 03:48:57.000,189.564,-77.205,24971.159035
2 Jan 2020 03:49:27.000,191.073,-77.361,24859.763792
2 Jan 2020 03:49:57.000,192.632,-77.519,24751.900292
2 Jan 2020 03:50:27.000,194.242,-77.679,24647.669360
2 Jan 2020 03:50:57.000,195.907,-77.840,24547.169540
2 Jan 2020 03:51:27.000,197.627,-78.003,24450.496645
2 Jan 2020 03:51:57.000,199.405,-78.165,24357.743526
2 Jan 2020 03:52:27.000,201.243,-78.327,24268.999852
2 Jan 2020 03:52:57.000,203.143,-78.487,24184.351886
2 Jan 2020 03:53:27.000,205.107,-78.646,24103.882086
2 Jan 2020 03:53:57.000,207.135,-78.801,24027.669618
2 Jan 2020 03:54:27.000,209.228,-78.953,23955.789031
2 Jan 2020 03:54:57.000,211.388,-79.100,23888.310802
2 Jan 2020 03:55:27.000,213.615,-79.242,23825.300946
2 Jan 2020 03:55:57.000,215.908,-79.378,23766.820824
2 Jan 2020 03:56:27.000,218.265,-79.506,23712.926966
2 Jan 2020 03:56:57.000,220.687,-79.626,23663.670787
2 Jan 2020 03:57:27.000,223.169,-79.738,23619.098889
2 Jan 2020 03:57:57.000,225.710,-79.840,23579.252215
2 Jan 2020 03:58:27.000,228.304,-79.931,23544.166403
2 Jan 2020 03:58:57.000,230.948,-80.012,23513.871549
2 Jan 2020 03:59:27.000,233.635,-80.080,23488.392113
2 Jan 2020 03:59:57.000,236.359,-80.136,23467.746843
2 Jan 2020 04:00:27.000,239.113,-80.180,23451.948672
2 Jan 2020 04:00:57.000,241.889,-80.210,23441.004867
2 Jan 2020 04:01:27.000,244.680,-80.227,23434.916709
2 Jan 2020 04:01:57.000,247.477,-80.230,23433.679706
2 Jan 2020 04:02:27.000,250.271,-80.220,23437.283554
2 Jan 2020 04:02:57.000,253.054,-80.196,23445.712178
2 Jan 2020 04:03:27.000,255.819,-80.160,23458.943788
2 Jan 2020 04:03:57.000,258.557,-80.110,23476.950989
2 Jan 2020 04:04:27.000,261.262,-80.048,23499.700763
2 Jan 2020 04:04:57.000,263.927,-79.975,23527.154734
2 Jan 2020 04:05:27.000,266.546,-79.890,23559.269207
2 Jan 2020 04:05:57.000,269.114,-79.795,23595.995335
2 Jan 2020 04:06:27.000,271.628,-79.690,23637.279274
2 Jan 2020 04:06:57.000,274.085,-79.576,23683.062362
2 Jan 2020 04:07:27.000,276.481,-79.454,23733.281395
2 Jan 2020 04:07:57.000,278.815,-79.325,23787.868451
2 Jan 2020 04:08:27.000,281.087,-79.190,23846.751645
2 Jan 2020 04:08:57.000,283.295,-79.049,23909.854983
2 Jan 2020 04:09:27.000,285.440,-78.904,23977.098671
2 Jan 2020 04:09:57.000,287.522,-78.755,24048.399339
2 Jan 2020 04:10:27.000,289.543,-78.602,24123.670272
2 Jan 2020 04:10:57.000,291.504,-78.448,24202.821639
2 Jan 2020 04:11:27.000,293.407,-78.292,24285.760893
2 Jan 2020 04:11:57.000,295.253,-78.135,24372.392357
2 Jan 2020 04:12:27.000,297.044,-77.978,24462.618409
2 Jan 2020 04:12:57.000,298.782,-77.821,24556.339086
2 Jan 2020 04:13:27.000,300.470,-77.665,24653.452465
2 Jan 2020 04:13:57.000,302.109,-77.511,24753.854884
2 Jan 2020 04:14:27.000,303.702,-77.359,24857.441158
2 Jan 2020 04:14:57.000,305.252,-77.210,24964.104794
2 Jan 2020 04:15:27.000,306.759,-77.064,25073.738192
2 Jan 2020 04:15:57.000,308.226,-76.921,25186.232847
2 Jan 2020 04:16:27.000,309.656,-76.781,25301.479534
2 Jan 2020 04:16:57.000,311.050,-76.646,25419.368736
2 Jan 2020 04:17:27.000,312.410,-76.516,25539.789861
2 Jan 2020 04:17:57.000,313.739,-76.390,25662.632834
2 Jan 2020 04:18:27.000,315.037,-76.268,25787.787307
2 Jan 2020 04:18:57.000,316.306,-76.152,25915.143047
2 Jan 2020 04:19:27.000,317.549,-76.042,26044.590074
2 Jan 2020 04:19:42.470,318.179,-75.987,26112.123411
2 Jan 2020 05:56:25.320,221.245,-75.993,26118.888128
2 Jan 2020 05:56:55.000,222.476,-76.098,25991.172663
2 Jan 2020 05:57:25.000,223.746,-76.210,25864.117184
2 Jan 2020 05:57:55.000,225.043,-76.326,25739.217789
2 Jan 2020 05:58:25.000,226.370,-76.448,25616.582830
2 Jan 2020 05:58:55.000,227.728,-76.574,25496.320774
2 Jan 2020 05:59:25.000,229.119,-76.704,25378.540059
2 Jan 2020 05:59:55.000,230.545,-76.839,25263.348946
2 Jan 2020 06:00:25.000,232.006,-76.977,25150.855357
2 Jan 2020 06:00:55.000,233.507,-77.119,25041.166708
2 Jan 2020 06:01:25.000,235.047,-77.264,24934.389735
2 Jan 2020 06:01:55.000,236.631,-77.411,24830.630309
2 Jan 2020 06:02:25.000,238.258,-77.560,24729.993043
2 Jan 2020 06:02:55.000,239.932,-77.712,24632.581918
2 Jan 2020 06:03:25.000,241.655,-77.864,24538.498835
2 Jan 2020 06:03:55.000,243.428,-78.017,24447.844243
2 Jan 2020 06:04:25.000,245.254,-78.169,24360.716718
2 Jan 2020 06:04:55.000,247.134,-78.322,24277.212737
2 Jan 2020 06:05:25.000,249.070,-78.472,24197.426465
2 Jan 2020 06:05:55.000,251.063,-78.621,24121.449529
2 Jan 2020 06:06:25.000,253.116,-78.767,24049.370661
2 Jan 2020 06:06:55.000,255.228,-78.910,23981.276003
2 Jan 2020 06:07:25.000,257.400,-79.048,23917.248082
2 Jan 2020 06:07:55.000,259.633,-79.181,23857.366124
2 Jan 2020 06:08:25.000,261.927,-79.308,23801.705705
2 Jan 2020 06:08:55.000,264.280,-79.429,23750.338535
2 Jan 2020 06:09:25.000,266.691,-79.542,23703.332247
2 Jan 2020 06:09:55.000,269.158,-79.647,23660.750133
2 Jan 2020 06:10:25.000,271.677,-79.742,23622.651231
2 Jan 2020 06:10:55.000,274.246,-79.828,23589.089709
2 Jan 2020 06:11:25.000,276.860,-79.903,23560.114992
2 Jan 2020 06:11:55.000,279.514,-79.967,23535.771527
2 Jan 2020 06:12:25.000,282.202,-80.020,23516.098640
2 Jan 2020 06:12:55.000,284.918,-80.060,23501.130406
2 Jan 2020 06:13:25.000,287.654,-80.087,23490.895530
2 Jan 2020 06:13:55.000,290.403,-80.102,23485.417276
2 Jan 2020 06:14:25.000,293.157,-80.104,23484.713333
2 Jan 2020 06:14:55.000,295.909,-80.093,23488.795798
2 Jan 2020 06:15:25.000,298.650,-80.069,23497.671117
2 Jan 2020 06:15:55.000,301.374,-80.032,23511.340064
2 Jan 2020 06:16:25.000,304.072,-79.983,23529.797729
2 Jan 2020 06:16:55.000,306.737,-79.921,23553.033601
2 Jan 2020 06:17:25.000,309.364,-79.848,23581.031338
2 Jan 2020 06:17:55.000,311.947,-79.764,23613.769193
2 Jan 2020 06:18:25.000,314.480,-79.669,23651.219839
2 Jan 2020 06:18:55.000,316.960,-79.565,23693.350512
2 Jan 2020 06:19:25.000,319.383,-79.452,23740.123114
2 Jan 2020 06:19:55.000,321.746,-79.331,23791.494327
2 Jan 2020 06:20:25.000,324.048,-79.202,23847.415881
2 Jan 2020 06:20:55.000,326.287,-79.067,23907.834177
2 Jan 2020 06:21:25.000,328.463,-78.927,23972.691211
2 Jan 2020 06:21:55.000,330.574,-78.781,24041.924244
2 Jan 2020 06:22:25.000,332.623,-78.631,24115.466106
2 Jan 2020 06:22:55.000,334.608,-78.479,24193.245380
2 Jan 2020 06:23:25.000,336.532,-78.323,24275.186606
2 Jan 2020 06:23:55.000,338.395,-78.167,24361.210477
2 Jan 2020 06:24:25.000,340.200,-78.009,24451.234253
2 Jan 2020 06:24:55.000,341.947,-77.851,24545.171170
2 Jan 2020 06:25:25.000,343.640,-77.693,24642.931845
2 Jan 2020 06:25:55.000,345.279,-77.536,24744.423705
2 Jan 2020 06:26:25.000,346.867,-77.381,24849.551401
2 Jan 2020 06:26:55.000,348.405,-77.228,24958.217016
2 Jan 2020 06:27:25.000,349.897,-77.078,25070.320287
2 Jan 2020 06:27:55.000,351.343,-76.931,25185.758806
2 Jan 2020 06:28:25.000,352.746,-76.788,25304.428235
2 Jan 2020 06:28:55.000,354.108,-76.648,25426.222503
2 Jan 2020 06:29:25.000,355.431,-76.513,25551.034275
2 Jan 2020 06:29:55.000,356.716,-76.383,25678.754078
2 Jan 2020 06:30:25.000,357.966,-76.257,25809.272073
2 Jan 2020 06:30:55.000,359.182,-76.137,25942.477184
2 Jan 2020 06:31:25.000,0.366,-76.023,26078.257531
2 Jan 2020 06:31:33.930,0.712,-75.990,26119.155922
2 Jan 2020 08:00:30.863,222.248,-75.991,26120.491489
2 Jan 2020 08:01:00.000,222.563,-76.135,25947.360571
2 Jan 2020 08:01:30.000,222.891,-76.296,25770.965852
2 Jan 2020 08:02:00.000,223.224,-76.468,25596.621281
2 Jan 2020 08:02:30.000,223.563,-76.653,25424.487953
2 Jan 2020 08:03:00.000,223.908,-76.850,25254.728647
2 Jan 2020 08:03:30.000,224.260,-77.059,25087.507662
2 Jan 2020 08:04:00.000,224.621,-77.280,24922.990614
2 Jan 2020 08:04:30.000,224.992,-77.514,24761.344231
2 Jan 2020 08:05:00.000,225.374,-77.760,24602.736116
2 Jan 2020 08:05:30.000,225.769,-78.019,24447.334495
2 Jan 2020 08:06:00.000,226.178,-78.290,24295.307658
2 Jan 2020 08:06:30.000,226.604,-78.573,24146.824808
2 Jan 2020 08:07:00.000,227.049,-78.868,24002.054017
2 Jan 2020 08:07:30.000,227.515,-79.175,23861.163044
2 Jan 2020 08:08:00.000,228.006,-79.494,23724.318686
2 Jan 2020 08:08:30.000,228.526,-79.825,23591.686399
2 Jan 2020 08:09:00.000,229.078,-80.167,23463.429893
2 Jan 2020 08:09:30.000,229.668,-80.520,23339.710493
2 Jan 2020 08:10:00.000,230.301,-80.883,23220.687626
2 Jan 2020 08:10:30.000,230.986,-81.257,23106.516965
2 Jan 2020 08:11:00.000,231.730,-81.641,22997.350911
2 Jan 2020 08:11:30.000,232.544,-82.034,22893.337883
2 Jan 2020 08:12:00.000,233.443,-82.436,22794.621833
2 Jan 2020 08:12:30.000,234.442,-82.846,22701.341579
2 Jan 2020 08:13:00.000,235.562,-83.263,22613.631038
2 Jan 2020 08:13:30.000,236.831,-83.686,22531.617636
2 Jan 2020 08:14:00.000,238.283,-84.115,22455.422575
