STKdata/stk_70fov_4leo/Satellite-MEO_Satellite10102-To-Satellite-LEO_Satellite10000 AER.csv

"Time (UTCG)","Azimuth (deg)","Elevation (deg)","Range (km)"
1 Jan 2020 03:11:00.216,53.880,-75.992,26117.891501
1 Jan 2020 03:11:30.000,52.837,-76.141,25939.898266
1 Jan 2020 03:12:00.000,51.757,-76.302,25763.176430
1 Jan 2020 03:12:30.000,50.643,-76.475,25589.254227
1 Jan 2020 03:13:00.000,49.493,-76.659,25418.364239
1 Jan 2020 03:13:30.000,48.302,-76.854,25250.740821
1 Jan 2020 03:14:00.000,47.066,-77.059,25086.619698
1 Jan 2020 03:14:30.000,45.781,-77.275,24926.237508
1 Jan 2020 03:15:00.000,44.441,-77.501,24769.831321
1 Jan 2020 03:15:30.000,43.042,-77.736,24617.637881
1 Jan 2020 03:16:00.000,41.576,-77.980,24469.893962
1 Jan 2020 03:16:30.000,40.037,-78.232,24326.834368
1 Jan 2020 03:17:00.000,38.419,-78.491,24188.692226
1 Jan 2020 03:17:30.000,36.713,-78.756,24055.698077
1 Jan 2020 03:18:00.000,34.911,-79.026,23928.079157
1 Jan 2020 03:18:30.000,33.004,-79.301,23806.058471
1 Jan 2020 03:19:00.000,30.981,-79.578,23689.854773
1 Jan 2020 03:19:30.000,28.834,-79.856,23579.680632
1 Jan 2020 03:20:00.000,26.549,-80.133,23475.742394
1 Jan 2020 03:20:30.000,24.118,-80.407,23378.239158
1 Jan 2020 03:21:00.000,21.528,-80.676,23287.361825
1 Jan 2020 03:21:30.000,18.770,-80.939,23203.292794
1 Jan 2020 03:22:00.000,15.834,-81.191,23126.204336
1 Jan 2020 03:22:30.000,12.712,-81.431,23056.258346
1 Jan 2020 03:23:00.000,9.400,-81.655,22993.605423
1 Jan 2020 03:23:30.000,5.897,-81.861,22938.384056
1 Jan 2020 03:24:00.000,2.207,-82.045,22890.720231
1 Jan 2020 03:24:30.000,358.341,-82.204,22850.726296
1 Jan 2020 03:25:00.000,354.315,-82.337,22818.500709
1 Jan 2020 03:25:30.000,350.155,-82.439,22794.127407
1 Jan 2020 03:26:00.000,345.891,-82.509,22777.675412
1 Jan 2020 03:26:30.000,341.562,-82.545,22769.198353
1 Jan 2020 03:27:00.000,337.208,-82.548,22768.734251
1 Jan 2020 03:27:30.000,332.874,-82.515,22776.305334
1 Jan 2020 03:28:00.000,328.602,-82.449,22791.917765
1 Jan 2020 03:28:30.000,324.431,-82.349,22815.561835
1 Jan 2020 03:29:00.000,320.393,-82.220,22847.211896
1 Jan 2020 03:29:30.000,316.517,-82.061,22886.826650
1 Jan 2020 03:30:00.000,312.821,-81.877,22934.349017
1 Jan 2020 03:30:30.000,309.317,-81.671,22989.707006
1 Jan 2020 03:31:00.000,306.011,-81.444,23052.813782
1 Jan 2020 03:31:30.000,302.904,-81.201,23123.568368
1 Jan 2020 03:32:00.000,299.993,-80.945,23201.855649
1 Jan 2020 03:32:30.000,297.269,-80.678,23287.547792
1 Jan 2020 03:33:00.000,294.725,-80.402,23380.504382
1 Jan 2020 03:33:30.000,292.351,-80.122,23480.573260
1 Jan 2020 03:34:00.000,290.135,-79.837,23587.591493
1 Jan 2020 03:34:30.000,288.066,-79.552,23701.385250
1 Jan 2020 03:35:00.000,286.135,-79.267,23821.771923
1 Jan 2020 03:35:30.000,284.330,-78.984,23948.560053
1 Jan 2020 03:36:00.000,282.641,-78.706,24081.550359
1 Jan 2020 03:36:30.000,281.060,-78.432,24220.536782
1 Jan 2020 03:37:00.000,279.578,-78.165,24365.306310
1 Jan 2020 03:37:30.000,278.186,-77.905,24515.641203
1 Jan 2020 03:38:00.000,276.878,-77.654,24671.318802
1 Jan 2020 03:38:30.000,275.647,-77.412,24832.112494
1 Jan 2020 03:39:00.000,274.487,-77.180,24997.792421
1 Jan 2020 03:39:30.000,273.392,-76.958,25168.126159
1 Jan 2020 03:40:00.000,272.357,-76.748,25342.879675
1 Jan 2020 03:40:30.000,271.378,-76.549,25521.816648
1 Jan 2020 03:41:00.000,270.451,-76.362,25704.700960
1 Jan 2020 03:41:30.000,269.572,-76.187,25891.295948
1 Jan 2020 03:42:00.000,268.736,-76.025,26081.365216
1 Jan 2020 03:42:05.663,268.583,-75.996,26117.613358
1 Jan 2020 04:57:04.896,87.729,-75.988,26110.802424
1 Jan 2020 04:57:34.000,88.481,-76.144,25923.643846
1 Jan 2020 04:58:04.000,89.298,-76.319,25734.031662
1 Jan 2020 04:58:34.000,90.160,-76.506,25548.015304
1 Jan 2020 04:59:04.000,91.071,-76.706,25365.833627
1 Jan 2020 04:59:34.000,92.035,-76.918,25187.725645
1 Jan 2020 05:00:04.000,93.057,-77.141,25013.930023
1 Jan 2020 05:00:34.000,94.141,-77.376,24844.684521
1 Jan 2020 05:01:04.000,95.294,-77.622,24680.225105
1 Jan 2020 05:01:34.000,96.520,-77.878,24520.786525
1 Jan 2020 05:02:04.000,97.827,-78.143,24366.599825
1 Jan 2020 05:02:34.000,99.222,-78.417,24217.892870
1 Jan 2020 05:03:04.000,100.713,-78.698,24074.889299
1 Jan 2020 05:03:34.000,102.308,-78.986,23937.807772
1 Jan 2020 05:04:04.000,104.019,-79.279,23806.860916
1 Jan 2020 05:04:34.000,105.855,-79.575,23682.255597
1 Jan 2020 05:05:04.000,107.827,-79.874,23564.190469
1 Jan 2020 05:05:34.000,109.947,-80.172,23452.856250
1 Jan 2020 05:06:04.000,112.229,-80.469,23348.434617
1 Jan 2020 05:06:34.000,114.686,-80.762,23251.097188
1 Jan 2020 05:07:04.000,117.329,-81.049,23161.005523
1 Jan 2020 05:07:34.000,120.171,-81.326,23078.309115
1 Jan 2020 05:08:04.000,123.224,-81.591,23003.145468
1 Jan 2020 05:08:34.000,126.494,-81.841,22935.639052
1 Jan 2020 05:09:04.000,129.987,-82.072,22875.901159
1 Jan 2020 05:09:34.000,133.700,-82.281,22824.028500
1 Jan 2020 05:10:04.000,137.628,-82.465,22780.103215
1 Jan 2020 05:10:34.000,141.753,-82.620,22744.192182
1 Jan 2020 05:11:04.000,146.050,-82.744,22716.346954
1 Jan 2020 05:11:34.000,150.485,-82.833,22696.602947
1 Jan 2020 05:12:04.000,155.018,-82.886,22684.979579
1 Jan 2020 05:12:34.000,159.598,-82.903,22681.480027
1 Jan 2020 05:13:04.000,164.175,-82.882,22686.091299
1 Jan 2020 05:13:34.000,168.698,-82.824,22698.784125
1 Jan 2020 05:14:04.000,173.121,-82.730,22719.513243
1 Jan 2020 05:14:34.000,177.403,-82.604,22748.217644
1 Jan 2020 05:15:04.000,181.512,-82.446,22784.820790
1 Jan 2020 05:15:34.000,185.427,-82.261,22829.231193
1 Jan 2020 05:16:04.000,189.133,-82.052,22881.342820
1 Jan 2020 05:16:34.000,192.625,-81.822,22941.035765
1 Jan 2020 05:17:04.000,195.903,-81.575,23008.176566
1 Jan 2020 05:17:34.000,198.973,-81.314,23082.619354
1 Jan 2020 05:18:04.000,201.844,-81.041,23164.206291
1 Jan 2020 05:18:34.000,204.527,-80.760,23252.768426
1 Jan 2020 05:19:04.000,207.035,-80.473,23348.126655
1 Jan 2020 05:19:34.000,209.379,-80.183,23450.091925
1 Jan 2020 05:20:04.000,211.575,-79.892,23558.466998
1 Jan 2020 05:20:34.000,213.633,-79.601,23673.046694
1 Jan 2020 05:21:04.000,215.567,-79.313,23793.618887
1 Jan 2020 05:21:34.000,217.386,-79.028,23919.965336
1 Jan 2020 05:22:04.000,219.103,-78.749,24051.862737
1 Jan 2020 05:22:34.000,220.726,-78.476,24189.082620
1 Jan 2020 05:23:04.000,222.263,-78.210,24331.393456
1 Jan 2020 05:23:34.000,223.724,-77.953,24478.560526
1 Jan 2020 05:24:04.000,225.115,-77.704,24630.346840
1 Jan 2020 05:24:34.000,226.443,-77.465,24786.513817
1 Jan 2020 05:25:04.000,227.714,-77.237,24946.821918
1 Jan 2020 05:25:34.000,228.933,-77.019,25111.031245
1 Jan 2020 05:26:04.000,230.106,-76.811,25278.902372
1 Jan 2020 05:26:34.000,231.236,-76.616,25450.195749
1 Jan 2020 05:27:04.000,232.328,-76.431,25624.673841
1 Jan 2020 05:27:34.000,233.386,-76.259,25802.100458
1 Jan 2020 05:28:04.000,234.413,-76.098,25982.241430
1 Jan 2020 05:28:25.117,235.119,-75.992,26110.544962
1 Jan 2020 09:42:07.280,323.863,-75.986,26105.033551
1 Jan 2020 09:42:37.000,325.365,-76.101,25965.799517
1 Jan 2020 09:43:07.000,326.919,-76.223,25828.254789
1 Jan 2020 09:43:37.000,328.513,-76.350,25693.926093
1 Jan 2020 09:44:07.000,330.150,-76.482,25563.014143
1 Jan 2020 09:44:37.000,331.832,-76.618,25435.719041
1 Jan 2020 09:45:07.000,333.563,-76.758,25312.239822
1 Jan 2020 09:45:37.000,335.344,-76.902,25192.773978
1 Jan 2020 09:46:07.000,337.178,-77.047,25077.516958
1 Jan 2020 09:46:37.000,339.068,-77.194,24966.661484
1 Jan 2020 09:47:07.000,341.016,-77.342,24860.397658
1 Jan 2020 09:47:37.000,343.024,-77.490,24758.911422
1 Jan 2020 09:48:07.000,345.094,-77.637,24662.384644
1 Jan 2020 09:48:37.000,347.228,-77.782,24570.994369
1 Jan 2020 09:49:07.000,349.426,-77.924,24484.912221
1 Jan 2020 09:49:37.000,351.689,-78.062,24404.303710
1 Jan 2020 09:50:07.000,354.018,-78.195,24329.328034
1 Jan 2020 09:50:37.000,356.412,-78.322,24260.136869
1 Jan 2020 09:51:07.000,358.869,-78.441,24196.874202
1 Jan 2020 09:51:37.000,1.387,-78.552,24139.675655
1 Jan 2020 09:52:07.000,3.963,-78.654,24088.667884
1 Jan 2020 09:52:37.000,6.593,-78.745,24043.968241
1 Jan 2020 09:53:07.000,9.273,-78.824,24005.683973
1 Jan 2020 09:53:37.000,11.995,-78.891,23973.911962
1 Jan 2020 09:54:07.000,14.753,-78.944,23948.738246
1 Jan 2020 09:54:37.000,17.541,-78.984,23930.237642
1 Jan 2020 09:55:07.000,20.348,-79.010,23918.473376
1 Jan 2020 09:55:37.000,23.166,-79.021,23913.496824
1 Jan 2020 09:56:07.000,25.986,-79.016,23915.347266
1 Jan 2020 09:56:37.000,28.798,-78.997,23924.051714
1 Jan 2020 09:57:07.000,31.594,-78.964,23939.624854
1 Jan 2020 09:57:37.000,34.363,-78.915,23962.068724
1 Jan 2020 09:58:07.000,37.098,-78.853,23991.373095
1 Jan 2020 09:58:37.000,39.791,-78.778,24027.515281
1 Jan 2020 09:59:07.000,42.434,-78.690,24070.460323
1 Jan 2020 09:59:37.000,45.022,-78.590,24120.161286
1 Jan 2020 10:00:07.000,47.548,-78.479,24176.558993
1 Jan 2020 10:00:37.000,50.010,-78.359,24239.583037
1 Jan 2020 10:01:07.000,52.403,-78.230,24309.151637
1 Jan 2020 10:01:37.000,54.725,-78.094,24385.172131
1 Jan 2020 10:02:07.000,56.975,-77.952,24467.541565
1 Jan 2020 10:02:37.000,59.151,-77.805,24556.146466
1 Jan 2020 10:03:07.000,61.254,-77.653,24650.864334
1 Jan 2020 10:03:37.000,63.285,-77.499,24751.563492
1 Jan 2020 10:04:07.000,65.243,-77.343,24858.103782
1 Jan 2020 10:04:37.000,67.131,-77.187,24970.337116
1 Jan 2020 10:05:07.000,68.951,-77.031,25088.108279
1 Jan 2020 10:05:37.000,70.703,-76.876,25211.254539
1 Jan 2020 10:06:07.000,72.391,-76.724,25339.607647
1 Jan 2020 10:06:37.000,74.017,-76.575,25472.993463
1 Jan 2020 10:07:07.000,75.584,-76.430,25611.232758
1 Jan 2020 10:07:37.000,77.093,-76.289,25754.141766
1 Jan 2020 10:08:07.000,78.547,-76.154,25901.532737
1 Jan 2020 10:08:37.000,79.949,-76.025,26053.214735
1 Jan 2020 10:08:47.080,80.409,-75.983,26105.108589
1 Jan 2020 11:24:41.725,281.845,-75.991,26111.518833
1 Jan 2020 11:25:11.000,281.675,-76.161,25908.773707
1 Jan 2020 11:25:41.000,281.482,-76.352,25703.747553
1 Jan 2020 11:26:11.000,281.268,-76.558,25501.742216
1 Jan 2020 11:26:41.000,281.031,-76.782,25303.011589
1 Jan 2020 11:27:11.000,280.770,-77.021,25107.811849
1 Jan 2020 11:27:41.000,280.482,-77.277,24916.401030
1 Jan 2020 11:28:11.000,280.165,-77.550,24729.038552
1 Jan 2020 11:28:41.000,279.816,-77.839,24545.984701
1 Jan 2020 11:29:11.000,279.433,-78.144,24367.499733
1 Jan 2020 11:29:41.000,279.010,-78.465,24193.844561
1 Jan 2020 11:30:11.000,278.544,-78.802,24025.278116
1 Jan 2020 11:30:41.000,278.029,-79.155,23862.057945
1 Jan 2020 11:31:11.000,277.460,-79.523,23704.439121
1 Jan 2020 11:31:41.000,276.827,-79.905,23552.673421
1 Jan 2020 11:32:11.000,276.124,-80.302,23407.008199
1 Jan 2020 11:32:41.000,275.338,-80.712,23267.686610
1 Jan 2020 11:33:11.000,274.456,-81.135,23134.944983
1 Jan 2020 11:33:41.000,273.461,-81.570,23009.013008
1 Jan 2020 11:34:11.000,272.333,-82.016,22890.112469
1 Jan 2020 11:34:41.000,271.045,-82.471,22778.456037
1 Jan 2020 11:35:11.000,269.564,-82.935,22674.247148
1 Jan 2020 11:35:41.000,267.847,-83.404,22577.677680
1 Jan 2020 11:36:11.000,265.838,-83.878,22488.927880
1 Jan 2020 11:36:41.000,263.462,-84.353,22408.165042
1 Jan 2020 11:37:11.000,260.620,-84.826,22335.543169
1 Jan 2020 11:37:41.000,257.180,-85.292,22271.201234
1 Jan 2020 11:38:11.000,252.965,-85.744,22215.262970
1 Jan 2020 11:38:41.000,247.741,-86.174,22167.835900
1 Jan 2020 11:39:11.000,241.219,-86.571,22129.011051
1 Jan 2020 11:39:41.000,233.089,-86.916,22098.861822
1 Jan 2020 11:40:11.000,223.127,-87.188,22077.443920
1 Jan 2020 11:40:41.000,211.435,-87.363,22064.794876
1 Jan 2020 11:41:11.000,198.672,-87.418,22060.933919
1 Jan 2020 11:41:41.000,185.986,-87.347,22065.861650
1 Jan 2020 11:42:11.000,174.486,-87.159,22079.560183
1 Jan 2020 11:42:41.000,164.751,-86.876,22101.993249
1 Jan 2020 11:43:11.000,156.822,-86.525,22133.106279
1 Jan 2020 11:43:41.000,150.454,-86.124,22172.826934
1 Jan 2020 11:44:11.000,145.336,-85.692,22221.065438
1 Jan 2020 11:44:41.000,141.184,-85.240,22277.715251
1 Jan 2020 11:45:11.000,137.773,-84.775,22342.653318
1 Jan 2020 11:45:41.000,134.933,-84.304,22415.741355
1 Jan 2020 11:46:11.000,132.536,-83.831,22496.826288
1 Jan 2020 11:46:41.000,130.486,-83.361,22585.741341
1 Jan 2020 11:47:11.000,128.713,-82.895,22682.306377
1 Jan 2020 11:47:41.000,127.161,-82.435,22786.329690
1 Jan 2020 11:48:11.000,125.789,-81.984,22897.608436
1 Jan 2020 11:48:41.000,124.564,-81.542,23015.929765
1 Jan 2020 11:49:11.000,123.461,-81.112,23141.072053
1 Jan 2020 11:49:41.000,122.461,-80.693,23272.804998
1 Jan 2020 11:50:11.000,121.545,-80.288,23410.891953
1 Jan 2020 11:50:41.000,120.702,-79.896,23555.090013
1 Jan 2020 11:51:11.000,119.920,-79.518,23705.151173
1 Jan 2020 11:51:41.000,119.191,-79.154,23860.823238
1 Jan 2020 11:52:11.000,118.507,-78.806,24021.850985
1 Jan 2020 11:52:41.000,117.861,-78.473,24187.975848
1 Jan 2020 11:53:11.000,117.249,-78.156,24358.938393
1 Jan 2020 11:53:41.000,116.666,-77.854,24534.477939
1 Jan 2020 11:54:11.000,116.107,-77.569,24714.333511
1 Jan 2020 11:54:41.000,115.570,-77.299,24898.244484
1 Jan 2020 11:55:11.000,115.052,-77.046,25085.951155
1 Jan 2020 11:55:41.000,114.550,-76.808,25277.195289
1 Jan 2020 11:56:11.000,114.061,-76.587,25471.720593
1 Jan 2020 11:56:41.000,113.584,-76.381,25669.273500
1 Jan 2020 11:57:11.000,113.117,-76.192,25869.602204
1 Jan 2020 11:57:41.000,112.658,-76.018,26072.459032
1 Jan 2020 11:57:46.806,112.570,-75.986,26111.990513
1 Jan 2020 13:17:46.400,241.209,-75.993,26118.522747
1 Jan 2020 13:18:16.000,239.351,-76.057,26040.690876
1 Jan 2020 13:18:46.000,237.436,-76.119,25966.771042
1 Jan 2020 13:19:16.000,235.489,-76.179,25897.931026
1 Jan 2020 13:19:46.000,233.512,-76.237,25834.246824
1 Jan 2020 13:20:16.000,231.507,-76.291,25775.786555
1 Jan 2020 13:20:46.000,229.474,-76.342,25722.610221
1 Jan 2020 13:21:16.000,227.417,-76.389,25674.769360
1 Jan 2020 13:21:46.000,225.336,-76.432,25632.307359
1 Jan 2020 13:22:16.000,223.235,-76.469,25595.258530
1 Jan 2020 13:22:46.000,221.115,-76.502,25563.648498
1 Jan 2020 13:23:16.000,218.980,-76.529,25537.493968
1 Jan 2020 13:23:46.000,216.832,-76.551,25516.802663
1 Jan 2020 13:24:16.000,214.674,-76.567,25501.573230
1 Jan 2020 13:24:46.000,212.508,-76.578,25491.795503
1 Jan 2020 13:25:16.000,210.338,-76.583,25487.450138
1 Jan 2020 13:25:46.000,208.168,-76.581,25488.508961
1 Jan 2020 13:26:16.000,205.999,-76.574,25494.935007
1 Jan 2020 13:26:46.000,203.834,-76.561,25506.682656
1 Jan 2020 13:27:16.000,201.677,-76.543,25523.697794
1 Jan 2020 13:27:46.000,199.530,-76.519,25545.918060
1 Jan 2020 13:28:16.000,197.396,-76.491,25573.272996
1 Jan 2020 13:28:46.000,195.276,-76.457,25605.684367
1 Jan 2020 13:29:16.000,193.174,-76.419,25643.066421
1 Jan 2020 13:29:46.000,191.091,-76.377,25685.326197
1 Jan 2020 13:30:16.000,189.028,-76.331,25732.363844
1 Jan 2020 13:30:46.000,186.988,-76.281,25784.073021
1 Jan 2020 13:31:16.000,184.971,-76.229,25840.341042
1 Jan 2020 13:31:46.000,182.979,-76.174,25901.049545
1 Jan 2020 13:32:16.000,181.013,-76.117,25966.074680
1 Jan 2020 13:32:46.000,179.072,-76.058,26035.287539
1 Jan 2020 13:33:16.000,177.158,-75.998,26108.554545
1 Jan 2020 13:33:19.828,176.916,-75.990,26118.189023
1 Jan 2020 16:17:00.325,5.477,-75.996,26121.278846
1 Jan 2020 16:17:30.000,3.604,-76.059,26043.672248
1 Jan 2020 16:18:00.000,1.682,-76.122,25969.161136
1 Jan 2020 16:18:30.000,359.732,-76.184,25898.755279
1 Jan 2020 16:19:00.000,357.755,-76.244,25832.590265
1 Jan 2020 16:19:30.000,355.751,-76.302,25770.796956
1 Jan 2020 16:20:00.000,353.721,-76.358,25713.501087
1 Jan 2020 16:20:30.000,351.666,-76.410,25660.822874
1 Jan 2020 16:21:00.000,349.588,-76.458,25612.876586
1 Jan 2020 16:21:30.000,347.488,-76.503,25569.770326
1 Jan 2020 16:22:00.000,345.367,-76.543,25531.605417
1 Jan 2020 16:22:30.000,343.229,-76.579,25498.476225
1 Jan 2020 16:23:00.000,341.075,-76.609,25470.469783
1 Jan 2020 16:23:30.000,338.907,-76.635,25447.665477
1 Jan 2020 16:24:00.000,336.729,-76.654,25430.134774
1 Jan 2020 16:24:30.000,334.543,-76.668,25417.940911
1 Jan 2020 16:25:00.000,332.351,-76.675,25411.138716
1 Jan 2020 16:25:30.000,330.158,-76.677,25409.774376
1 Jan 2020 16:26:00.000,327.966,-76.673,25413.885261
1 Jan 2020 16:26:30.000,325.778,-76.662,25423.499790
1 Jan 2020 16:27:00.000,323.597,-76.645,25438.637384
1 Jan 2020 16:27:30.000,321.427,-76.622,25459.308135
1 Jan 2020 16:28:00.000,319.270,-76.594,25485.513146
1 Jan 2020 16:28:30.000,317.129,-76.559,25517.244287
1 Jan 2020 16:29:00.000,315.008,-76.520,25554.484286
1 Jan 2020 16:29:30.000,312.908,-76.475,25597.206794
1 Jan 2020 16:30:00.000,310.833,-76.426,25645.376616
1 Jan 2020 16:30:30.000,308.783,-76.373,25698.949362
1 Jan 2020 16:31:00.000,306.762,-76.316,25757.872324
1 Jan 2020 16:31:30.000,304.770,-76.255,25822.084207
1 Jan 2020 16:32:00.000,302.810,-76.192,25891.515475
1 Jan 2020 16:32:30.000,300.883,-76.127,25966.088596
1 Jan 2020 16:33:00.000,298.989,-76.059,26045.718479
1 Jan 2020 16:33:26.896,297.321,-75.998,26121.331992
1 Jan 2020 17:53:05.839,67.992,-75.990,26115.561937
1 Jan 2020 17:53:35.000,67.576,-76.157,25917.241985
1 Jan 2020 17:54:05.000,67.142,-76.344,25715.667707
1 Jan 2020 17:54:35.000,66.700,-76.547,25516.822063
1 Jan 2020 17:55:05.000,66.248,-76.766,25320.956262
1 Jan 2020 17:55:35.000,65.784,-77.001,25128.324389
1 Jan 2020 17:56:05.000,65.307,-77.252,24939.183020
1 Jan 2020 17:56:35.000,64.813,-77.520,24753.790796
1 Jan 2020 17:57:05.000,64.302,-77.803,24572.407944
1 Jan 2020 17:57:35.000,63.768,-78.103,24395.295467
1 Jan 2020 17:58:05.000,63.210,-78.419,24222.715722
1 Jan 2020 17:58:35.000,62.622,-78.751,24054.930054
1 Jan 2020 17:59:05.000,62.001,-79.098,23892.199286
1 Jan 2020 17:59:35.000,61.340,-79.461,23734.782696
1 Jan 2020 18:00:05.000,60.633,-79.839,23582.937248
1 Jan 2020 18:00:35.000,59.872,-80.232,23436.916509
1 Jan 2020 18:01:05.000,59.048,-80.638,23296.970804
1 Jan 2020 18:01:35.000,58.147,-81.058,23163.344768
1 Jan 2020 18:02:05.000,57.157,-81.491,23036.277438
1 Jan 2020 18:02:35.000,56.058,-81.935,22916.001029
1 Jan 2020 18:03:05.000,54.827,-82.390,22802.739737
1 Jan 2020 18:03:35.000,53.436,-82.854,22696.709532
1 Jan 2020 18:04:05.000,51.846,-83.327,22598.115938
1 Jan 2020 18:04:35.000,50.008,-83.805,22507.153841
1 Jan 2020 18:05:05.000,47.854,-84.287,22424.006172
1 Jan 2020 18:05:35.000,45.294,-84.770,22348.843449
1 Jan 2020 18:06:05.000,42.206,-85.250,22281.822067
1 Jan 2020 18:06:35.000,38.418,-85.721,22223.083955
1 Jan 2020 18:07:05.000,33.696,-86.177,22172.755551
1 Jan 2020 18:07:35.000,27.721,-86.606,22130.947368
1 Jan 2020 18:08:05.000,20.094,-86.994,22097.752843
1 Jan 2020 18:08:35.000,10.405,-87.318,22073.248102
1 Jan 2020 18:09:05.000,358.469,-87.550,22057.491398
1 Jan 2020 18:09:35.000,344.739,-87.661,22050.522805
1 Jan 2020 18:10:05.000,330.526,-87.631,22052.363853
1 Jan 2020 18:10:35.000,317.427,-87.467,22063.017487
1 Jan 2020 18:11:05.000,306.419,-87.193,22082.468078
1 Jan 2020 18:11:35.000,297.642,-86.839,22110.681339
1 Jan 2020 18:12:05.000,290.776,-86.430,22147.604805
1 Jan 2020 18:12:35.000,285.398,-85.987,22193.168015
1 Jan 2020 18:13:05.000,281.140,-85.522,22247.283103
1 Jan 2020 18:13:35.000,277.719,-85.045,22309.844901
1 Jan 2020 18:14:05.000,274.928,-84.561,22380.732221
1 Jan 2020 18:14:35.000,272.619,-84.076,22459.808165
1 Jan 2020 18:15:05.000,270.684,-83.593,22546.921182
1 Jan 2020 18:15:35.000,269.042,-83.114,22641.905292
1 Jan 2020 18:16:05.000,267.634,-82.642,22744.581933
1 Jan 2020 18:16:35.000,266.417,-82.179,22854.760299
1 Jan 2020 18:17:05.000,265.356,-81.725,22972.238470
1 Jan 2020 18:17:35.000,264.425,-81.283,23096.804662
1 Jan 2020 18:18:05.000,263.603,-80.853,23228.237229
1 Jan 2020 18:18:35.000,262.873,-80.436,23366.307145
1 Jan 2020 18:19:05.000,262.222,-80.032,23510.778016
1 Jan 2020 18:19:35.000,261.639,-79.643,23661.407294
1 Jan 2020 18:20:05.000,261.116,-79.269,23817.947471
1 Jan 2020 18:20:35.000,260.645,-78.910,23980.145960
1 Jan 2020 18:21:05.000,260.221,-78.567,24147.747494
1 Jan 2020 18:21:35.000,259.837,-78.240,24320.493944
1 Jan 2020 18:22:05.000,259.491,-77.930,24498.125343
1 Jan 2020 18:22:35.000,259.177,-77.635,24680.380627
1 Jan 2020 18:23:05.000,258.894,-77.357,24866.998307
1 Jan 2020 18:23:35.000,258.638,-77.096,25057.717433
1 Jan 2020 18:24:05.000,258.407,-76.851,25252.276888
1 Jan 2020 18:24:35.000,258.200,-76.623,25450.417835
1 Jan 2020 18:25:05.000,258.014,-76.411,25651.882934
1 Jan 2020 18:25:35.000,257.848,-76.215,25856.417091
1 Jan 2020 18:26:05.000,257.700,-76.036,26063.767851
1 Jan 2020 18:26:12.361,257.667,-75.995,26115.046044
1 Jan 2020 19:42:14.170,100.242,-75.987,26108.242400
1 Jan 2020 19:42:44.000,101.646,-76.111,25958.559737
1 Jan 2020 19:43:14.000,103.109,-76.242,25812.280157
1 Jan 2020 19:43:44.000,104.626,-76.378,25670.457689
1 Jan 2020 19:44:14.000,106.199,-76.518,25533.277967
1 Jan 2020 19:44:44.000,107.830,-76.662,25400.922614
1 Jan 2020 19:45:14.000,109.521,-76.810,25273.568699
1 Jan 2020 19:45:44.000,111.276,-76.959,25151.387960
1 Jan 2020 19:46:14.000,113.095,-77.110,25034.547184
1 Jan 2020 19:46:44.000,114.981,-77.261,24923.206224
1 Jan 2020 19:47:14.000,116.935,-77.412,24817.518394
1 Jan 2020 19:47:44.000,118.958,-77.560,24717.629672
1 Jan 2020 19:48:14.000,121.052,-77.707,24623.678141
1 Jan 2020 19:48:44.000,123.216,-77.849,24535.793263
1 Jan 2020 19:49:14.000,125.451,-77.986,24454.096146
1 Jan 2020 19:49:44.000,127.754,-78.117,24378.697839
1 Jan 2020 19:50:14.000,130.126,-78.241,24309.699670
1 Jan 2020 19:50:44.000,132.563,-78.357,24247.192601
1 Jan 2020 19:51:14.000,135.062,-78.463,24191.256693
1 Jan 2020 19:51:44.000,137.618,-78.559,24141.961256
1 Jan 2020 19:52:14.000,140.228,-78.644,24099.363737
1 Jan 2020 19:52:44.000,142.884,-78.717,24063.509983
1 Jan 2020 19:53:14.000,145.580,-78.777,24034.433883
1 Jan 2020 19:53:44.000,148.309,-78.823,24012.157126
1 Jan 2020 19:54:14.000,151.062,-78.856,23996.689384
1 Jan 2020 19:54:44.000,153.832,-78.874,23988.027801
1 Jan 2020 19:55:14.000,156.609,-78.878,23986.157309
1 Jan 2020 19:55:44.000,159.384,-78.868,23991.050611
1 Jan 2020 19:56:14.000,162.148,-78.844,24002.668292
1 Jan 2020 19:56:44.000,164.894,-78.805,24020.959046
1 Jan 2020 19:57:14.000,167.614,-78.754,24045.859815
1 Jan 2020 19:57:44.000,170.299,-78.690,24077.296147
1 Jan 2020 19:58:14.000,172.943,-78.614,24115.182507
1 Jan 2020 19:58:44.000,175.542,-78.527,24159.422709
1 Jan 2020 19:59:14.000,178.089,-78.429,24209.910158
1 Jan 2020 19:59:44.000,180.581,-78.323,24266.528555
1 Jan 2020 20:00:14.000,183.015,-78.208,24329.152239
1 Jan 2020 20:00:44.000,185.389,-78.086,24397.646744
1 Jan 2020 20:01:14.000,187.701,-77.958,24471.869339
1 Jan 2020 20:01:44.000,189.951,-77.825,24551.669707
1 Jan 2020 20:02:14.000,192.138,-77.689,24636.890070
1 Jan 2020 20:02:44.000,194.263,-77.549,24727.366435
1 Jan 2020 20:03:14.000,196.327,-77.407,24822.928750
1 Jan 2020 20:03:44.000,198.331,-77.264,24923.401599
1 Jan 2020 20:04:14.000,200.278,-77.121,25028.604786
1 Jan 2020 20:04:44.000,202.168,-76.979,25138.353908
1 Jan 2020 20:05:14.000,204.004,-76.839,25252.461097
1 Jan 2020 20:05:44.000,205.789,-76.701,25370.734890
1 Jan 2020 20:06:14.000,207.524,-76.565,25492.981765
1 Jan 2020 20:06:44.000,209.213,-76.434,25619.006000
1 Jan 2020 20:07:14.000,210.857,-76.306,25748.610322
1 Jan 2020 20:07:44.000,212.459,-76.183,25881.596389
1 Jan 2020 20:08:14.000,214.022,-76.065,26017.765227
1 Jan 2020 20:08:33.595,215.022,-75.991,26108.330275
2 Jan 2020 00:22:23.210,304.177,-75.988,26107.028738
2 Jan 2020 00:22:53.000,305.150,-76.140,25924.945503
2 Jan 2020 00:23:23.000,306.158,-76.305,25744.108226
2 Jan 2020 00:23:53.000,307.197,-76.483,25566.039800
2 Jan 2020 00:24:23.000,308.271,-76.672,25390.975842
2 Jan 2020 00:24:53.000,309.383,-76.874,25219.153953
2 Jan 2020 00:25:23.000,310.537,-77.087,25050.813315
2 Jan 2020 00:25:53.000,311.738,-77.311,24886.194243
2 Jan 2020 00:26:23.000,312.992,-77.546,24725.537706
2 Jan 2020 00:26:53.000,314.303,-77.791,24569.084566
2 Jan 2020 00:27:23.000,315.678,-78.046,24417.075963
2 Jan 2020 00:27:53.000,317.124,-78.310,24269.751268
2 Jan 2020 00:28:23.000,318.649,-78.583,24127.348403
2 Jan 2020 00:28:53.000,320.260,-78.864,23990.102918
2 Jan 2020 00:29:23.000,321.968,-79.150,23858.247264
2 Jan 2020 00:29:53.000,323.781,-79.443,23732.009849
2 Jan 2020 00:30:23.000,325.712,-79.739,23611.615033
2 Jan 2020 00:30:53.000,327.773,-80.037,23497.281132
2 Jan 2020 00:31:23.000,329.975,-80.337,23389.220385
2 Jan 2020 00:31:53.000,332.334,-80.635,23287.637909
2 Jan 2020 00:32:23.000,334.863,-80.930,23192.730706
2 Jan 2020 00:32:53.000,337.577,-81.218,23104.687371
2 Jan 2020 00:33:23.000,340.489,-81.499,23023.686375
2 Jan 2020 00:33:53.000,343.613,-81.767,22949.895823
2 Jan 2020 00:34:23.000,346.959,-82.021,22883.472493
2 Jan 2020 00:34:53.000,350.533,-82.257,22824.560970
2 Jan 2020 00:35:23.000,354.337,-82.471,22773.293255
2 Jan 2020 00:35:53.000,358.366,-82.660,22729.787538
2 Jan 2020 00:36:23.000,2.603,-82.819,22694.147937
2 Jan 2020 00:36:53.000,7.025,-82.947,22666.463825
2 Jan 2020 00:37:23.000,11.597,-83.039,22646.809418
2 Jan 2020 00:37:53.000,16.272,-83.094,22635.243221
2 Jan 2020 00:38:23.000,20.998,-83.111,22631.807812
2 Jan 2020 00:38:53.000,25.720,-83.088,22636.529616
2 Jan 2020 00:39:23.000,30.380,-83.026,22649.418623
2 Jan 2020 00:39:53.000,34.927,-82.927,22670.468528
2 Jan 2020 00:40:23.000,39.316,-82.793,22699.656671
2 Jan 2020 00:40:53.000,43.511,-82.627,22736.944296
2 Jan 2020 00:41:23.000,47.489,-82.432,22782.276432
2 Jan 2020 00:41:53.000,51.234,-82.211,22835.582731
2 Jan 2020 00:42:23.000,54.742,-81.968,22896.777551
2 Jan 2020 00:42:53.000,58.013,-81.707,22965.760658
2 Jan 2020 00:43:23.000,61.055,-81.431,23042.417245
2 Jan 2020 00:43:53.000,63.877,-81.143,23126.619352
2 Jan 2020 00:44:23.000,66.494,-80.847,23218.226027
2 Jan 2020 00:44:53.000,68.918,-80.545,23317.084181
2 Jan 2020 00:45:23.000,71.164,-80.239,23423.029582
2 Jan 2020 00:45:53.000,73.246,-79.932,23535.886751
2 Jan 2020 00:46:23.000,75.178,-79.626,23655.471111
2 Jan 2020 00:46:53.000,76.973,-79.323,23781.588946
2 Jan 2020 00:47:23.000,78.643,-79.024,23914.038451
2 Jan 2020 00:47:53.000,80.198,-78.731,24052.610813
2 Jan 2020 00:48:23.000,81.648,-78.445,24197.090052
2 Jan 2020 00:48:53.000,83.004,-78.166,24347.255294
2 Jan 2020 00:49:23.000,84.272,-77.897,24502.880593
2 Jan 2020 00:49:53.000,85.460,-77.638,24663.735931
2 Jan 2020 00:50:23.000,86.576,-77.389,24829.587950
2 Jan 2020 00:50:53.000,87.625,-77.151,25000.200656
2 Jan 2020 00:51:23.000,88.612,-76.924,25175.336410
2 Jan 2020 00:51:53.000,89.542,-76.710,25354.755236
2 Jan 2020 00:52:23.000,90.421,-76.509,25538.217380
2 Jan 2020 00:52:53.000,91.251,-76.320,25725.482549
2 Jan 2020 00:53:23.000,92.037,-76.144,25916.310745
2 Jan 2020 00:53:52.536,92.771,-75.984,26107.435242
2 Jan 2020 02:08:50.985,270.907,-75.992,26114.191164
2 Jan 2020 02:09:20.000,270.079,-76.145,25931.057667
2 Jan 2020 02:09:50.000,269.179,-76.315,25745.112247
2 Jan 2020 02:10:20.000,268.232,-76.498,25562.859300
2 Jan 2020 02:10:50.000,267.232,-76.692,25384.533653
2 Jan 2020 02:11:20.000,266.178,-76.897,25210.369860
2 Jan 2020 02:11:50.000,265.063,-77.113,25040.601674
2 Jan 2020 02:12:20.000,263.883,-77.340,24875.461486
2 Jan 2020 02:12:50.000,262.633,-77.576,24715.179434
2 Jan 2020 02:13:20.000,261.307,-77.821,24559.983966
2 Jan 2020 02:13:50.000,259.898,-78.074,24410.099366
2 Jan 2020 02:14:20.000,258.400,-78.335,24265.746270
2 Jan 2020 02:14:50.000,256.804,-78.601,24127.140640
2 Jan 2020 02:15:20.000,255.104,-78.873,23994.493012
2 Jan 2020 02:15:50.000,253.290,-79.148,23868.007474
2 Jan 2020 02:16:20.000,251.353,-79.425,23747.881930
2 Jan 2020 02:16:50.000,249.283,-79.703,23634.305716
2 Jan 2020 02:17:20.000,247.071,-79.979,23527.459879
2 Jan 2020 02:17:50.000,244.706,-80.252,23427.516120
2 Jan 2020 02:18:20.000,242.179,-80.519,23334.635820
2 Jan 2020 02:18:50.000,239.482,-80.778,23248.970063
2 Jan 2020 02:19:20.000,236.606,-81.027,23170.657716
2 Jan 2020 02:19:50.000,233.545,-81.262,23099.825537
2 Jan 2020 02:20:20.000,230.299,-81.481,23036.587201
2 Jan 2020 02:20:50.000,226.867,-81.681,22981.043185
2 Jan 2020 02:21:20.000,223.256,-81.859,22933.279476
2 Jan 2020 02:21:50.000,219.478,-82.013,22893.367610
2 Jan 2020 02:22:20.000,215.551,-82.139,22861.364061
2 Jan 2020 02:22:50.000,211.500,-82.236,22837.310218
2 Jan 2020 02:23:20.000,207.354,-82.302,22821.231675
2 Jan 2020 02:23:50.000,203.150,-82.336,22813.138393
2 Jan 2020 02:24:20.000,198.925,-82.336,22813.024536
2 Jan 2020 02:24:50.000,194.719,-82.303,22820.868576
2 Jan 2020 02:25:20.000,190.571,-82.239,22836.633251
2 Jan 2020 02:25:50.000,186.513,-82.143,22860.265884
2 Jan 2020 02:26:20.000,182.577,-82.018,22891.698664
2 Jan 2020 02:26:50.000,178.786,-81.867,22930.848890
2 Jan 2020 02:27:20.000,175.156,-81.692,22977.619583
2 Jan 2020 02:27:50.000,171.699,-81.496,23031.899903
2 Jan 2020 02:28:20.000,168.419,-81.281,23093.565746
2 Jan 2020 02:28:50.000,165.318,-81.051,23162.480498
2 Jan 2020 02:29:20.000,162.392,-80.808,23238.495278
2 Jan 2020 02:29:50.000,159.636,-80.556,23321.450308
2 Jan 2020 02:30:20.000,157.041,-80.295,23411.175264
2 Jan 2020 02:30:50.000,154.599,-80.030,23507.490158
2 Jan 2020 02:31:20.000,152.299,-79.761,23610.206308
2 Jan 2020 02:31:50.000,150.132,-79.491,23719.126514
2 Jan 2020 02:32:20.000,148.087,-79.222,23834.046810
2 Jan 2020 02:32:50.000,146.156,-78.954,23954.756663
2 Jan 2020 02:33:20.000,144.328,-78.691,24081.039921
2 Jan 2020 02:33:50.000,142.596,-78.432,24212.675598
2 Jan 2020 02:34:20.000,140.951,-78.178,24349.438854
2 Jan 2020 02:34:50.000,139.385,-77.932,24491.100861
2 Jan 2020 02:35:20.000,137.892,-77.693,24637.430795
2 Jan 2020 02:35:50.000,136.465,-77.463,24788.195662
2 Jan 2020 02:36:20.000,135.098,-77.241,24943.161140
2 Jan 2020 02:36:50.000,133.786,-77.029,25102.092186
2 Jan 2020 02:37:20.000,132.524,-76.827,25264.753591
2 Jan 2020 02:37:50.000,131.307,-76.636,25430.910512
2 Jan 2020 02:38:20.000,130.131,-76.455,25600.328950
2 Jan 2020 02:38:50.000,128.992,-76.285,25772.776483
2 Jan 2020 02:39:20.000,127.887,-76.126,25948.021551
2 Jan 2020 02:39:48.094,126.880,-75.987,26114.463758
2 Jan 2020 06:53:16.305,38.944,-75.993,26119.541524
2 Jan 2020 06:53:46.000,37.499,-76.114,25974.428200
2 Jan 2020 06:54:16.000,36.002,-76.242,25830.744836
2 Jan 2020 06:54:46.000,34.464,-76.376,25690.202089
2 Jan 2020 06:55:16.000,32.883,-76.516,25553.006101
2 Jan 2020 06:55:46.000,31.256,-76.661,25419.362804
2 Jan 2020 06:56:16.000,29.579,-76.811,25289.477472
2 Jan 2020 06:56:46.000,27.851,-76.965,25163.554241
2 Jan 2020 06:57:16.000,26.067,-77.122,25041.795607
2 Jan 2020 06:57:46.000,24.226,-77.282,24924.401734
2 Jan 2020 06:58:16.000,22.323,-77.443,24811.570585
2 Jan 2020 06:58:46.000,20.357,-77.606,24703.496311
2 Jan 2020 06:59:16.000,18.324,-77.768,24600.369365
2 Jan 2020 06:59:46.000,16.222,-77.929,24502.375719
2 Jan 2020 07:00:16.000,14.049,-78.089,24409.696248
2 Jan 2020 07:00:46.000,11.803,-78.244,24322.505994
2 Jan 2020 07:01:16.000,9.484,-78.396,24240.973985
2 Jan 2020 07:01:46.000,7.091,-78.542,24165.261918
2 Jan 2020 07:02:16.000,4.625,-78.680,24095.524005
2 Jan 2020 07:02:46.000,2.086,-78.811,24031.906235
2 Jan 2020 07:03:16.000,359.477,-78.932,23974.545725
2 Jan 2020 07:03:46.000,356.802,-79.042,23923.570373
2 Jan 2020 07:04:16.000,354.064,-79.141,23879.097941
2 Jan 2020 07:04:46.000,351.271,-79.226,23841.235790
2 Jan 2020 07:05:16.000,348.428,-79.298,23810.080332
2 Jan 2020 07:05:46.000,345.545,-79.355,23785.716588
2 Jan 2020 07:06:16.000,342.630,-79.396,23768.217815
2 Jan 2020 07:06:46.000,339.693,-79.421,23757.645117
2 Jan 2020 07:07:16.000,336.745,-79.429,23754.047199
2 Jan 2020 07:07:46.000,333.798,-79.421,23757.460127
2 Jan 2020 07:08:16.000,330.862,-79.397,23767.907223
2 Jan 2020 07:08:46.000,327.947,-79.356,23785.398724
2 Jan 2020 07:09:16.000,325.066,-79.299,23809.932073
2 Jan 2020 07:09:46.000,322.227,-79.226,23841.491732
2 Jan 2020 07:10:16.000,319.440,-79.139,23880.049320
2 Jan 2020 07:10:46.000,316.712,-79.039,23925.563882
2 Jan 2020 07:11:16.000,314.049,-78.926,23977.981620
2 Jan 2020 07:11:46.000,311.459,-78.801,24037.236857
2 Jan 2020 07:12:16.000,308.943,-78.666,24103.251911
2 Jan 2020 07:12:46.000,306.507,-78.522,24175.937567
2 Jan 2020 07:13:16.000,304.151,-78.371,24255.193675
2 Jan 2020 07:13:46.000,301.877,-78.213,24340.908925
2 Jan 2020 07:14:16.000,299.685,-78.050,24432.962349
2 Jan 2020 07:14:46.000,297.574,-77.883,24531.223186
2 Jan 2020 07:15:16.000,295.543,-77.714,24635.551598
2 Jan 2020 07:15:46.000,293.591,-77.543,24745.799244
2 Jan 2020 07:16:16.000,291.715,-77.373,24861.810114
2 Jan 2020 07:16:46.000,289.913,-77.203,24983.420143
2 Jan 2020 07:17:16.000,288.183,-77.035,25110.459278
2 Jan 2020 07:17:46.000,286.520,-76.870,25242.751113
2 Jan 2020 07:18:16.000,284.924,-76.708,25380.113730
2 Jan 2020 07:18:46.000,283.390,-76.551,25522.360290
2 Jan 2020 07:19:16.000,281.916,-76.400,25669.299613
2 Jan 2020 07:19:46.000,280.499,-76.254,25820.737029
2 Jan 2020 07:20:16.000,279.136,-76.115,25976.473786
2 Jan 2020 07:20:42.859,277.960,-75.997,26119.388752
2 Jan 2020 08:36:24.603,79.399,-75.989,26112.968977
2 Jan 2020 08:36:54.000,79.647,-76.159,25910.238748
2 Jan 2020 08:37:24.000,79.922,-76.349,25706.151575
2 Jan 2020 08:37:54.000,80.222,-76.555,25505.146284
2 Jan 2020 08:38:24.000,80.549,-76.777,25307.476010
2 Jan 2020 08:38:54.000,80.905,-77.015,25113.396002
2 Jan 2020 08:39:24.000,81.292,-77.269,24923.163187
2 Jan 2020 08:39:54.000,81.714,-77.540,24737.035686
2 Jan 2020 08:40:24.000,82.174,-77.826,24555.272289
2 Jan 2020 08:40:54.000,82.676,-78.128,24378.131542
2 Jan 2020 08:41:24.000,83.225,-78.445,24205.872442
2 Jan 2020 08:41:54.000,83.825,-78.778,24038.751768
2 Jan 2020 08:42:24.000,84.484,-79.125,23877.024692
2 Jan 2020 08:42:54.000,85.208,-79.487,23720.943671
2 Jan 2020 08:43:24.000,86.008,-79.863,23570.757632
2 Jan 2020 08:43:54.000,86.892,-80.252,23426.710835
2 Jan 2020 08:44:24.000,87.875,-80.653,23289.043104
2 Jan 2020 08:44:54.000,88.971,-81.066,23157.987198
2 Jan 2020 08:45:24.000,90.200,-81.489,23033.769002
2 Jan 2020 08:45:54.000,91.585,-81.922,22916.606274
2 Jan 2020 08:46:24.000,93.155,-82.362,22806.707441
2 Jan 2020 08:46:54.000,94.945,-82.807,22704.271495
2 Jan 2020 08:47:24.000,97.002,-83.256,22609.485680
2 Jan 2020 08:47:54.000,99.382,-83.706,22522.525444
2 Jan 2020 08:48:24.000,102.158,-84.153,22443.553135
2 Jan 2020 08:48:54.000,105.422,-84.594,22372.717682
2 Jan 2020 08:49:24.000,109.287,-85.021,22310.152890
2 Jan 2020 08:49:54.000,113.893,-85.429,22255.977252
2 Jan 2020 08:50:24.000,119.399,-85.809,22210.293013
2 Jan 2020 08:50:54.000,125.966,-86.148,22173.185906
2 Jan 2020 08:51:24.000,133.713,-86.431,22144.724063
2 Jan 2020 08:51:54.000,142.636,-86.644,22124.957977
2 Jan 2020 08:52:24.000,152.516,-86.769,22113.920049
2 Jan 2020 08:52:54.000,162.877,-86.796,22111.624495
2 Jan 2020 08:53:24.000,173.086,-86.722,22118.067053
2 Jan 2020 08:53:54.000,182.563,-86.554,22133.225146
2 Jan 2020 08:54:24.000,190.954,-86.307,22157.058021
2 Jan 2020 08:54:54.000,198.152,-85.996,22189.506850
2 Jan 2020 08:55:24.000,204.227,-85.638,22230.495285
2 Jan 2020 08:55:54.000,209.324,-85.246,22279.929809
2 Jan 2020 08:56:24.000,213.607,-84.830,22337.700421
2 Jan 2020 08:56:54.000,217.228,-84.398,22403.680908
2 Jan 2020 08:57:24.000,220.312,-83.957,22477.730124
2 Jan 2020 08:57:54.000,222.964,-83.511,22559.692448
2 Jan 2020 08:58:24.000,225.265,-83.065,22649.398866
2 Jan 2020 08:58:54.000,227.279,-82.621,22746.667319
2 Jan 2020 08:59:24.000,229.059,-82.181,22851.304482
2 Jan 2020 08:59:54.000,230.644,-81.749,22963.106197
2 Jan 2020 09:00:24.000,232.068,-81.324,23081.858589
2 Jan 2020 09:00:54.000,233.356,-80.910,23207.339290
2 Jan 2020 09:01:24.000,234.529,-80.506,23339.317534
2 Jan 2020 09:01:54.000,235.606,-80.114,23477.556453
2 Jan 2020 09:02:24.000,236.599,-79.735,23621.813166
2 Jan 2020 09:02:54.000,237.521,-79.369,23771.839918
2 Jan 2020 09:03:24.000,238.382,-79.017,23927.384972
2 Jan 2020 09:03:54.000,239.190,-78.680,24088.193746
2 Jan 2020 09:04:24.000,239.952,-78.357,24254.008513
2 Jan 2020 09:04:54.000,240.674,-78.050,24424.570818
2 Jan 2020 09:05:24.000,241.361,-77.757,24599.621106
2 Jan 2020 09:05:54.000,242.018,-77.481,24778.899661
2 Jan 2020 09:06:24.000,242.649,-77.219,24962.147226
2 Jan 2020 09:06:54.000,243.257,-76.974,25149.105570
2 Jan 2020 09:07:24.000,243.845,-76.744,25339.518014
2 Jan 2020 09:07:54.000,244.415,-76.529,25533.129898
2 Jan 2020 09:08:24.000,244.971,-76.330,25729.689340
2 Jan 2020 09:08:54.000,245.513,-76.147,25928.946308
2 Jan 2020 09:09:21.306,245.998,-75.993,26112.445913
2 Jan 2020 10:30:27.908,123.202,-75.986,26106.063809
2 Jan 2020 10:30:57.000,125.079,-76.037,26044.111912
2 Jan 2020 10:31:27.000,127.040,-76.086,25985.196357
2 Jan 2020 10:31:57.000,129.026,-76.133,25931.386698
2 Jan 2020 10:32:27.000,131.036,-76.176,25882.734745
2 Jan 2020 10:32:57.000,133.067,-76.215,25839.284151
2 Jan 2020 10:33:27.000,135.118,-76.250,25801.070255
2 Jan 2020 10:33:57.000,137.186,-76.281,25768.119860
2 Jan 2020 10:34:27.000,139.269,-76.308,25740.451518
2 Jan 2020 10:34:57.000,141.364,-76.330,25718.074868
2 Jan 2020 10:35:27.000,143.470,-76.346,25700.991001
2 Jan 2020 10:35:57.000,145.584,-76.358,25689.192357
2 Jan 2020 10:36:27.000,147.702,-76.364,25682.662745
2 Jan 2020 10:36:57.000,149.823,-76.366,25681.377371
2 Jan 2020 10:37:27.000,151.943,-76.362,25685.303082
2 Jan 2020 10:37:57.000,154.061,-76.353,25694.398239
2 Jan 2020 10:38:27.000,156.173,-76.340,25708.613046
2 Jan 2020 10:38:57.000,158.277,-76.321,25727.889683
2 Jan 2020 10:39:27.000,160.372,-76.298,25752.162511
2 Jan 2020 10:39:57.000,162.454,-76.270,25781.358324
2 Jan 2020 10:40:27.000,164.522,-76.239,25815.396563
2 Jan 2020 10:40:57.000,166.574,-76.203,25854.189643
2 Jan 2020 10:41:27.000,168.608,-76.164,25897.643228
2 Jan 2020 10:41:57.000,170.624,-76.122,25945.656554
2 Jan 2020 10:42:27.000,172.618,-76.078,25998.122757
2 Jan 2020 10:42:57.000,174.591,-76.031,26054.929221
2 Jan 2020 10:43:22.414,176.246,-75.989,26106.359351
2 Jan 2020 13:27:20.338,348.916,-75.984,26103.620628
2 Jan 2020 13:27:50.000,350.742,-76.056,26015.195524
2 Jan 2020 13:28:20.000,352.621,-76.129,25929.533261
2 Jan 2020 13:28:50.000,354.530,-76.202,25847.813849
2 Jan 2020 13:29:20.000,356.471,-76.273,25770.186017
2 Jan 2020 13:29:50.000,358.443,-76.344,25696.794474
2 Jan 2020 13:30:20.000,0.445,-76.412,25627.779486
2 Jan 2020 13:30:50.000,2.478,-76.478,25563.276452
2 Jan 2020 13:31:20.000,4.540,-76.541,25503.415421
2 Jan 2020 13:31:50.000,6.630,-76.601,25448.320921
2 Jan 2020 13:32:20.000,8.747,-76.656,25398.111167
2 Jan 2020 13:32:50.000,10.888,-76.707,25352.897929
2 Jan 2020 13:33:20.000,13.053,-76.754,25312.786070
2 Jan 2020 13:33:50.000,15.239,-76.795,25277.873178
2 Jan 2020 13:34:20.000,17.444,-76.830,25248.249213
2 Jan 2020 13:34:50.000,19.664,-76.859,25223.996203
2 Jan 2020 13:35:20.000,21.896,-76.882,25205.187882
2 Jan 2020 13:35:50.000,24.138,-76.898,25191.889460
2 Jan 2020 13:36:20.000,26.387,-76.908,25184.157359
2 Jan 2020 13:36:50.000,28.638,-76.910,25182.038998
2 Jan 2020 13:37:20.000,30.888,-76.906,25185.572661
2 Jan 2020 13:37:50.000,33.134,-76.894,25194.787150
2 Jan 2020 13:38:20.000,35.372,-76.876,25209.701957
2 Jan 2020 13:38:50.000,37.598,-76.851,25230.327011
2 Jan 2020 13:39:20.000,39.810,-76.819,25256.662683
2 Jan 2020 13:39:50.000,42.004,-76.781,25288.699786
2 Jan 2020 13:40:20.000,44.176,-76.737,25326.419732
2 Jan 2020 13:40:50.000,46.324,-76.687,25369.794169
2 Jan 2020 13:41:20.000,48.446,-76.632,25418.785735
2 Jan 2020 13:41:50.000,50.538,-76.572,25473.347789
2 Jan 2020 13:42:20.000,52.599,-76.508,25533.424697
2 Jan 2020 13:42:50.000,54.627,-76.440,25598.952050
2 Jan 2020 13:43:20.000,56.620,-76.369,25669.857058
2 Jan 2020 13:43:50.000,58.576,-76.295,25746.058209
2 Jan 2020 13:44:20.000,60.496,-76.219,25827.466481
2 Jan 2020 13:44:50.000,62.378,-76.141,25913.985057
2 Jan 2020 13:45:20.000,64.221,-76.062,26005.509814
2 Jan 2020 13:45:50.000,66.026,-75.983,26101.929675
2 Jan 2020 13:45:50.510,66.056,-75.982,26103.609173
2 Jan 2020 15:04:39.461,290.535,-75.989,26109.427640
2 Jan 2020 15:05:09.000,290.877,-76.159,25907.005624
2 Jan 2020 15:05:39.000,291.228,-76.348,25703.912760
2 Jan 2020 15:06:09.000,291.582,-76.553,25503.572213
2 Jan 2020 15:06:39.000,291.943,-76.774,25306.236369
2 Jan 2020 15:07:09.000,292.310,-77.012,25112.160480
2 Jan 2020 15:07:39.000,292.686,-77.266,24921.602280
2 Jan 2020 15:08:09.000,293.071,-77.537,24734.821545
2 Jan 2020 15:08:39.000,293.469,-77.824,24552.079623
2 Jan 2020 15:09:09.000,293.881,-78.128,24373.638608
2 Jan 2020 15:09:39.000,294.310,-78.448,24199.761937
2 Jan 2020 15:10:09.000,294.759,-78.785,24030.711987
2 Jan 2020 15:10:39.000,295.232,-79.138,23866.750583
2 Jan 2020 15:11:09.000,295.732,-79.507,23708.137966
2 Jan 2020 15:11:39.000,296.264,-79.892,23555.132011
2 Jan 2020 15:12:09.000,296.836,-80.292,23407.987142
2 Jan 2020 15:12:39.000,297.453,-80.707,23266.954494
2 Jan 2020 15:13:09.000,298.126,-81.136,23132.279432
2 Jan 2020 15:13:39.000,298.865,-81.579,23004.201657
2 Jan 2020 15:14:09.000,299.685,-82.035,22882.953961
2 Jan 2020 15:14:39.000,300.604,-82.503,22768.761032
2 Jan 2020 15:15:09.000,301.645,-82.982,22661.839248
2 Jan 2020 15:15:39.000,302.840,-83.471,22562.394424
2 Jan 2020 15:16:09.000,304.231,-83.969,22470.621638
2 Jan 2020 15:16:39.000,305.875,-84.474,22386.703889
2 Jan 2020 15:17:09.000,307.855,-84.983,22310.811659
2 Jan 2020 15:17:39.000,310.289,-85.495,22243.101170
2 Jan 2020 15:18:09.000,313.351,-86.004,22183.714051
2 Jan 2020 15:18:39.000,317.311,-86.507,22132.776309
2 Jan 2020 15:19:09.000,322.589,-86.994,22090.397900
2 Jan 2020 15:19:39.000,329.845,-87.450,22056.671560
2 Jan 2020 15:20:09.000,340.054,-87.853,22031.672586
2 Jan 2020 15:20:39.000,354.317,-88.163,22015.458267
2 Jan 2020 15:21:09.000,12.718,-88.323,22008.067598
2 Jan 2020 15:21:39.000,32.546,-88.290,22009.520894
2 Jan 2020 15:22:09.000,49.709,-88.074,22019.819778
2 Jan 2020 15:22:39.000,62.515,-87.727,22038.947186
2 Jan 2020 15:23:09.000,71.597,-87.302,22066.867304
2 Jan 2020 15:23:39.000,78.074,-86.832,22103.526048
2 Jan 2020 15:24:09.000,82.817,-86.338,22148.851260
2 Jan 2020 15:24:39.000,86.395,-85.831,22202.753306
2 Jan 2020 15:25:09.000,89.169,-85.319,22265.125211
2 Jan 2020 15:25:39.000,91.373,-84.806,22335.843925
2 Jan 2020 15:26:09.000,93.159,-84.296,22414.770666
2 Jan 2020 15:26:39.000,94.633,-83.792,22501.751983
2 Jan 2020 15:27:09.000,95.865,-83.295,22596.619998
2 Jan 2020 15:27:39.000,96.910,-82.807,22699.194255
2 Jan 2020 15:28:09.000,97.804,-82.329,22809.282081
2 Jan 2020 15:28:39.000,98.575,-81.863,22926.679719
2 Jan 2020 15:29:09.000,99.246,-81.410,23051.173591
2 Jan 2020 15:29:39.000,99.833,-80.969,23182.540318
2 Jan 2020 15:30:09.000,100.349,-80.543,23320.549193
2 Jan 2020 15:30:39.000,100.804,-80.131,23464.962216
2 Jan 2020 15:31:09.000,101.207,-79.734,23615.535306
2 Jan 2020 15:31:39.000,101.565,-79.352,23772.019506
2 Jan 2020 15:32:09.000,101.882,-78.987,23934.160866
2 Jan 2020 15:32:39.000,102.164,-78.638,24101.702844
2 Jan 2020 15:33:09.000,102.415,-78.305,24274.386127
2 Jan 2020 15:33:39.000,102.637,-77.989,24451.949662
2 Jan 2020 15:34:09.000,102.834,-77.689,24634.131388
2 Jan 2020 15:34:39.000,103.007,-77.406,24820.668918
2 Jan 2020 15:35:09.000,103.159,-77.140,25011.300496
2 Jan 2020 15:35:39.000,103.291,-76.891,25205.764293
2 Jan 2020 15:36:09.000,103.405,-76.659,25403.800851
2 Jan 2020 15:36:39.000,103.502,-76.443,25605.152296
2 Jan 2020 15:37:09.000,103.583,-76.244,25809.563087
2 Jan 2020 15:37:39.000,103.648,-76.061,26016.780405
2 Jan 2020 15:37:52.374,103.673,-75.985,26109.993178
2 Jan 2020 16:54:11.328,257.923,-75.993,26116.749196
2 Jan 2020 16:54:41.000,256.456,-76.110,25975.054860
2 Jan 2020 16:55:11.000,254.924,-76.233,25836.149815
2 Jan 2020 16:55:41.000,253.338,-76.361,25701.804474
2 Jan 2020 16:56:11.000,251.698,-76.491,25572.194114
2 Jan 2020 16:56:41.000,250.002,-76.625,25447.489413
2 Jan 2020 16:57:11.000,248.248,-76.761,25327.855923
2 Jan 2020 16:57:41.000,246.434,-76.897,25213.453327
2 Jan 2020 16:58:11.000,244.560,-77.034,25104.435803
2 Jan 2020 16:58:41.000,242.623,-77.170,25000.950132
2 Jan 2020 16:59:11.000,240.623,-77.305,24903.136090
2 Jan 2020 16:59:41.000,238.560,-77.437,24811.125701
2 Jan 2020 17:00:11.000,236.434,-77.565,24725.042731
2 Jan 2020 17:00:41.000,234.246,-77.689,24645.002021
2 Jan 2020 17:01:11.000,231.996,-77.807,24571.109759
2 Jan 2020 17:01:41.000,229.686,-77.919,24503.461919
2 Jan 2020 17:02:11.000,227.319,-78.023,24442.144607
2 Jan 2020 17:02:41.000,224.898,-78.119,24387.233501
2 Jan 2020 17:03:11.000,222.427,-78.205,24338.793397
2 Jan 2020 17:03:41.000,219.909,-78.282,24296.878378
2 Jan 2020 17:04:11.000,217.352,-78.347,24261.530858
2 Jan 2020 17:04:41.000,214.760,-78.401,24232.781866
2 Jan 2020 17:05:11.000,212.139,-78.443,24210.650769
2 Jan 2020 17:05:41.000,209.498,-78.473,24195.145121
2 Jan 2020 17:06:11.000,206.842,-78.490,24186.260863
2 Jan 2020 17:06:41.000,204.180,-78.494,24183.981952
2 Jan 2020 17:07:11.000,201.518,-78.486,24188.280691
2 Jan 2020 17:07:41.000,198.865,-78.465,24199.117783
2 Jan 2020 17:08:11.000,196.228,-78.431,24216.442502
2 Jan 2020 17:08:41.000,193.612,-78.386,24240.192931
2 Jan 2020 17:09:11.000,191.025,-78.330,24270.296197
2 Jan 2020 17:09:41.000,188.473,-78.262,24306.668825
2 Jan 2020 17:10:11.000,185.959,-78.185,24349.217091
2 Jan 2020 17:10:41.000,183.490,-78.098,24397.837466
2 Jan 2020 17:11:11.000,181.067,-78.004,24452.416868
2 Jan 2020 17:11:41.000,178.695,-77.901,24512.833393
2 Jan 2020 17:12:11.000,176.375,-77.792,24578.956640
2 Jan 2020 17:12:41.000,174.109,-77.678,24650.648264
2 Jan 2020 17:13:11.000,171.899,-77.558,24727.762508
2 Jan 2020 17:13:41.000,169.743,-77.435,24810.146859
2 Jan 2020 17:14:11.000,167.642,-77.309,24897.642163
2 Jan 2020 17:14:41.000,165.597,-77.182,24990.083824
2 Jan 2020 17:15:11.000,163.605,-77.053,25087.301943
2 Jan 2020 17:15:41.000,161.665,-76.924,25189.121976
2 Jan 2020 17:16:11.000,159.777,-76.795,25295.365279
2 Jan 2020 17:16:41.000,157.938,-76.668,25405.849644
2 Jan 2020 17:17:11.000,156.146,-76.542,25520.389986
2 Jan 2020 17:17:41.000,154.400,-76.419,25638.798221
2 Jan 2020 17:18:11.000,152.698,-76.299,25760.884688
2 Jan 2020 17:18:41.000,151.037,-76.183,25886.458012
2 Jan 2020 17:19:11.000,149.415,-76.071,26015.325703
2 Jan 2020 17:19:34.092,148.193,-75.988,26116.641216
2 Jan 2020 21:33:51.178,57.608,-75.992,26117.479167
2 Jan 2020 21:34:21.000,56.701,-76.147,25931.622878
2 Jan 2020 21:34:51.000,55.764,-76.317,25747.164017
2 Jan 2020 21:35:21.000,54.798,-76.499,25565.451771
2 Jan 2020 21:35:51.000,53.800,-76.694,25386.724595
2 Jan 2020 21:36:21.000,52.766,-76.901,25211.223132
2 Jan 2020 21:36:51.000,51.693,-77.121,25039.189813
2 Jan 2020 21:37:21.000,50.575,-77.352,24870.868419
2 Jan 2020 21:37:51.000,49.407,-77.596,24706.503597
2 Jan 2020 21:38:21.000,48.185,-77.851,24546.340092
2 Jan 2020 21:38:51.000,46.901,-78.116,24390.623169
2 Jan 2020 21:39:21.000,45.548,-78.392,24239.596507
2 Jan 2020 21:39:51.000,44.119,-78.678,24093.502556
2 Jan 2020 21:40:21.000,42.606,-78.972,23952.581585
2 Jan 2020 21:40:51.000,40.997,-79.274,23817.070956
2 Jan 2020 21:41:21.000,39.283,-79.583,23687.204154
2 Jan 2020 21:41:51.000,37.451,-79.897,23563.210803
2 Jan 2020 21:42:21.000,35.488,-80.215,23445.314594
2 Jan 2020 21:42:51.000,33.378,-80.536,23333.733274
2 Jan 2020 21:43:21.000,31.106,-80.856,23228.677566
2 Jan 2020 21:43:51.000,28.653,-81.175,23130.350132
2 Jan 2020 21:44:21.000,26.002,-81.490,23038.945301
2 Jan 2020 21:44:51.000,23.132,-81.797,22954.647258
2 Jan 2020 21:45:21.000,20.026,-82.094,22877.629807
2 Jan 2020 21:45:51.000,16.666,-82.378,22808.055366
2 Jan 2020 21:46:21.000,13.037,-82.644,22746.074054
2 Jan 2020 21:46:51.000,9.130,-82.888,22691.823303
2 Jan 2020 21:47:21.000,4.944,-83.106,22645.426534
2 Jan 2020 21:47:51.000,0.489,-83.294,22606.992898
2 Jan 2020 21:48:21.000,355.788,-83.448,22576.616550
2 Jan 2020 21:48:51.000,350.879,-83.564,22554.376228
2 Jan 2020 21:49:21.000,345.815,-83.638,22540.334628
2 Jan 2020 21:49:51.000,340.662,-83.669,22534.538181
2 Jan 2020 21:50:21.000,335.494,-83.656,22537.016787
2 Jan 2020 21:50:51.000,330.387,-83.599,22547.783535
2 Jan 2020 21:51:21.000,325.410,-83.499,22566.834785
2 Jan 2020 21:51:51.000,320.624,-83.359,22594.150114
2 Jan 2020 21:52:21.000,316.075,-83.183,22629.692559
2 Jan 2020 21:52:51.000,311.794,-82.974,22673.408497
2 Jan 2020 21:53:21.000,307.796,-82.737,22725.228466
2 Jan 2020 21:53:51.000,304.085,-82.476,22785.067259
2 Jan 2020 21:54:21.000,300.656,-82.195,22852.824633
2 Jan 2020 21:54:51.000,297.497,-81.898,22928.385335
2 Jan 2020 21:55:21.000,294.591,-81.589,23011.620538
2 Jan 2020 21:55:51.000,291.922,-81.271,23102.388016
2 Jan 2020 21:56:21.000,289.468,-80.948,23200.533028
2 Jan 2020 21:56:51.000,287.212,-80.621,23305.889328
2 Jan 2020 21:57:21.000,285.136,-80.293,23418.279088
2 Jan 2020 21:57:51.000,283.222,-79.967,23537.515077
2 Jan 2020 21:58:21.000,281.456,-79.644,23663.400651
2 Jan 2020 21:58:51.000,279.822,-79.326,23795.730826
2 Jan 2020 21:59:21.000,278.308,-79.014,23934.293397
2 Jan 2020 21:59:51.000,276.904,-78.710,24078.868795
2 Jan 2020 22:00:21.000,275.598,-78.414,24229.232409
2 Jan 2020 22:00:51.000,274.381,-78.129,24385.154422
2 Jan 2020 22:01:21.000,273.246,-77.853,24546.400847
2 Jan 2020 22:01:51.000,272.184,-77.589,24712.734281
2 Jan 2020 22:02:21.000,271.190,-77.337,24883.914925
2 Jan 2020 22:02:51.000,270.258,-77.097,25059.700112
2 Jan 2020 22:03:21.000,269.382,-76.869,25239.846683
2 Jan 2020 22:03:51.000,268.558,-76.655,25424.110449
2 Jan 2020 22:04:21.000,267.782,-76.454,25612.247039
2 Jan 2020 22:04:51.000,267.050,-76.266,25804.012434
2 Jan 2020 22:05:21.000,266.359,-76.093,25999.163438
2 Jan 2020 22:05:38.886,265.965,-75.995,26117.020809
2 Jan 2020 23:20:40.568,90.406,-75.988,26110.283906
2 Jan 2020 23:21:10.000,91.320,-76.140,25928.248968
2 Jan 2020 23:21:40.000,92.298,-76.307,25746.226858
2 Jan 2020 23:22:10.000,93.326,-76.485,25567.994479
2 Jan 2020 23:22:40.000,94.407,-76.674,25393.782411
2 Jan 2020 23:23:10.000,95.546,-76.873,25223.820549
2 Jan 2020 23:23:40.000,96.747,-77.082,25058.337571
2 Jan 2020 23:24:10.000,98.014,-77.301,24897.560366
2 Jan 2020 23:24:40.000,99.354,-77.528,24741.713136
2 Jan 2020 23:25:10.000,100.771,-77.762,24591.017960
2 Jan 2020 23:25:40.000,102.271,-78.004,24445.692319
2 Jan 2020 23:26:10.000,103.862,-78.252,24305.949616
2 Jan 2020 23:26:40.000,105.549,-78.505,24171.998156
2 Jan 2020 23:27:10.000,107.341,-78.761,24044.040414
2 Jan 2020 23:27:40.000,109.244,-79.019,23922.272021
2 Jan 2020 23:28:10.000,111.267,-79.278,23806.882041
2 Jan 2020 23:28:40.000,113.418,-79.536,23698.050637
2 Jan 2020 23:29:10.000,115.703,-79.791,23595.949363
2 Jan 2020 23:29:40.000,118.131,-80.041,23500.740143
2 Jan 2020 23:30:10.000,120.709,-80.284,23412.574347
2 Jan 2020 23:30:40.000,123.441,-80.518,23331.592827
2 Jan 2020 23:31:10.000,126.332,-80.740,23257.924087
2 Jan 2020 23:31:40.000,129.384,-80.948,23191.684417
2 Jan 2020 23:32:10.000,132.594,-81.140,23132.976982
2 Jan 2020 23:32:40.000,135.958,-81.313,23081.891740
2 Jan 2020 23:33:10.000,139.467,-81.464,23038.504246
2 Jan 2020 23:33:40.000,143.106,-81.591,23002.875724
2 Jan 2020 23:34:10.000,146.858,-81.693,22975.052529
2 Jan 2020 23:34:40.000,150.700,-81.767,22955.066157
2 Jan 2020 23:35:10.000,154.603,-81.812,22942.932625
2 Jan 2020 23:35:40.000,158.540,-81.829,22938.652673
2 Jan 2020 23:36:10.000,162.478,-81.815,22942.211651
2 Jan 2020 23:36:40.000,166.388,-81.773,22953.579657
2 Jan 2020 23:37:10.000,170.238,-81.702,22972.711573
2 Jan 2020 23:37:40.000,174.004,-81.604,22999.547393
2 Jan 2020 23:38:10.000,177.663,-81.481,23034.012551
2 Jan 2020 23:38:40.000,181.197,-81.334,23076.018177
2 Jan 2020 23:39:10.000,184.592,-81.167,23125.461750
2 Jan 2020 23:39:40.000,187.841,-80.981,23182.227516
2 Jan 2020 23:40:10.000,190.938,-80.778,23246.187097
2 Jan 2020 23:40:40.000,193.883,-80.563,23317.200249
2 Jan 2020 23:41:10.000,196.678,-80.336,23395.115097
2 Jan 2020 23:41:40.000,199.326,-80.100,23479.769506
2 Jan 2020 23:42:10.000,201.834,-79.858,23570.991407
2 Jan 2020 23:42:40.000,204.208,-79.611,23668.599669
2 Jan 2020 23:43:10.000,206.457,-79.361,23772.405037
2 Jan 2020 23:43:40.000,208.587,-79.110,23882.210305
2 Jan 2020 23:44:10.000,210.607,-78.860,23997.812011
2 Jan 2020 23:44:40.000,212.525,-78.612,24119.000620
2 Jan 2020 23:45:10.000,214.348,-78.367,24245.561442
2 Jan 2020 23:45:40.000,216.084,-78.127,24377.275375
2 Jan 2020 23:46:10.000,217.740,-77.892,24513.919846
2 Jan 2020 23:46:40.000,219.321,-77.664,24655.268681
2 Jan 2020 23:47:10.000,220.835,-77.443,24801.094003
2 Jan 2020 23:47:40.000,222.287,-77.230,24951.166063
2 Jan 2020 23:48:10.000,223.681,-77.025,25105.254043
2 Jan 2020 23:48:40.000,225.024,-76.829,25263.126625
2 Jan 2020 23:49:10.000,226.320,-76.643,25424.552522
2 Jan 2020 23:49:40.000,227.571,-76.467,25589.300976
2 Jan 2020 23:50:10.000,228.784,-76.301,25757.142215
2 Jan 2020 23:50:40.000,229.960,-76.145,25927.848138
2 Jan 2020 23:51:10.000,231.104,-75.999,26101.191653
2 Jan 2020 23:51:11.515,231.161,-75.992,26110.010999
3 Jan 2020 04:04:24.945,318.347,-75.986,26105.375133
3 Jan 2020 04:04:54.000,319.702,-76.108,25957.592390
3 Jan 2020 04:05:24.000,321.138,-76.242,25807.814920
3 Jan 2020 04:05:54.000,322.615,-76.383,25661.100639
3 Jan 2020 04:06:24.000,324.134,-76.530,25517.660590
3 Jan 2020 04:06:54.000,325.699,-76.684,25377.705986
3 Jan 2020 04:07:24.000,327.314,-76.843,25241.447768
3 Jan 2020 04:07:54.000,328.982,-77.007,25109.096129
3 Jan 2020 04:08:24.000,330.706,-77.176,24980.860016
3 Jan 2020 04:08:54.000,332.490,-77.348,24856.946424
3 Jan 2020 04:09:24.000,334.337,-77.523,24737.560565
3 Jan 2020 04:09:54.000,336.252,-77.700,24622.904192
3 Jan 2020 04:10:24.000,338.236,-77.878,24513.175736
3 Jan 2020 04:10:54.000,340.295,-78.056,24408.569508
3 Jan 2020 04:11:24.000,342.430,-78.233,24309.275056
3 Jan 2020 04:11:54.000,344.645,-78.407,24215.476397
3 Jan 2020 04:12:24.000,346.941,-78.578,24127.351865
3 Jan 2020 04:12:54.000,349.321,-78.744,24045.072682
3 Jan 2020 04:13:24.000,351.785,-78.903,23968.802823
3 Jan 2020 04:13:54.000,354.333,-79.055,23898.698229
3 Jan 2020 04:14:24.000,356.964,-79.197,23834.906101
3 Jan 2020 04:14:54.000,359.675,-79.329,23777.564563
3 Jan 2020 04:15:24.000,2.462,-79.449,23726.801618
3 Jan 2020 04:15:54.000,5.321,-79.555,23682.734887
3 Jan 2020 04:16:24.000,8.245,-79.647,23645.470996
3 Jan 2020 04:16:54.000,11.224,-79.723,23615.105070
3 Jan 2020 04:17:24.000,14.250,-79.783,23591.720355
3 Jan 2020 04:17:54.000,17.311,-79.825,23575.387701
3 Jan 2020 04:18:24.000,20.395,-79.848,23566.165315
3 Jan 2020 04:18:54.000,23.489,-79.854,23564.098457
3 Jan 2020 04:19:24.000,26.580,-79.840,23569.219276
3 Jan 2020 04:19:54.000,29.655,-79.808,23581.546463
3 Jan 2020 04:20:24.000,32.700,-79.758,23601.085437
3 Jan 2020 04:20:54.000,35.704,-79.691,23627.828163
3 Jan 2020 04:21:24.000,38.654,-79.606,23661.753242
3 Jan 2020 04:21:54.000,41.541,-79.506,23702.826148
3 Jan 2020 04:22:24.000,44.358,-79.390,23750.998952
3 Jan 2020 04:22:54.000,47.095,-79.262,23806.211239
3 Jan 2020 04:23:24.000,49.749,-79.121,23868.389981
3 Jan 2020 04:23:54.000,52.315,-78.969,23937.450006
3 Jan 2020 04:24:24.000,54.790,-78.808,24013.294585
3 Jan 2020 04:24:54.000,57.173,-78.639,24095.815214
3 Jan 2020 04:25:24.000,59.464,-78.464,24184.893117
3 Jan 2020 04:25:54.000,61.664,-78.284,24280.399127
3 Jan 2020 04:26:24.000,63.774,-78.100,24382.194418
3 Jan 2020 04:26:54.000,65.796,-77.915,24490.131303
3 Jan 2020 04:27:24.000,67.733,-77.728,24604.053028
3 Jan 2020 04:27:54.000,69.587,-77.542,24723.795605
3 Jan 2020 04:28:24.000,71.362,-77.357,24849.187651
3 Jan 2020 04:28:54.000,73.061,-77.175,24980.051213
3 Jan 2020 04:29:24.000,74.688,-76.996,25116.202402
3 Jan 2020 04:29:54.000,76.247,-76.821,25257.452278
3 Jan 2020 04:30:24.000,77.739,-76.652,25403.606429
3 Jan 2020 04:30:54.000,79.170,-76.489,25554.467111
3 Jan 2020 04:31:24.000,80.542,-76.332,25709.832807
3 Jan 2020 04:31:54.000,81.858,-76.183,25869.499046
3 Jan 2020 04:32:24.000,83.122,-76.042,26033.258936
3 Jan 2020 04:32:37.034,83.655,-75.983,26105.630111
3 Jan 2020 05:48:05.376,279.287,-75.991,26112.052386
3 Jan 2020 05:48:35.000,278.954,-76.161,25908.981833
3 Jan 2020 05:49:05.000,278.592,-76.350,25706.220138
3 Jan 2020 05:49:35.000,278.200,-76.554,25506.611653
3 Jan 2020 05:50:05.000,277.778,-76.774,25310.408309
3 Jan 2020 05:50:35.000,277.322,-77.009,25117.863897
3 Jan 2020 05:51:05.000,276.830,-77.260,24929.233624
3 Jan 2020 05:51:35.000,276.297,-77.527,24744.773613
3 Jan 2020 05:52:05.000,275.720,-77.809,24564.740371
3 Jan 2020 05:52:35.000,275.094,-78.106,24389.389860
3 Jan 2020 05:53:05.000,274.414,-78.418,24218.978206
3 Jan 2020 05:53:35.000,273.674,-78.744,24053.758992
3 Jan 2020 05:54:05.000,272.866,-79.085,23893.983885
3 Jan 2020 05:54:35.000,271.982,-79.438,23739.901524
3 Jan 2020 05:55:05.000,271.011,-79.805,23591.756699
3 Jan 2020 05:55:35.000,269.943,-80.183,23449.789221
3 Jan 2020 05:56:05.000,268.762,-80.573,23314.234161
3 Jan 2020 05:56:35.000,267.452,-80.972,23185.319223
3 Jan 2020 05:57:05.000,265.993,-81.380,23063.264956
3 Jan 2020 05:57:35.000,264.361,-81.795,22948.283508
3 Jan 2020 05:58:05.000,262.524,-82.215,22840.577452
3 Jan 2020 05:58:35.000,260.448,-82.638,22740.339688
3 Jan 2020 05:59:05.000,258.089,-83.061,22647.751177
3 Jan 2020 05:59:35.000,255.394,-83.482,22562.980907
3 Jan 2020 06:00:05.000,252.298,-83.896,22486.184632
3 Jan 2020 06:00:35.000,248.728,-84.298,22417.504580
3 Jan 2020 06:01:05.000,244.596,-84.683,22357.067791
3 Jan 2020 06:01:35.000,239.810,-85.044,22304.985973
3 Jan 2020 06:02:05.000,234.282,-85.371,22261.354604
3 Jan 2020 06:02:35.000,227.947,-85.654,22226.252705
3 Jan 2020 06:03:05.000,220.797,-85.883,22199.741807
3 Jan 2020 06:03:35.000,212.918,-86.045,22181.865945
3 Jan 2020 06:04:05.000,204.517,-86.132,22172.651258
3 Jan 2020 06:04:35.000,195.912,-86.137,22172.105922
3 Jan 2020 06:05:05.000,187.466,-86.060,22180.219908
3 Jan 2020 06:05:35.000,179.507,-85.907,22196.965176
3 Jan 2020 06:06:05.000,172.254,-85.686,22222.295847
3 Jan 2020 06:06:35.000,165.805,-85.410,22256.148328
3 Jan 2020 06:07:05.000,160.158,-85.090,22298.441897
3 Jan 2020 06:07:35.000,155.255,-84.735,22349.079073
3 Jan 2020 06:08:05.000,151.006,-84.355,22407.946312
3 Jan 2020 06:08:35.000,147.320,-83.958,22474.914294
3 Jan 2020 06:09:05.000,144.110,-83.548,22549.839210
3 Jan 2020 06:09:35.000,141.299,-83.132,22632.563212
3 Jan 2020 06:10:05.000,138.823,-82.713,22722.915498
3 Jan 2020 06:10:35.000,136.626,-82.294,22820.712664
3 Jan 2020 06:11:05.000,134.665,-81.877,22925.760452
3 Jan 2020 06:11:35.000,132.903,-81.466,23037.854179
3 Jan 2020 06:12:05.000,131.309,-81.062,23156.779842
3 Jan 2020 06:12:35.000,129.858,-80.666,23282.315307
3 Jan 2020 06:13:05.000,128.529,-80.280,23414.230415
3 Jan 2020 06:13:35.000,127.306,-79.904,23552.289213
3 Jan 2020 06:14:05.000,126.173,-79.541,23696.250049
3 Jan 2020 06:14:35.000,125.119,-79.189,23845.866675
3 Jan 2020 06:15:05.000,124.133,-78.851,24000.889120
3 Jan 2020 06:15:35.000,123.206,-78.526,24161.064790
3 Jan 2020 06:16:05.000,122.332,-78.216,24326.138179
3 Jan 2020 06:16:35.000,121.502,-77.920,24495.853211
3 Jan 2020 06:17:05.000,120.713,-77.638,24669.952881
3 Jan 2020 06:17:35.000,119.958,-77.371,24848.180161
3 Jan 2020 06:18:05.000,119.234,-77.120,25030.278598
3 Jan 2020 06:18:35.000,118.537,-76.883,25215.992870
3 Jan 2020 06:19:05.000,117.863,-76.661,25405.069281
3 Jan 2020 06:19:35.000,117.211,-76.455,25597.256222
3 Jan 2020 06:20:05.000,116.576,-76.264,25792.304896
3 Jan 2020 06:20:35.000,115.957,-76.087,25989.968429
3 Jan 2020 06:20:53.428,115.583,-75.986,26112.579898
3 Jan 2020 07:43:35.624,230.443,-75.993,26118.832428
3 Jan 2020 07:44:05.000,228.498,-76.027,26075.886106
3 Jan 2020 07:44:35.000,226.494,-76.059,26037.030706
3 Jan 2020 07:45:05.000,224.474,-76.087,26003.258352
3 Jan 2020 07:45:35.000,222.440,-76.112,25974.588001
3 Jan 2020 07:46:05.000,220.394,-76.132,25951.030372
3 Jan 2020 07:46:35.000,218.338,-76.148,25932.587910
3 Jan 2020 07:47:05.000,216.274,-76.160,25919.254713
