STKdata/stk_70fov_4leo/Satellite-MEO_Satellite10101-To-Satellite-LEO_Satellite10000 AER.csv

"Time (UTCG)","Azimuth (deg)","Elevation (deg)","Range (km)"
1 Jan 2020 00:21:00.656,259.611,-75.993,26116.563085
1 Jan 2020 00:21:30.000,258.225,-76.115,25969.843417
1 Jan 2020 00:22:00.000,256.756,-76.244,25824.074632
1 Jan 2020 00:22:30.000,255.234,-76.379,25682.768820
1 Jan 2020 00:23:00.000,253.656,-76.519,25546.110785
1 Jan 2020 00:23:30.000,252.020,-76.662,25414.281257
1 Jan 2020 00:24:00.000,250.324,-76.808,25287.456365
1 Jan 2020 00:24:30.000,248.565,-76.956,25165.806854
1 Jan 2020 00:25:00.000,246.742,-77.106,25049.498465
1 Jan 2020 00:25:30.000,244.853,-77.255,24938.689968
1 Jan 2020 00:26:00.000,242.896,-77.404,24833.533551
1 Jan 2020 00:26:30.000,240.870,-77.551,24734.174027
1 Jan 2020 00:27:00.000,238.774,-77.696,24640.748288
1 Jan 2020 00:27:30.000,236.609,-77.836,24553.384575
1 Jan 2020 00:28:00.000,234.374,-77.972,24472.202755
1 Jan 2020 00:28:30.000,232.071,-78.101,24397.312624
1 Jan 2020 00:29:00.000,229.701,-78.224,24328.814250
1 Jan 2020 00:29:30.000,227.267,-78.338,24266.797332
1 Jan 2020 00:30:00.000,224.772,-78.442,24211.340679
1 Jan 2020 00:30:30.000,222.220,-78.536,24162.512356
1 Jan 2020 00:31:00.000,219.616,-78.620,24120.368589
1 Jan 2020 00:31:30.000,216.967,-78.691,24084.954034
1 Jan 2020 00:32:00.000,214.278,-78.749,24056.301420
1 Jan 2020 00:32:30.000,211.558,-78.794,24034.431320
1 Jan 2020 00:33:00.000,208.814,-78.825,24019.352337
1 Jan 2020 00:33:30.000,206.055,-78.842,24011.060600
1 Jan 2020 00:34:00.000,203.290,-78.845,24009.540087
1 Jan 2020 00:34:30.000,200.526,-78.834,24014.762612
1 Jan 2020 00:35:00.000,197.773,-78.809,24026.687941
1 Jan 2020 00:35:30.000,195.040,-78.771,24045.264023
1 Jan 2020 00:36:00.000,192.333,-78.719,24070.427132
1 Jan 2020 00:36:30.000,189.660,-78.655,24102.102228
1 Jan 2020 00:37:00.000,187.027,-78.579,24140.203274
1 Jan 2020 00:37:30.000,184.441,-78.492,24184.633660
1 Jan 2020 00:38:00.000,181.905,-78.395,24235.286456
1 Jan 2020 00:38:30.000,179.423,-78.289,24292.045111
1 Jan 2020 00:39:00.000,176.999,-78.174,24354.783799
1 Jan 2020 00:39:30.000,174.635,-78.053,24423.367967
1 Jan 2020 00:40:00.000,172.332,-77.926,24497.654881
1 Jan 2020 00:40:30.000,170.091,-77.794,24577.494300
1 Jan 2020 00:41:00.000,167.911,-77.658,24662.728599
1 Jan 2020 00:41:30.000,165.793,-77.520,24753.194009
1 Jan 2020 00:42:00.000,163.735,-77.379,24848.720773
1 Jan 2020 00:42:30.000,161.736,-77.237,24949.133836
1 Jan 2020 00:43:00.000,159.795,-77.096,25054.253424
1 Jan 2020 00:43:30.000,157.909,-76.955,25163.895615
1 Jan 2020 00:44:00.000,156.076,-76.816,25277.873071
1 Jan 2020 00:44:30.000,154.295,-76.678,25395.994916
1 Jan 2020 00:45:00.000,152.562,-76.544,25518.068253
1 Jan 2020 00:45:30.000,150.876,-76.414,25643.898024
1 Jan 2020 00:46:00.000,149.233,-76.287,25773.287663
1 Jan 2020 00:46:30.000,147.633,-76.166,25906.039558
1 Jan 2020 00:47:00.000,146.071,-76.049,26041.955498
1 Jan 2020 00:47:16.171,145.245,-75.988,26116.459851
1 Jan 2020 05:01:10.560,55.897,-75.992,26117.628753
1 Jan 2020 05:01:40.000,54.937,-76.142,25937.543794
1 Jan 2020 05:02:10.000,53.932,-76.308,25756.544903
1 Jan 2020 05:02:40.000,52.897,-76.486,25578.311656
1 Jan 2020 05:03:10.000,51.827,-76.675,25403.079830
1 Jan 2020 05:03:40.000,50.718,-76.877,25231.087215
1 Jan 2020 05:04:10.000,49.568,-77.090,25062.573205
1 Jan 2020 05:04:40.000,48.370,-77.314,24897.778361
1 Jan 2020 05:05:10.000,47.120,-77.550,24736.943921
1 Jan 2020 05:05:40.000,45.813,-77.795,24580.311045
1 Jan 2020 05:06:10.000,44.442,-78.051,24428.121198
1 Jan 2020 05:06:40.000,43.000,-78.316,24280.614102
1 Jan 2020 05:07:10.000,41.480,-78.589,24138.028060
1 Jan 2020 05:07:40.000,39.873,-78.870,24000.599025
1 Jan 2020 05:08:10.000,38.170,-79.157,23868.559874
1 Jan 2020 05:08:40.000,36.360,-79.450,23742.139464
1 Jan 2020 05:09:10.000,34.434,-79.747,23621.562627
1 Jan 2020 05:09:40.000,32.377,-80.047,23507.048167
1 Jan 2020 05:10:10.000,30.179,-80.347,23398.808828
1 Jan 2020 05:10:40.000,27.824,-80.646,23297.050246
1 Jan 2020 05:11:10.000,25.299,-80.942,23201.969951
1 Jan 2020 05:11:40.000,22.588,-81.231,23113.757076
1 Jan 2020 05:12:10.000,19.677,-81.513,23032.590633
1 Jan 2020 05:12:40.000,16.554,-81.783,22958.639269
1 Jan 2020 05:13:10.000,13.208,-82.038,22892.060301
1 Jan 2020 05:13:40.000,9.631,-82.275,22832.998844
1 Jan 2020 05:14:10.000,5.822,-82.490,22781.587425
1 Jan 2020 05:14:40.000,1.788,-82.680,22737.944736
1 Jan 2020 05:15:10.000,357.541,-82.841,22702.175385
1 Jan 2020 05:15:40.000,353.108,-82.970,22674.369209
1 Jan 2020 05:16:10.000,348.523,-83.063,22654.600865
1 Jan 2020 05:16:40.000,343.832,-83.119,22642.929264
1 Jan 2020 05:17:10.000,339.088,-83.136,22639.397361
1 Jan 2020 05:17:40.000,334.348,-83.114,22644.031916
1 Jan 2020 05:18:10.000,329.669,-83.053,22656.843220
1 Jan 2020 05:18:40.000,325.105,-82.954,22677.825225
1 Jan 2020 05:19:10.000,320.699,-82.820,22706.955480
1 Jan 2020 05:19:40.000,316.489,-82.654,22744.195398
1 Jan 2020 05:20:10.000,312.497,-82.458,22789.490124
1 Jan 2020 05:20:40.000,308.740,-82.236,22842.769381
1 Jan 2020 05:21:10.000,305.223,-81.993,22903.947548
1 Jan 2020 05:21:40.000,301.944,-81.731,22972.924365
1 Jan 2020 05:22:10.000,298.896,-81.455,23049.584948
1 Jan 2020 05:22:40.000,296.069,-81.166,23133.801214
1 Jan 2020 05:23:10.000,293.449,-80.869,23225.432043
1 Jan 2020 05:23:40.000,291.023,-80.566,23324.324133
1 Jan 2020 05:24:10.000,288.775,-80.260,23430.312994
1 Jan 2020 05:24:40.000,286.692,-79.952,23543.222851
1 Jan 2020 05:25:10.000,284.760,-79.646,23662.868793
1 Jan 2020 05:25:40.000,282.965,-79.342,23789.056732
1 Jan 2020 05:26:10.000,281.296,-79.042,23921.584462
1 Jan 2020 05:26:40.000,279.742,-78.749,24060.242737
1 Jan 2020 05:27:10.000,278.292,-78.462,24204.815117
1 Jan 2020 05:27:40.000,276.938,-78.183,24355.080245
1 Jan 2020 05:28:10.000,275.672,-77.913,24510.811671
1 Jan 2020 05:28:40.000,274.485,-77.653,24671.778856
1 Jan 2020 05:29:10.000,273.371,-77.403,24837.747907
1 Jan 2020 05:29:40.000,272.324,-77.165,25008.482281
1 Jan 2020 05:30:10.000,271.339,-76.938,25183.743782
1 Jan 2020 05:30:40.000,270.410,-76.724,25363.291872
1 Jan 2020 05:31:10.000,269.533,-76.522,25546.886228
1 Jan 2020 05:31:40.000,268.704,-76.333,25734.285990
1 Jan 2020 05:32:10.000,267.920,-76.157,25925.250593
1 Jan 2020 05:32:39.657,267.186,-75.996,26117.297713
1 Jan 2020 06:47:39.281,89.137,-75.987,26110.490143
1 Jan 2020 06:48:09.000,89.988,-76.145,25923.090568
1 Jan 2020 06:48:39.000,90.891,-76.315,25737.369871
1 Jan 2020 06:49:09.000,91.843,-76.498,25555.349799
1 Jan 2020 06:49:39.000,92.845,-76.692,25377.265077
1 Jan 2020 06:50:09.000,93.904,-76.898,25203.350152
1 Jan 2020 06:50:39.000,95.023,-77.114,25033.838661
1 Jan 2020 06:51:09.000,96.207,-77.341,24868.962874
1 Jan 2020 06:51:39.000,97.462,-77.577,24708.952794
1 Jan 2020 06:52:09.000,98.793,-77.823,24554.036729
1 Jan 2020 06:52:39.000,100.207,-78.076,24404.438803
1 Jan 2020 06:53:09.000,101.710,-78.336,24260.379485
1 Jan 2020 06:53:39.000,103.311,-78.603,24122.074549
1 Jan 2020 06:54:09.000,105.017,-78.874,23989.734330
1 Jan 2020 06:54:39.000,106.837,-79.149,23863.562694
1 Jan 2020 06:55:09.000,108.780,-79.426,23743.757305
1 Jan 2020 06:55:39.000,110.856,-79.703,23630.507239
1 Jan 2020 06:56:09.000,113.075,-79.979,23523.993261
1 Jan 2020 06:56:39.000,115.446,-80.251,23424.386768
1 Jan 2020 06:57:09.000,117.979,-80.517,23331.848814
1 Jan 2020 06:57:39.000,120.683,-80.776,23246.530133
1 Jan 2020 06:58:09.000,123.565,-81.023,23168.569219
1 Jan 2020 06:58:39.000,126.630,-81.257,23098.092434
1 Jan 2020 06:59:09.000,129.882,-81.475,23035.213035
1 Jan 2020 06:59:39.000,133.317,-81.674,22980.031057
1 Jan 2020 07:00:09.000,136.930,-81.851,22932.632027
1 Jan 2020 07:00:39.000,140.709,-82.003,22893.086998
1 Jan 2020 07:01:09.000,144.635,-82.128,22861.451947
1 Jan 2020 07:01:39.000,148.685,-82.224,22837.767743
1 Jan 2020 07:02:09.000,152.826,-82.288,22822.059448
1 Jan 2020 07:02:39.000,157.024,-82.320,22814.336481
1 Jan 2020 07:03:09.000,161.241,-82.319,22814.592451
1 Jan 2020 07:03:39.000,165.438,-82.286,22822.805262
1 Jan 2020 07:04:09.000,169.576,-82.220,22838.937085
1 Jan 2020 07:04:39.000,173.623,-82.123,22862.934667
1 Jan 2020 07:05:09.000,177.548,-81.998,22894.729623
1 Jan 2020 07:05:39.000,181.328,-81.847,22934.238677
1 Jan 2020 07:06:09.000,184.947,-81.671,22981.364279
1 Jan 2020 07:06:39.000,188.394,-81.474,23035.995023
1 Jan 2020 07:07:09.000,191.664,-81.260,23098.006247
1 Jan 2020 07:07:39.000,194.756,-81.030,23167.260789
1 Jan 2020 07:08:09.000,197.674,-80.787,23243.609228
1 Jan 2020 07:08:39.000,200.423,-80.535,23326.891263
1 Jan 2020 07:09:09.000,203.012,-80.275,23416.936059
1 Jan 2020 07:09:39.000,205.449,-80.009,23513.563134
1 Jan 2020 07:10:09.000,207.744,-79.741,23616.583325
1 Jan 2020 07:10:39.000,209.907,-79.472,23725.798972
1 Jan 2020 07:11:09.000,211.948,-79.203,23841.005666
1 Jan 2020 07:11:39.000,213.877,-78.936,23961.992446
1 Jan 2020 07:12:09.000,215.702,-78.673,24088.542756
1 Jan 2020 07:12:39.000,217.433,-78.415,24220.435223
1 Jan 2020 07:13:09.000,219.076,-78.163,24357.444634
1 Jan 2020 07:13:39.000,220.641,-77.917,24499.341814
1 Jan 2020 07:14:09.000,222.134,-77.679,24645.895607
1 Jan 2020 07:14:39.000,223.560,-77.449,24796.872704
1 Jan 2020 07:15:09.000,224.927,-77.229,24952.038489
1 Jan 2020 07:15:39.000,226.239,-77.018,25111.157639
1 Jan 2020 07:16:09.000,227.502,-76.817,25273.994688
1 Jan 2020 07:16:39.000,228.719,-76.626,25440.314546
1 Jan 2020 07:17:09.000,229.895,-76.446,25609.882987
1 Jan 2020 07:17:39.000,231.035,-76.277,25782.467377
1 Jan 2020 07:18:09.000,232.141,-76.119,25957.835961
1 Jan 2020 07:18:34.720,233.064,-75.992,26110.227973
1 Jan 2020 11:31:59.178,320.849,-75.986,26105.266073
1 Jan 2020 11:32:29.000,322.296,-76.107,25959.065093
1 Jan 2020 11:32:59.000,323.789,-76.236,25814.909541
1 Jan 2020 11:33:29.000,325.322,-76.370,25673.888577
1 Jan 2020 11:33:59.000,326.898,-76.511,25536.208612
1 Jan 2020 11:34:29.000,328.521,-76.656,25402.075868
1 Jan 2020 11:34:59.000,330.193,-76.807,25271.695924
1 Jan 2020 11:35:29.000,331.917,-76.961,25145.273245
1 Jan 2020 11:35:59.000,333.695,-77.119,25023.010678
1 Jan 2020 11:36:29.000,335.533,-77.280,24905.108757
1 Jan 2020 11:36:59.000,337.431,-77.442,24791.765841
1 Jan 2020 11:37:29.000,339.393,-77.606,24683.176500
1 Jan 2020 11:37:59.000,341.423,-77.769,24579.531628
1 Jan 2020 11:38:29.000,343.521,-77.932,24481.017663
1 Jan 2020 11:38:59.000,345.691,-78.092,24387.815968
1 Jan 2020 11:39:29.000,347.934,-78.249,24300.102098
1 Jan 2020 11:39:59.000,350.250,-78.402,24218.045615
1 Jan 2020 11:40:29.000,352.642,-78.549,24141.808774
1 Jan 2020 11:40:59.000,355.108,-78.689,24071.546361
1 Jan 2020 11:41:29.000,357.646,-78.821,24007.404962
1 Jan 2020 11:41:59.000,0.256,-78.944,23949.522306
1 Jan 2020 11:42:29.000,2.933,-79.056,23898.026920
1 Jan 2020 11:42:59.000,5.673,-79.156,23853.037209
1 Jan 2020 11:43:29.000,8.470,-79.243,23814.661184
1 Jan 2020 11:43:59.000,11.318,-79.316,23782.995921
1 Jan 2020 11:44:29.000,14.207,-79.374,23758.127106
1 Jan 2020 11:44:59.000,17.129,-79.416,23740.128671
1 Jan 2020 11:45:29.000,20.073,-79.443,23729.062387
1 Jan 2020 11:45:59.000,23.029,-79.452,23724.977631
1 Jan 2020 11:46:29.000,25.986,-79.445,23727.911131
1 Jan 2020 11:46:59.000,28.932,-79.421,23737.886865
1 Jan 2020 11:47:29.000,31.856,-79.381,23754.915715
1 Jan 2020 11:47:59.000,34.748,-79.324,23778.995755
1 Jan 2020 11:48:29.000,37.597,-79.252,23810.112063
1 Jan 2020 11:48:59.000,40.395,-79.166,23848.236855
1 Jan 2020 11:49:29.000,43.133,-79.065,23893.329751
1 Jan 2020 11:49:59.000,45.805,-78.952,23945.337509
1 Jan 2020 11:50:29.000,48.406,-78.827,24004.194984
1 Jan 2020 11:50:59.000,50.930,-78.691,24069.824996
1 Jan 2020 11:51:29.000,53.375,-78.547,24142.138810
1 Jan 2020 11:51:59.000,55.739,-78.395,24221.036728
1 Jan 2020 11:52:29.000,58.020,-78.236,24306.407863
1 Jan 2020 11:52:59.000,60.219,-78.072,24398.131642
1 Jan 2020 11:53:29.000,62.336,-77.904,24496.077670
1 Jan 2020 11:53:59.000,64.372,-77.734,24600.106450
1 Jan 2020 11:54:29.000,66.329,-77.562,24710.069950
1 Jan 2020 11:54:59.000,68.209,-77.390,24825.812443
1 Jan 2020 11:55:29.000,70.015,-77.219,24947.170122
1 Jan 2020 11:55:59.000,71.748,-77.050,25073.973163
1 Jan 2020 11:56:29.000,73.413,-76.883,25206.045368
1 Jan 2020 11:56:59.000,75.011,-76.720,25343.204999
1 Jan 2020 11:57:29.000,76.547,-76.562,25485.265377
1 Jan 2020 11:57:59.000,78.022,-76.409,25632.035458
1 Jan 2020 11:58:29.000,79.440,-76.262,25783.320692
1 Jan 2020 11:58:59.000,80.804,-76.121,25938.922420
1 Jan 2020 11:59:29.000,82.116,-75.988,26098.640119
1 Jan 2020 11:59:30.249,82.169,-75.983,26105.378070
1 Jan 2020 13:15:09.822,280.485,-75.991,26111.835370
1 Jan 2020 13:15:39.000,280.232,-76.160,25910.676479
1 Jan 2020 13:16:09.000,279.949,-76.349,25706.651953
1 Jan 2020 13:16:39.000,279.641,-76.555,25505.713684
1 Jan 2020 13:17:09.000,279.306,-76.776,25308.114675
1 Jan 2020 13:17:39.000,278.942,-77.014,25114.110013
1 Jan 2020 13:18:09.000,278.545,-77.267,24923.956423
1 Jan 2020 13:18:39.000,278.113,-77.537,24737.911790
1 Jan 2020 13:19:09.000,277.643,-77.823,24556.234625
1 Jan 2020 13:19:39.000,277.131,-78.124,24379.183161
1 Jan 2020 13:20:09.000,276.571,-78.441,24207.016045
1 Jan 2020 13:20:39.000,275.959,-78.773,24039.989666
1 Jan 2020 13:21:09.000,275.287,-79.119,23878.358771
1 Jan 2020 13:21:39.000,274.549,-79.480,23722.375356
1 Jan 2020 13:22:09.000,273.735,-79.855,23572.287851
1 Jan 2020 13:22:39.000,272.834,-80.243,23428.339989
1 Jan 2020 13:23:09.000,271.834,-80.643,23290.771037
1 Jan 2020 13:23:39.000,270.719,-81.054,23159.813165
1 Jan 2020 13:24:09.000,269.471,-81.476,23035.691648
1 Jan 2020 13:24:39.000,268.064,-81.907,22918.623611
1 Jan 2020 13:25:09.000,266.471,-82.345,22808.816829
1 Jan 2020 13:25:39.000,264.656,-82.789,22706.469629
1 Jan 2020 13:26:09.000,262.573,-83.235,22611.768581
1 Jan 2020 13:26:39.000,260.165,-83.683,22524.888451
1 Jan 2020 13:27:09.000,257.361,-84.127,22445.990909
1 Jan 2020 13:27:39.000,254.071,-84.564,22375.224208
1 Jan 2020 13:28:09.000,250.183,-84.988,22312.721489
1 Jan 2020 13:28:39.000,245.562,-85.392,22258.600596
1 Jan 2020 13:29:09.000,240.058,-85.766,22212.963145
1 Jan 2020 13:29:39.000,233.518,-86.100,22175.894267
1 Jan 2020 13:30:09.000,225.837,-86.379,22147.461525
1 Jan 2020 13:30:39.000,217.029,-86.588,22127.714874
1 Jan 2020 13:31:09.000,207.312,-86.710,22116.686224
1 Jan 2020 13:31:39.000,197.142,-86.736,22114.389339
1 Jan 2020 13:32:09.000,187.119,-86.663,22120.819558
1 Jan 2020 13:32:39.000,177.792,-86.498,22135.953953
1 Jan 2020 13:33:09.000,169.502,-86.255,22159.751477
1 Jan 2020 13:33:39.000,162.360,-85.948,22192.153063
1 Jan 2020 13:34:09.000,156.308,-85.595,22233.082183
1 Jan 2020 13:34:39.000,151.212,-85.207,22282.445197
1 Jan 2020 13:35:09.000,146.916,-84.794,22340.132044
1 Jan 2020 13:35:39.000,143.277,-84.366,22406.016506
1 Jan 2020 13:36:09.000,140.169,-83.928,22479.957495
1 Jan 2020 13:36:39.000,137.493,-83.485,22561.799498
1 Jan 2020 13:37:09.000,135.169,-83.041,22651.373671
1 Jan 2020 13:37:39.000,133.131,-82.599,22748.498176
1 Jan 2020 13:38:09.000,131.330,-82.162,22852.979960
1 Jan 2020 13:38:39.000,129.724,-81.731,22964.615180
1 Jan 2020 13:39:09.000,128.281,-81.308,23083.190326
1 Jan 2020 13:39:39.000,126.975,-80.895,23208.483434
1 Jan 2020 13:40:09.000,125.785,-80.492,23340.264180
1 Jan 2020 13:40:39.000,124.693,-80.102,23478.296172
1 Jan 2020 13:41:09.000,123.686,-79.724,23622.337036
1 Jan 2020 13:41:39.000,122.750,-79.359,23772.139548
1 Jan 2020 13:42:09.000,121.877,-79.008,23927.452528
1 Jan 2020 13:42:39.000,121.057,-78.671,24088.021971
1 Jan 2020 13:43:09.000,120.284,-78.349,24253.590744
1 Jan 2020 13:43:39.000,119.551,-78.042,24423.900996
1 Jan 2020 13:44:09.000,118.854,-77.750,24598.693788
1 Jan 2020 13:44:39.000,118.188,-77.474,24777.710029
1 Jan 2020 13:45:09.000,117.548,-77.213,24960.691087
1 Jan 2020 13:45:39.000,116.932,-76.968,25147.379363
1 Jan 2020 13:46:09.000,116.336,-76.738,25337.518806
1 Jan 2020 13:46:39.000,115.758,-76.524,25530.855383
1 Jan 2020 13:47:09.000,115.195,-76.325,25727.137831
1 Jan 2020 13:47:39.000,114.646,-76.142,25926.116736
1 Jan 2020 13:48:06.743,114.147,-75.986,26112.314838
1 Jan 2020 15:09:18.476,236.399,-75.993,26118.751133
1 Jan 2020 15:09:48.000,234.490,-76.043,26057.209385
1 Jan 2020 15:10:18.000,232.525,-76.091,25999.684771
1 Jan 2020 15:10:48.000,230.536,-76.136,25947.266082
1 Jan 2020 15:11:18.000,228.524,-76.177,25900.002717
1 Jan 2020 15:11:48.000,226.491,-76.215,25857.935901
1 Jan 2020 15:12:18.000,224.439,-76.249,25821.098537
1 Jan 2020 15:12:48.000,222.371,-76.278,25789.514993
1 Jan 2020 15:13:18.000,220.289,-76.303,25763.201396
1 Jan 2020 15:13:48.000,218.195,-76.323,25742.164983
1 Jan 2020 15:14:18.000,216.091,-76.338,25726.404474
1 Jan 2020 15:14:48.000,213.980,-76.348,25715.909978
1 Jan 2020 15:15:18.000,211.866,-76.353,25710.663025
1 Jan 2020 15:15:48.000,209.750,-76.353,25710.636599
1 Jan 2020 15:16:18.000,207.634,-76.348,25715.795393
1 Jan 2020 15:16:48.000,205.522,-76.338,25726.095691
1 Jan 2020 15:17:18.000,203.416,-76.323,25741.485704
1 Jan 2020 15:17:48.000,201.319,-76.303,25761.905709
1 Jan 2020 15:18:18.000,199.232,-76.279,25787.288264
1 Jan 2020 15:18:48.000,197.157,-76.251,25817.558462
1 Jan 2020 15:19:18.000,195.097,-76.218,25852.634145
1 Jan 2020 15:19:48.000,193.054,-76.182,25892.426248
1 Jan 2020 15:20:18.000,191.028,-76.143,25936.839069
1 Jan 2020 15:20:48.000,189.022,-76.100,25985.770594
1 Jan 2020 15:21:18.000,187.036,-76.055,26039.112833
1 Jan 2020 15:21:48.000,185.072,-76.008,26096.752159
1 Jan 2020 15:21:58.761,184.372,-75.991,26118.451728
1 Jan 2020 18:06:04.068,11.368,-75.995,26121.075894
1 Jan 2020 18:06:34.000,9.526,-76.069,26031.342006
1 Jan 2020 18:07:04.000,7.649,-76.143,25945.185839
1 Jan 2020 18:07:34.000,5.740,-76.216,25862.967810
1 Jan 2020 18:08:04.000,3.800,-76.288,25784.837394
1 Jan 2020 18:08:34.000,1.829,-76.359,25710.940073
1 Jan 2020 18:09:04.000,359.826,-76.429,25641.416914
1 Jan 2020 18:09:34.000,357.794,-76.495,25576.404141
1 Jan 2020 18:10:04.000,355.731,-76.559,25516.032653
1 Jan 2020 18:10:34.000,353.640,-76.620,25460.427844
1 Jan 2020 18:11:04.000,351.522,-76.676,25409.708814
1 Jan 2020 18:11:34.000,349.378,-76.728,25363.988227
1 Jan 2020 18:12:04.000,347.211,-76.775,25323.371850
1 Jan 2020 18:12:34.000,345.023,-76.817,25287.958181
1 Jan 2020 18:13:04.000,342.816,-76.853,25257.838090
1 Jan 2020 18:13:34.000,340.592,-76.883,25233.094513
1 Jan 2020 18:14:04.000,338.356,-76.907,25213.802082
1 Jan 2020 18:14:34.000,336.110,-76.924,25200.026896
1 Jan 2020 18:15:04.000,333.857,-76.934,25191.826251
1 Jan 2020 18:15:34.000,331.601,-76.937,25189.248417
1 Jan 2020 18:16:04.000,329.346,-76.934,25192.332506
1 Jan 2020 18:16:34.000,327.094,-76.923,25201.108124
1 Jan 2020 18:17:04.000,324.851,-76.905,25215.595530
1 Jan 2020 18:17:34.000,322.618,-76.880,25235.805387
1 Jan 2020 18:18:04.000,320.400,-76.849,25261.738762
1 Jan 2020 18:18:34.000,318.201,-76.811,25293.387123
1 Jan 2020 18:19:04.000,316.022,-76.768,25330.732488
1 Jan 2020 18:19:34.000,313.867,-76.718,25373.747069
1 Jan 2020 18:20:04.000,311.739,-76.663,25422.394017
1 Jan 2020 18:20:34.000,309.641,-76.603,25476.627152
1 Jan 2020 18:21:04.000,307.574,-76.539,25536.391252
1 Jan 2020 18:21:34.000,305.540,-76.471,25601.622262
1 Jan 2020 18:22:04.000,303.541,-76.399,25672.247696
1 Jan 2020 18:22:34.000,301.578,-76.325,25748.186290
1 Jan 2020 18:23:04.000,299.652,-76.248,25829.349216
1 Jan 2020 18:23:34.000,297.765,-76.170,25915.639797
1 Jan 2020 18:24:04.000,295.916,-76.091,26006.953998
1 Jan 2020 18:24:34.000,294.107,-76.012,26103.180780
1 Jan 2020 18:24:39.432,293.783,-75.997,26121.121071
1 Jan 2020 19:43:27.295,69.512,-75.990,26115.250347
1 Jan 2020 19:43:57.000,69.171,-76.161,25911.672205
1 Jan 2020 19:44:27.000,68.823,-76.350,25708.564941
1 Jan 2020 19:44:57.000,68.471,-76.556,25508.212252
1 Jan 2020 19:45:27.000,68.114,-76.777,25310.866624
1 Jan 2020 19:45:57.000,67.750,-77.015,25116.783420
1 Jan 2020 19:46:27.000,67.377,-77.270,24926.220500
1 Jan 2020 19:46:57.000,66.995,-77.541,24739.437786
1 Jan 2020 19:47:27.000,66.601,-77.828,24556.696780
1 Jan 2020 19:47:57.000,66.193,-78.133,24378.259750
1 Jan 2020 19:48:27.000,65.768,-78.453,24204.390318
1 Jan 2020 19:48:57.000,65.323,-78.791,24035.351058
1 Jan 2020 19:49:27.000,64.855,-79.144,23871.404000
1 Jan 2020 19:49:57.000,64.360,-79.513,23712.809602
1 Jan 2020 19:50:27.000,63.833,-79.898,23559.825961
1 Jan 2020 19:50:57.000,63.267,-80.299,23412.707732
1 Jan 2020 19:51:27.000,62.656,-80.714,23271.706282
1 Jan 2020 19:51:57.000,61.990,-81.144,23137.067209
1 Jan 2020 19:52:27.000,61.258,-81.587,23009.030446
1 Jan 2020 19:52:57.000,60.446,-82.043,22887.829015
1 Jan 2020 19:53:27.000,59.537,-82.512,22773.687827
1 Jan 2020 19:53:57.000,58.506,-82.991,22666.823476
1 Jan 2020 19:54:27.000,57.322,-83.481,22567.441979
1 Jan 2020 19:54:57.000,55.944,-83.980,22475.738604
1 Jan 2020 19:55:27.000,54.314,-84.485,22391.896523
1 Jan 2020 19:55:57.000,52.350,-84.995,22316.086372
1 Jan 2020 19:56:27.000,49.935,-85.508,22248.464504
1 Jan 2020 19:56:57.000,46.891,-86.019,22189.172659
1 Jan 2020 19:57:27.000,42.950,-86.523,22138.336921
1 Jan 2020 19:57:57.000,37.686,-87.011,22096.067304
1 Jan 2020 19:58:27.000,30.428,-87.469,22062.456563
1 Jan 2020 19:58:57.000,20.175,-87.874,22037.579990
1 Jan 2020 19:59:27.000,5.779,-88.185,22021.494832
1 Jan 2020 19:59:57.000,347.136,-88.345,22014.240008
1 Jan 2020 20:00:27.000,327.065,-88.309,22015.835726
1 Jan 2020 20:00:57.000,309.792,-88.089,22026.283464
1 Jan 2020 20:01:27.000,296.991,-87.738,22045.565981
1 Jan 2020 20:01:57.000,287.959,-87.309,22073.647250
1 Jan 2020 20:02:27.000,281.538,-86.837,22110.472941
1 Jan 2020 20:02:57.000,276.845,-86.342,22155.970620
1 Jan 2020 20:03:27.000,273.309,-85.833,22210.050346
1 Jan 2020 20:03:57.000,270.569,-85.320,22272.604803
1 Jan 2020 20:04:27.000,268.394,-84.806,22343.510579
1 Jan 2020 20:04:57.000,266.632,-84.296,22422.628499
1 Jan 2020 20:05:27.000,265.178,-83.791,22509.804699
1 Jan 2020 20:05:57.000,263.963,-83.294,22604.870865
1 Jan 2020 20:06:27.000,262.933,-82.806,22707.646089
1 Jan 2020 20:06:57.000,262.052,-82.328,22817.937223
1 Jan 2020 20:07:27.000,261.292,-81.862,22935.540030
1 Jan 2020 20:07:57.000,260.631,-81.408,23060.240433
1 Jan 2020 20:08:27.000,260.053,-80.967,23191.814547
1 Jan 2020 20:08:57.000,259.545,-80.541,23330.031152
1 Jan 2020 20:09:27.000,259.097,-80.129,23474.651731
1 Jan 2020 20:09:57.000,258.701,-79.733,23625.431680
1 Jan 2020 20:10:27.000,258.350,-79.351,23782.121523
1 Jan 2020 20:10:57.000,258.038,-78.986,23944.466786
1 Jan 2020 20:11:27.000,257.761,-78.637,24112.210411
1 Jan 2020 20:11:57.000,257.515,-78.305,24285.092571
1 Jan 2020 20:12:27.000,257.297,-77.989,24462.851706
1 Jan 2020 20:12:57.000,257.104,-77.689,24645.225253
1 Jan 2020 20:13:27.000,256.935,-77.407,24831.950335
1 Jan 2020 20:13:57.000,256.787,-77.141,25022.764713
1 Jan 2020 20:14:27.000,256.658,-76.893,25217.406087
1 Jan 2020 20:14:57.000,256.548,-76.661,25415.614540
1 Jan 2020 20:15:27.000,256.454,-76.445,25617.131750
1 Jan 2020 20:15:57.000,256.377,-76.247,25821.701745
1 Jan 2020 20:16:27.000,256.314,-76.064,26029.071286
1 Jan 2020 20:16:39.284,256.292,-75.994,26114.728867
1 Jan 2020 21:33:00.125,102.149,-75.986,26107.938542
1 Jan 2020 21:33:30.000,103.628,-76.104,25965.573393
1 Jan 2020 21:34:00.000,105.163,-76.228,25826.990971
1 Jan 2020 21:34:30.000,106.751,-76.355,25692.973317
1 Jan 2020 21:35:00.000,108.394,-76.486,25563.695387
1 Jan 2020 21:35:30.000,110.092,-76.619,25439.327525
1 Jan 2020 21:36:00.000,111.849,-76.755,25320.034945
1 Jan 2020 21:36:30.000,113.665,-76.891,25205.976973
1 Jan 2020 21:37:00.000,115.542,-77.028,25097.307426
1 Jan 2020 21:37:30.000,117.481,-77.164,24994.172710
1 Jan 2020 21:38:00.000,119.483,-77.298,24896.712216
1 Jan 2020 21:38:30.000,121.548,-77.429,24805.057573
1 Jan 2020 21:39:00.000,123.676,-77.557,24719.332140
1 Jan 2020 21:39:30.000,125.866,-77.681,24639.650343
1 Jan 2020 21:40:00.000,128.117,-77.799,24566.117943
1 Jan 2020 21:40:30.000,130.428,-77.910,24498.830479
1 Jan 2020 21:41:00.000,132.795,-78.014,24437.873616
1 Jan 2020 21:41:30.000,135.217,-78.109,24383.322579
1 Jan 2020 21:42:00.000,137.689,-78.195,24335.241708
1 Jan 2020 21:42:30.000,140.205,-78.270,24293.684622
1 Jan 2020 21:43:00.000,142.762,-78.335,24258.693269
1 Jan 2020 21:43:30.000,145.354,-78.389,24230.298206
1 Jan 2020 21:44:00.000,147.973,-78.430,24208.518328
1 Jan 2020 21:44:30.000,150.612,-78.459,24193.360716
1 Jan 2020 21:45:00.000,153.266,-78.476,24184.820838
1 Jan 2020 21:45:30.000,155.926,-78.480,24182.882178
1 Jan 2020 21:46:00.000,158.585,-78.471,24187.516573
1 Jan 2020 21:46:30.000,161.235,-78.450,24198.684263
1 Jan 2020 21:47:00.000,163.869,-78.416,24216.334063
1 Jan 2020 21:47:30.000,166.482,-78.371,24240.403607
1 Jan 2020 21:48:00.000,169.065,-78.314,24270.819580
1 Jan 2020 21:48:30.000,171.615,-78.246,24307.498074
1 Jan 2020 21:49:00.000,174.124,-78.169,24350.344942
1 Jan 2020 21:49:30.000,176.591,-78.083,24399.256246
1 Jan 2020 21:50:00.000,179.010,-77.988,24454.118503
1 Jan 2020 21:50:30.000,181.379,-77.885,24514.809424
1 Jan 2020 21:51:00.000,183.696,-77.777,24581.198236
1 Jan 2020 21:51:30.000,185.959,-77.662,24653.146236
1 Jan 2020 21:52:00.000,188.167,-77.543,24730.507321
1 Jan 2020 21:52:30.000,190.320,-77.421,24813.128652
1 Jan 2020 21:53:00.000,192.418,-77.295,24900.850755
1 Jan 2020 21:53:30.000,194.462,-77.168,24993.508738
1 Jan 2020 21:54:00.000,196.452,-77.039,25090.932417
1 Jan 2020 21:54:30.000,198.390,-76.911,25192.946978
1 Jan 2020 21:55:00.000,200.277,-76.783,25299.373520
1 Jan 2020 21:55:30.000,202.115,-76.656,25410.029598
1 Jan 2020 21:56:00.000,203.905,-76.531,25524.729897
1 Jan 2020 21:56:30.000,205.650,-76.409,25643.286122
1 Jan 2020 21:57:00.000,207.352,-76.289,25765.508416
1 Jan 2020 21:57:30.000,209.013,-76.174,25891.205216
1 Jan 2020 21:58:00.000,210.634,-76.063,26020.183862
1 Jan 2020 21:58:20.040,211.696,-75.991,26108.076037
2 Jan 2020 02:12:35.234,302.244,-75.988,26107.331061
2 Jan 2020 02:13:05.000,303.142,-76.143,25921.517399
2 Jan 2020 02:13:35.000,304.073,-76.313,25736.738617
2 Jan 2020 02:14:05.000,305.033,-76.495,25554.703591
2 Jan 2020 02:14:35.000,306.024,-76.690,25375.650913
2 Jan 2020 02:15:05.000,307.051,-76.898,25199.821360
2 Jan 2020 02:15:35.000,308.117,-77.118,25027.457499
2 Jan 2020 02:16:05.000,309.228,-77.350,24858.803251
2 Jan 2020 02:16:35.000,310.388,-77.594,24694.103404
2 Jan 2020 02:17:05.000,311.602,-77.850,24533.602852
2 Jan 2020 02:17:35.000,312.877,-78.116,24377.547012
2 Jan 2020 02:18:05.000,314.221,-78.393,24226.179722
2 Jan 2020 02:18:35.000,315.640,-78.679,24079.743597
2 Jan 2020 02:19:05.000,317.144,-78.975,23938.479082
2 Jan 2020 02:19:35.000,318.743,-79.278,23802.623722
2 Jan 2020 02:20:05.000,320.447,-79.588,23672.411190
2 Jan 2020 02:20:35.000,322.269,-79.904,23548.071317
2 Jan 2020 02:21:05.000,324.222,-80.223,23429.828005
2 Jan 2020 02:21:35.000,326.321,-80.545,23317.899225
2 Jan 2020 02:22:05.000,328.583,-80.868,23212.495933
2 Jan 2020 02:22:35.000,331.026,-81.189,23113.821038
2 Jan 2020 02:23:05.000,333.668,-81.506,23022.069125
2 Jan 2020 02:23:35.000,336.530,-81.816,22937.424646
2 Jan 2020 02:24:05.000,339.630,-82.115,22860.061685
2 Jan 2020 02:24:35.000,342.987,-82.401,22790.142943
2 Jan 2020 02:25:05.000,346.615,-82.670,22727.818836
2 Jan 2020 02:25:35.000,350.526,-82.917,22673.227102
2 Jan 2020 02:26:05.000,354.720,-83.138,22626.491469
2 Jan 2020 02:26:35.000,359.190,-83.329,22587.721407
2 Jan 2020 02:27:05.000,3.911,-83.486,22557.011389
2 Jan 2020 02:27:35.000,8.847,-83.604,22534.440480
2 Jan 2020 02:28:05.000,13.944,-83.681,22520.071698
2 Jan 2020 02:28:35.000,19.134,-83.714,22513.951800
2 Jan 2020 02:29:05.000,24.342,-83.702,22516.111010
2 Jan 2020 02:29:35.000,29.491,-83.646,22526.562739
2 Jan 2020 02:30:05.000,34.508,-83.546,22545.303663
2 Jan 2020 02:30:35.000,39.332,-83.406,22572.313674
2 Jan 2020 02:31:05.000,43.916,-83.230,22607.556111
2 Jan 2020 02:31:35.000,48.227,-83.020,22650.977652
2 Jan 2020 02:32:05.000,52.251,-82.782,22702.509125
2 Jan 2020 02:32:35.000,55.982,-82.519,22762.065605
2 Jan 2020 02:33:05.000,59.427,-82.237,22829.547119
2 Jan 2020 02:33:35.000,62.599,-81.938,22904.838678
2 Jan 2020 02:34:05.000,65.513,-81.627,22987.811706
2 Jan 2020 02:34:35.000,68.189,-81.307,23078.324221
2 Jan 2020 02:35:05.000,70.647,-80.982,23176.221712
2 Jan 2020 02:35:35.000,72.904,-80.653,23281.338155
2 Jan 2020 02:36:05.000,74.981,-80.323,23393.495933
2 Jan 2020 02:36:35.000,76.895,-79.995,23512.508023
2 Jan 2020 02:37:05.000,78.660,-79.670,23638.177970
2 Jan 2020 02:37:35.000,80.291,-79.350,23770.300977
2 Jan 2020 02:38:05.000,81.802,-79.037,23908.665019
2 Jan 2020 02:38:35.000,83.203,-78.731,24053.050697
2 Jan 2020 02:39:05.000,84.505,-78.434,24203.233564
2 Jan 2020 02:39:35.000,85.718,-78.146,24358.983963
2 Jan 2020 02:40:05.000,86.850,-77.869,24520.068059
2 Jan 2020 02:40:35.000,87.907,-77.603,24686.248596
2 Jan 2020 02:41:05.000,88.896,-77.349,24857.285919
2 Jan 2020 02:41:35.000,89.824,-77.108,25032.937502
2 Jan 2020 02:42:05.000,90.696,-76.879,25212.960319
2 Jan 2020 02:42:35.000,91.515,-76.663,25397.110312
2 Jan 2020 02:43:05.000,92.287,-76.460,25585.143241
2 Jan 2020 02:43:35.000,93.014,-76.271,25776.815210
2 Jan 2020 02:44:05.000,93.701,-76.096,25971.883145
2 Jan 2020 02:44:25.611,94.151,-75.984,26107.746976
2 Jan 2020 03:59:26.360,269.473,-75.992,26114.523421
2 Jan 2020 03:59:56.000,268.545,-76.145,25931.555179
2 Jan 2020 04:00:26.000,267.560,-76.311,25749.916485
2 Jan 2020 04:00:56.000,266.524,-76.489,25572.078135
2 Jan 2020 04:01:26.000,265.435,-76.677,25398.270225
2 Jan 2020 04:01:56.000,264.288,-76.875,25228.722102
2 Jan 2020 04:02:26.000,263.079,-77.084,25063.661833
2 Jan 2020 04:02:56.000,261.803,-77.301,24903.315632
2 Jan 2020 04:03:26.000,260.455,-77.527,24747.906961
2 Jan 2020 04:03:56.000,259.030,-77.761,24597.657100
2 Jan 2020 04:04:26.000,257.520,-78.001,24452.782662
2 Jan 2020 04:04:56.000,255.921,-78.248,24313.496125
2 Jan 2020 04:05:26.000,254.225,-78.499,24180.004812
2 Jan 2020 04:05:56.000,252.425,-78.753,24052.510154
2 Jan 2020 04:06:26.000,250.514,-79.009,23931.206694
2 Jan 2020 04:06:56.000,248.483,-79.266,23816.282354
2 Jan 2020 04:07:26.000,246.326,-79.522,23707.916111
2 Jan 2020 04:07:56.000,244.034,-79.775,23606.278299
2 Jan 2020 04:08:26.000,241.601,-80.022,23511.529585
2 Jan 2020 04:08:56.000,239.019,-80.263,23423.820061
2 Jan 2020 04:09:26.000,236.285,-80.494,23343.289275
2 Jan 2020 04:09:56.000,233.394,-80.714,23270.064423
2 Jan 2020 04:10:26.000,230.345,-80.920,23204.260480
2 Jan 2020 04:10:56.000,227.139,-81.108,23145.979300
2 Jan 2020 04:11:26.000,223.783,-81.278,23095.309541
2 Jan 2020 04:11:56.000,220.286,-81.427,23052.325486
2 Jan 2020 04:12:26.000,216.661,-81.551,23017.087109
2 Jan 2020 04:12:56.000,212.927,-81.651,22989.639560
2 Jan 2020 04:13:26.000,209.106,-81.723,22970.013168
2 Jan 2020 04:13:56.000,205.226,-81.766,22958.222844
2 Jan 2020 04:14:26.000,201.315,-81.781,22954.268279
2 Jan 2020 04:14:56.000,197.404,-81.766,22958.133846
2 Jan 2020 04:15:26.000,193.523,-81.723,22969.788735
2 Jan 2020 04:15:56.000,189.700,-81.651,22989.187001
2 Jan 2020 04:16:26.000,185.961,-81.553,23016.267897
2 Jan 2020 04:16:56.000,182.328,-81.430,23050.956202
2 Jan 2020 04:17:26.000,178.819,-81.284,23093.162481
2 Jan 2020 04:17:56.000,175.446,-81.117,23142.783743
2 Jan 2020 04:18:26.000,172.217,-80.932,23199.703854
2 Jan 2020 04:18:56.000,169.138,-80.731,23263.794155
2 Jan 2020 04:19:26.000,166.208,-80.517,23334.914208
2 Jan 2020 04:19:56.000,163.426,-80.292,23412.912044
2 Jan 2020 04:20:26.000,160.789,-80.057,23497.625519
2 Jan 2020 04:20:56.000,158.290,-79.817,23588.882642
2 Jan 2020 04:21:26.000,155.923,-79.571,23686.502447
2 Jan 2020 04:21:56.000,153.680,-79.323,23790.295922
2 Jan 2020 04:22:26.000,151.555,-79.074,23900.066183
2 Jan 2020 04:22:56.000,149.538,-78.826,24015.610157
2 Jan 2020 04:23:26.000,147.622,-78.580,24136.718770
2 Jan 2020 04:23:56.000,145.800,-78.337,24263.177848
2 Jan 2020 04:24:26.000,144.065,-78.098,24394.768866
2 Jan 2020 04:24:56.000,142.409,-77.865,24531.269875
2 Jan 2020 04:25:26.000,140.827,-77.639,24672.455375
2 Jan 2020 04:25:56.000,139.312,-77.419,24818.098200
2 Jan 2020 04:26:26.000,137.859,-77.208,24967.969349
2 Jan 2020 04:26:56.000,136.462,-77.004,25121.838779
2 Jan 2020 04:27:26.000,135.117,-76.810,25279.475975
2 Jan 2020 04:27:56.000,133.820,-76.625,25440.650474
2 Jan 2020 04:28:26.000,132.565,-76.450,25605.132357
2 Jan 2020 04:28:56.000,131.350,-76.285,25772.692703
2 Jan 2020 04:29:26.000,130.171,-76.130,25943.104269
2 Jan 2020 04:29:55.761,129.033,-75.987,26114.750362
2 Jan 2020 08:43:11.519,41.772,-75.993,26119.313949
2 Jan 2020 08:43:41.000,40.399,-76.118,25969.154698
2 Jan 2020 08:44:11.000,38.964,-76.252,25819.180873
2 Jan 2020 08:44:41.000,37.490,-76.393,25672.271571
2 Jan 2020 08:45:11.000,35.973,-76.541,25528.638187
2 Jan 2020 08:45:41.000,34.409,-76.695,25388.492307
2 Jan 2020 08:46:11.000,32.795,-76.855,25252.045257
2 Jan 2020 08:46:41.000,31.129,-77.020,25119.507638
2 Jan 2020 08:47:11.000,29.406,-77.189,24991.088819
2 Jan 2020 08:47:41.000,27.623,-77.362,24866.996230
2 Jan 2020 08:48:11.000,25.777,-77.538,24747.435534
2 Jan 2020 08:48:41.000,23.863,-77.716,24632.608942
2 Jan 2020 08:49:11.000,21.878,-77.895,24522.715353
2 Jan 2020 08:49:41.000,19.819,-78.073,24417.949551
2 Jan 2020 08:50:11.000,17.683,-78.251,24318.501561
2 Jan 2020 08:50:41.000,15.468,-78.426,24224.555878
2 Jan 2020 08:51:11.000,13.170,-78.598,24136.291311
2 Jan 2020 08:51:41.000,10.788,-78.764,24053.879552
2 Jan 2020 08:52:11.000,8.322,-78.925,23977.485038
2 Jan 2020 08:52:41.000,5.770,-79.077,23907.264161
2 Jan 2020 08:53:11.000,3.136,-79.220,23843.364555
2 Jan 2020 08:53:41.000,0.420,-79.353,23785.924762
2 Jan 2020 08:54:11.000,357.627,-79.473,23735.073181
2 Jan 2020 08:54:41.000,354.763,-79.581,23690.927803
2 Jan 2020 08:55:11.000,351.833,-79.673,23653.595598
2 Jan 2020 08:55:41.000,348.846,-79.750,23623.172003
2 Jan 2020 08:56:11.000,345.812,-79.810,23599.740542
2 Jan 2020 08:56:41.000,342.743,-79.852,23583.372307
2 Jan 2020 08:57:11.000,339.651,-79.876,23574.125711
2 Jan 2020 08:57:41.000,336.548,-79.882,23572.046177
2 Jan 2020 08:58:11.000,333.448,-79.868,23577.165974
2 Jan 2020 08:58:41.000,330.365,-79.836,23589.503870
2 Jan 2020 08:59:11.000,327.311,-79.786,23609.065317
2 Jan 2020 08:59:41.000,324.300,-79.718,23635.842266
2 Jan 2020 09:00:11.000,321.342,-79.633,23669.813259
2 Jan 2020 09:00:41.000,318.447,-79.533,23710.943663
2 Jan 2020 09:01:11.000,315.624,-79.417,23759.185398
2 Jan 2020 09:01:41.000,312.881,-79.288,23814.477852
2 Jan 2020 09:02:11.000,310.221,-79.146,23876.747758
2 Jan 2020 09:02:41.000,307.651,-78.994,23945.909660
2 Jan 2020 09:03:11.000,305.172,-78.832,24021.866507
2 Jan 2020 09:03:41.000,302.785,-78.663,24104.509431
2 Jan 2020 09:04:11.000,300.490,-78.487,24193.719258
2 Jan 2020 09:04:41.000,298.288,-78.306,24289.366387
2 Jan 2020 09:05:11.000,296.176,-78.122,24391.311527
2 Jan 2020 09:05:41.000,294.153,-77.936,24499.406498
2 Jan 2020 09:06:11.000,292.215,-77.749,24613.494026
2 Jan 2020 09:06:41.000,290.360,-77.562,24733.409580
2 Jan 2020 09:07:11.000,288.584,-77.376,24858.981214
2 Jan 2020 09:07:41.000,286.885,-77.193,24990.030394
2 Jan 2020 09:08:11.000,285.258,-77.014,25126.372638
2 Jan 2020 09:08:41.000,283.700,-76.839,25267.818399
2 Jan 2020 09:09:11.000,282.208,-76.669,25414.172652
2 Jan 2020 09:09:41.000,280.778,-76.506,25565.237030
2 Jan 2020 09:10:11.000,279.407,-76.349,25720.809395
2 Jan 2020 09:10:41.000,278.092,-76.199,25880.684650
2 Jan 2020 09:11:11.000,276.829,-76.057,26044.655283
2 Jan 2020 09:11:24.391,276.282,-75.996,26119.111889
2 Jan 2020 10:26:53.489,80.753,-75.989,26112.626922
2 Jan 2020 10:27:23.000,81.087,-76.159,25910.384742
2 Jan 2020 10:27:53.000,81.452,-76.347,25707.670968
2 Jan 2020 10:28:23.000,81.846,-76.552,25508.111484
2 Jan 2020 10:28:53.000,82.271,-76.771,25311.958216
2 Jan 2020 10:29:23.000,82.729,-77.007,25119.464966
2 Jan 2020 10:29:53.000,83.225,-77.258,24930.886966
2 Jan 2020 10:30:23.000,83.761,-77.525,24746.480378
2 Jan 2020 10:30:53.000,84.341,-77.807,24566.501759
2 Jan 2020 10:31:23.000,84.970,-78.104,24391.207137
2 Jan 2020 10:31:53.000,85.654,-78.416,24220.852713
2 Jan 2020 10:32:23.000,86.398,-78.742,24055.692159
2 Jan 2020 10:32:53.000,87.210,-79.082,23895.977241
2 Jan 2020 10:33:23.000,88.099,-79.436,23741.956702
2 Jan 2020 10:33:53.000,89.074,-79.802,23593.875449
2 Jan 2020 10:34:23.000,90.147,-80.181,23451.973416
2 Jan 2020 10:34:53.000,91.333,-80.570,23316.485799
2 Jan 2020 10:35:23.000,92.649,-80.969,23187.640435
2 Jan 2020 10:35:53.000,94.114,-81.376,23065.658003
2 Jan 2020 10:36:23.000,95.754,-81.791,22950.750786
2 Jan 2020 10:36:53.000,97.597,-82.210,22843.121485
2 Jan 2020 10:37:23.000,99.681,-82.633,22742.963129
2 Jan 2020 10:37:53.000,102.048,-83.056,22650.456800
2 Jan 2020 10:38:23.000,104.752,-83.476,22565.771600
2 Jan 2020 10:38:53.000,107.856,-83.889,22489.063387
2 Jan 2020 10:39:23.000,111.434,-84.290,22420.474479
2 Jan 2020 10:39:53.000,115.573,-84.674,22360.131999
2 Jan 2020 10:40:23.000,120.363,-85.033,22308.147717
2 Jan 2020 10:40:53.000,125.892,-85.359,22264.617158
2 Jan 2020 10:41:23.000,132.222,-85.641,22229.619373
2 Jan 2020 10:41:53.000,139.358,-85.868,22203.215900
2 Jan 2020 10:42:23.000,147.215,-86.029,22185.450764
2 Jan 2020 10:42:53.000,155.585,-86.115,22176.350070
2 Jan 2020 10:43:23.000,164.154,-86.119,22175.921937
2 Jan 2020 10:43:53.000,172.561,-86.042,22184.156257
2 Jan 2020 10:44:23.000,180.485,-85.889,22201.024888
2 Jan 2020 10:44:53.000,187.711,-85.669,22226.481823
2 Jan 2020 10:45:23.000,194.140,-85.393,22260.463318
2 Jan 2020 10:45:53.000,199.772,-85.073,22302.888480
2 Jan 2020 10:46:23.000,204.668,-84.719,22353.659630
2 Jan 2020 10:46:53.000,208.912,-84.340,22412.663007
2 Jan 2020 10:47:23.000,212.596,-83.944,22479.769053
2 Jan 2020 10:47:53.000,215.807,-83.535,22554.833699
2 Jan 2020 10:48:23.000,218.620,-83.119,22637.698818
2 Jan 2020 10:48:53.000,221.099,-82.701,22728.193316
2 Jan 2020 10:49:23.000,223.299,-82.282,22826.133474
2 Jan 2020 10:49:53.000,225.263,-81.867,22931.324710
2 Jan 2020 10:50:23.000,227.029,-81.456,23043.562003
2 Jan 2020 10:50:53.000,228.627,-81.053,23162.630996
2 Jan 2020 10:51:23.000,230.081,-80.657,23288.309198
2 Jan 2020 10:51:53.000,231.413,-80.272,23420.366077
2 Jan 2020 10:52:23.000,232.640,-79.897,23558.565306
2 Jan 2020 10:52:53.000,233.776,-79.534,23702.664850
2 Jan 2020 10:53:23.000,234.833,-79.183,23852.418075
2 Jan 2020 10:53:53.000,235.822,-78.845,24007.574623
2 Jan 2020 10:54:23.000,236.752,-78.521,24167.881510
2 Jan 2020 10:54:53.000,237.630,-78.211,24333.082839
2 Jan 2020 10:55:23.000,238.462,-77.915,24502.922149
2 Jan 2020 10:55:53.000,239.254,-77.634,24677.142046
2 Jan 2020 10:56:23.000,240.012,-77.368,24855.485122
2 Jan 2020 10:56:53.000,240.738,-77.117,25037.694547
2 Jan 2020 10:57:23.000,241.438,-76.881,25223.514627
2 Jan 2020 10:57:53.000,242.114,-76.660,25412.691302
2 Jan 2020 10:58:23.000,242.769,-76.454,25604.972607
2 Jan 2020 10:58:53.000,243.406,-76.263,25800.109395
2 Jan 2020 10:59:23.000,244.028,-76.087,25997.854453
2 Jan 2020 10:59:40.174,244.377,-75.993,26112.137855
2 Jan 2020 12:22:28.785,129.919,-75.987,26105.859133
2 Jan 2020 12:22:58.000,131.856,-76.020,26064.188047
2 Jan 2020 12:23:28.000,133.862,-76.052,26026.388079
2 Jan 2020 12:23:58.000,135.883,-76.079,25993.669911
2 Jan 2020 12:24:28.000,137.919,-76.103,25966.050918
2 Jan 2020 12:24:58.000,139.966,-76.122,25943.540242
2 Jan 2020 12:25:28.000,142.022,-76.138,25926.138751
2 Jan 2020 12:25:58.000,144.086,-76.148,25913.838979
2 Jan 2020 12:26:28.000,146.154,-76.155,25906.625397
2 Jan 2020 12:26:58.000,148.225,-76.157,25904.474091
2 Jan 2020 12:27:28.000,150.296,-76.155,25907.353107
2 Jan 2020 12:27:58.000,152.364,-76.148,25915.222498
2 Jan 2020 12:28:28.000,154.429,-76.137,25928.034469
2 Jan 2020 12:28:58.000,156.488,-76.121,25945.733535
2 Jan 2020 12:29:28.000,158.537,-76.102,25968.256751
2 Jan 2020 12:29:58.000,160.577,-76.079,25995.533871
2 Jan 2020 12:30:28.000,162.605,-76.052,26027.487634
2 Jan 2020 12:30:58.000,164.618,-76.022,26064.034012
2 Jan 2020 12:31:28.000,166.617,-75.989,26105.082492
2 Jan 2020 12:31:28.699,166.663,-75.988,26106.091411
2 Jan 2020 15:16:35.166,343.712,-75.984,26103.817402
2 Jan 2020 15:17:05.000,345.500,-76.065,26004.711183
2 Jan 2020 15:17:35.000,347.331,-76.148,25908.672478
2 Jan 2020 15:18:05.000,349.196,-76.231,25816.425823
2 Jan 2020 15:18:35.000,351.096,-76.314,25728.131586
2 Jan 2020 15:19:05.000,353.030,-76.396,25643.946793
2 Jan 2020 15:19:35.000,355.000,-76.478,25564.024682
2 Jan 2020 15:20:05.000,357.005,-76.558,25488.514261
2 Jan 2020 15:20:35.000,359.044,-76.635,25417.559779
2 Jan 2020 15:21:05.000,1.117,-76.710,25351.300594
2 Jan 2020 15:21:35.000,3.224,-76.781,25289.870241
2 Jan 2020 15:22:05.000,5.362,-76.848,25233.396318
2 Jan 2020 15:22:35.000,7.531,-76.911,25181.999973
2 Jan 2020 15:23:05.000,9.729,-76.969,25135.795477
2 Jan 2020 15:23:35.000,11.952,-77.021,25094.889793
2 Jan 2020 15:24:05.000,14.200,-77.067,25059.382292
2 Jan 2020 15:24:35.000,16.468,-77.106,25029.364212
2 Jan 2020 15:25:05.000,18.754,-77.139,25004.918436
2 Jan 2020 15:25:35.000,21.054,-77.164,24986.119141
2 Jan 2020 15:26:05.000,23.365,-77.182,24973.031510
2 Jan 2020 15:26:35.000,25.683,-77.191,24965.711508
2 Jan 2020 15:27:05.000,28.003,-77.193,24964.205540
2 Jan 2020 15:27:35.000,30.322,-77.187,24968.550432
2 Jan 2020 15:28:05.000,32.636,-77.174,24978.773187
2 Jan 2020 15:28:35.000,34.940,-77.152,24994.890896
2 Jan 2020 15:29:05.000,37.230,-77.122,25016.910677
2 Jan 2020 15:29:35.000,39.503,-77.085,25044.829743
2 Jan 2020 15:30:05.000,41.755,-77.041,25078.635046
2 Jan 2020 15:30:35.000,43.982,-76.990,25118.303876
2 Jan 2020 15:31:05.000,46.181,-76.933,25163.803613
2 Jan 2020 15:31:35.000,48.350,-76.870,25215.091938
2 Jan 2020 15:32:05.000,50.484,-76.801,25272.117017
2 Jan 2020 15:32:35.000,52.584,-76.728,25334.817853
2 Jan 2020 15:33:05.000,54.645,-76.650,25403.123939
2 Jan 2020 15:33:35.000,56.667,-76.569,25476.956408
2 Jan 2020 15:34:05.000,58.649,-76.484,25556.227763
2 Jan 2020 15:34:35.000,60.589,-76.398,25640.842339
2 Jan 2020 15:35:05.000,62.487,-76.310,25730.696661
2 Jan 2020 15:35:35.000,64.342,-76.221,25825.679997
2 Jan 2020 15:36:05.000,66.154,-76.131,25925.674006
2 Jan 2020 15:36:35.000,67.924,-76.042,26030.554235
2 Jan 2020 15:36:55.195,69.091,-75.982,26103.841236
2 Jan 2020 16:55:01.921,289.049,-75.989,26109.746687
2 Jan 2020 16:55:31.000,289.304,-76.158,25909.231371
2 Jan 2020 16:56:01.000,289.567,-76.348,25704.858319
2 Jan 2020 16:56:31.000,289.830,-76.554,25503.261561
2 Jan 2020 16:57:01.000,290.095,-76.776,25304.694410
2 Jan 2020 16:57:31.000,290.361,-77.016,25109.413033
2 Jan 2020 16:58:01.000,290.630,-77.272,24917.676064
2 Jan 2020 16:58:31.000,290.902,-77.545,24729.744164
2 Jan 2020 16:59:01.000,291.180,-77.835,24545.879542
2 Jan 2020 16:59:31.000,291.464,-78.142,24366.345128
2 Jan 2020 17:00:01.000,291.757,-78.465,24191.405179
2 Jan 2020 17:00:31.000,292.059,-78.806,24021.322848
2 Jan 2020 17:01:01.000,292.373,-79.163,23856.360699
2 Jan 2020 17:01:31.000,292.701,-79.536,23696.779673
2 Jan 2020 17:02:01.000,293.048,-79.925,23542.838296
2 Jan 2020 17:02:31.000,293.415,-80.330,23394.791583
2 Jan 2020 17:03:01.000,293.808,-80.751,23252.891219
2 Jan 2020 17:03:31.000,294.233,-81.187,23117.383034
2 Jan 2020 17:04:01.000,294.696,-81.637,22988.507127
2 Jan 2020 17:04:31.000,295.206,-82.101,22866.496610
2 Jan 2020 17:05:01.000,295.775,-82.578,22751.576400
2 Jan 2020 17:05:31.000,296.417,-83.068,22643.963029
2 Jan 2020 17:06:01.000,297.153,-83.569,22543.862349
2 Jan 2020 17:06:31.000,298.010,-84.081,22451.469380
2 Jan 2020 17:07:01.000,299.027,-84.603,22366.966951
2 Jan 2020 17:07:31.000,300.260,-85.132,22290.525271
2 Jan 2020 17:08:01.000,301.794,-85.669,22222.300161
2 Jan 2020 17:08:31.000,303.763,-86.209,22162.432734
2 Jan 2020 17:09:01.000,306.388,-86.751,22111.048355
2 Jan 2020 17:09:31.000,310.065,-87.289,22068.256229
2 Jan 2020 17:10:01.000,315.546,-87.816,22034.148206
2 Jan 2020 17:10:31.000,324.397,-88.315,22008.798584
2 Jan 2020 17:11:01.000,339.941,-88.744,21992.263529
2 Jan 2020 17:11:31.000,6.986,-89.006,21984.580813
2 Jan 2020 17:12:01.000,40.303,-88.960,21985.769410
2 Jan 2020 17:12:31.000,63.934,-88.639,21995.829502
2 Jan 2020 17:13:01.000,77.172,-88.183,22014.742494
2 Jan 2020 17:13:31.000,84.852,-87.674,22042.470960
2 Jan 2020 17:14:01.000,89.703,-87.142,22078.959121
2 Jan 2020 17:14:31.000,93.000,-86.602,22124.133065
2 Jan 2020 17:15:01.000,95.370,-86.059,22177.901348
2 Jan 2020 17:15:31.000,97.148,-85.519,22240.155148
2 Jan 2020 17:16:01.000,98.526,-84.984,22310.769532
2 Jan 2020 17:16:31.000,99.623,-84.455,22389.603818
2 Jan 2020 17:17:01.000,100.512,-83.935,22476.502646
2 Jan 2020 17:17:31.000,101.246,-83.425,22571.296239
2 Jan 2020 17:18:01.000,101.858,-82.925,22673.802252
2 Jan 2020 17:18:31.000,102.375,-82.438,22783.826147
2 Jan 2020 17:19:01.000,102.815,-81.963,22901.162343
2 Jan 2020 17:19:31.000,103.191,-81.501,23025.595475
2 Jan 2020 17:20:01.000,103.514,-81.053,23156.900437
2 Jan 2020 17:20:31.000,103.792,-80.621,23294.844850
2 Jan 2020 17:21:01.000,104.032,-80.203,23439.189111
2 Jan 2020 17:21:31.000,104.239,-79.801,23589.687606
2 Jan 2020 17:22:01.000,104.416,-79.415,23746.089920
2 Jan 2020 17:22:31.000,104.568,-79.045,23908.140731
2 Jan 2020 17:23:01.000,104.697,-78.691,24075.582205
2 Jan 2020 17:23:31.000,104.805,-78.355,24248.153823
2 Jan 2020 17:24:01.000,104.895,-78.035,24425.593413
2 Jan 2020 17:24:31.000,104.967,-77.732,24607.637884
2 Jan 2020 17:25:01.000,105.023,-77.446,24794.023906
2 Jan 2020 17:25:31.000,105.064,-77.177,24984.488866
2 Jan 2020 17:26:01.000,105.092,-76.925,25178.770172
2 Jan 2020 17:26:31.000,105.107,-76.690,25376.607682
2 Jan 2020 17:27:01.000,105.110,-76.472,25577.742922
2 Jan 2020 17:27:31.000,105.100,-76.270,25781.919835
2 Jan 2020 17:28:01.000,105.080,-76.085,25988.885164
2 Jan 2020 17:28:18.432,105.063,-75.985,26110.327974
2 Jan 2020 18:44:59.661,255.884,-75.993,26117.029032
2 Jan 2020 18:45:29.000,254.365,-76.102,25984.892293
2 Jan 2020 18:45:59.000,252.763,-76.217,25854.225880
2 Jan 2020 18:46:29.000,251.110,-76.335,25728.221708
2 Jan 2020 18:46:59.000,249.404,-76.456,25607.043289
2 Jan 2020 18:47:29.000,247.645,-76.578,25490.848943
2 Jan 2020 18:47:59.000,245.832,-76.701,25379.791299
2 Jan 2020 18:48:29.000,243.962,-76.824,25274.016586
2 Jan 2020 18:48:59.000,242.037,-76.947,25173.664985
2 Jan 2020 18:49:29.000,240.054,-77.067,25078.868847
2 Jan 2020 18:49:59.000,238.015,-77.186,24989.753076
2 Jan 2020 18:50:29.000,235.919,-77.300,24906.434447
2 Jan 2020 18:50:59.000,233.768,-77.411,24829.021152
2 Jan 2020 18:51:29.000,231.563,-77.516,24757.612204
2 Jan 2020 18:51:59.000,229.305,-77.616,24692.297715
2 Jan 2020 18:52:29.000,226.998,-77.708,24633.157487
2 Jan 2020 18:52:59.000,224.643,-77.793,24580.261373
2 Jan 2020 18:53:29.000,222.246,-77.869,24533.668798
2 Jan 2020 18:53:59.000,219.809,-77.936,24493.428396
2 Jan 2020 18:54:29.000,217.338,-77.993,24459.578197
2 Jan 2020 18:54:59.000,214.838,-78.040,24432.144832
2 Jan 2020 18:55:29.000,212.314,-78.077,24411.143831
2 Jan 2020 18:55:59.000,209.773,-78.102,24396.579441
2 Jan 2020 18:56:29.000,207.220,-78.117,24388.444551
2 Jan 2020 18:56:59.000,204.661,-78.119,24386.720911
2 Jan 2020 18:57:29.000,202.104,-78.111,24391.378903
2 Jan 2020 18:57:59.000,199.555,-78.092,24402.377882
2 Jan 2020 18:58:29.000,197.019,-78.061,24419.666290
2 Jan 2020 18:58:59.000,194.502,-78.021,24443.181891
2 Jan 2020 18:59:29.000,192.010,-77.970,24472.852010
2 Jan 2020 18:59:59.000,189.547,-77.909,24508.593864
2 Jan 2020 19:00:29.000,187.119,-77.840,24550.314906
2 Jan 2020 19:00:59.000,184.728,-77.762,24597.913204
2 Jan 2020 19:01:29.000,182.378,-77.677,24651.277863
2 Jan 2020 19:01:59.000,180.071,-77.586,24710.289537
2 Jan 2020 19:02:29.000,177.811,-77.488,24774.820611
2 Jan 2020 19:02:59.000,175.597,-77.386,24844.736106
2 Jan 2020 19:03:29.000,173.432,-77.279,24919.893916
2 Jan 2020 19:03:59.000,171.315,-77.169,25000.145385
2 Jan 2020 19:04:29.000,169.248,-77.056,25085.335832
2 Jan 2020 19:04:59.000,167.229,-76.941,25175.305080
2 Jan 2020 19:05:29.000,165.258,-76.826,25269.888116
2 Jan 2020 19:05:59.000,163.334,-76.710,25368.915078
2 Jan 2020 19:06:29.000,161.456,-76.595,25472.212569
2 Jan 2020 19:06:59.000,159.624,-76.480,25579.603648
2 Jan 2020 19:07:29.000,157.834,-76.368,25690.908446
2 Jan 2020 19:07:59.000,156.086,-76.257,25805.944658
2 Jan 2020 19:08:29.000,154.378,-76.150,25924.528005
2 Jan 2020 19:08:59.000,152.708,-76.046,26046.472683
2 Jan 2020 19:09:15.975,151.779,-75.989,26116.889299
2 Jan 2020 23:24:04.736,59.466,-75.992,26117.203503
2 Jan 2020 23:24:34.000,58.651,-76.147,25931.275325
2 Jan 2020 23:25:04.000,57.792,-76.320,25743.129430
2 Jan 2020 23:25:34.000,56.908,-76.507,25557.706829
2 Jan 2020 23:26:04.000,55.995,-76.706,25375.248660
2 Jan 2020 23:26:34.000,55.049,-76.919,25195.998439
2 Jan 2020 23:27:04.000,54.067,-77.145,25020.201662
2 Jan 2020 23:27:34.000,53.044,-77.384,24848.105371
2 Jan 2020 23:28:04.000,51.975,-77.636,24679.957679
2 Jan 2020 23:28:34.000,50.855,-77.900,24516.006993
2 Jan 2020 23:29:04.000,49.677,-78.176,24356.502462
2 Jan 2020 23:29:34.000,48.435,-78.464,24201.691836
2 Jan 2020 23:30:04.000,47.120,-78.762,24051.821839
2 Jan 2020 23:30:34.000,45.724,-79.070,23907.137210
2 Jan 2020 23:31:04.000,44.237,-79.388,23767.879966
2 Jan 2020 23:31:34.000,42.647,-79.714,23634.288412
2 Jan 2020 23:32:04.000,40.941,-80.046,23506.597185
2 Jan 2020 23:32:34.000,39.105,-80.385,23385.035107
2 Jan 2020 23:33:04.000,37.121,-80.727,23269.825194
2 Jan 2020 23:33:34.000,34.971,-81.072,23161.183539
2 Jan 2020 23:34:04.000,32.633,-81.417,23059.318255
2 Jan 2020 23:34:34.000,30.086,-81.759,22964.429198
2 Jan 2020 23:35:04.000,27.303,-82.097,22876.706084
2 Jan 2020 23:35:34.000,24.259,-82.425,22796.328250
2 Jan 2020 23:36:04.000,20.926,-82.742,22723.463606
2 Jan 2020 23:36:34.000,17.278,-83.043,22658.267682
2 Jan 2020 23:37:04.000,13.296,-83.323,22600.883242
2 Jan 2020 23:37:34.000,8.964,-83.577,22551.438862
2 Jan 2020 23:38:04.000,4.281,-83.800,22510.048678
2 Jan 2020 23:38:34.000,359.264,-83.987,22476.811602
2 Jan 2020 23:39:04.000,353.948,-84.132,22451.810903
2 Jan 2020 23:39:34.000,348.397,-84.232,22435.113494
2 Jan 2020 23:40:04.000,342.692,-84.283,22426.769719
2 Jan 2020 23:40:34.000,336.935,-84.283,22426.813039
2 Jan 2020 23:41:04.000,331.233,-84.232,22435.259751
2 Jan 2020 23:41:34.000,325.684,-84.131,22452.109015
2 Jan 2020 23:42:04.000,320.375,-83.985,22477.342808
2 Jan 2020 23:42:34.000,315.369,-83.796,22510.926137
2 Jan 2020 23:43:04.000,310.704,-83.571,22552.806939
2 Jan 2020 23:43:34.000,306.397,-83.314,22602.916860
2 Jan 2020 23:44:04.000,302.447,-83.031,22661.171374
2 Jan 2020 23:44:34.000,298.842,-82.726,22727.470491
2 Jan 2020 23:45:04.000,295.561,-82.404,22801.698795
2 Jan 2020 23:45:34.000,292.577,-82.070,22883.726885
2 Jan 2020 23:46:04.000,289.865,-81.728,22973.411575
2 Jan 2020 23:46:34.000,287.398,-81.379,23070.596790
2 Jan 2020 23:47:04.000,285.151,-81.029,23175.114606
2 Jan 2020 23:47:34.000,283.101,-80.678,23286.785191
2 Jan 2020 23:48:04.000,281.226,-80.329,23405.419017
2 Jan 2020 23:48:34.000,279.508,-79.984,23530.816870
2 Jan 2020 23:49:04.000,277.930,-79.645,23662.770957
2 Jan 2020 23:49:34.000,276.477,-79.313,23801.066060
2 Jan 2020 23:50:04.000,275.137,-78.989,23945.479400
2 Jan 2020 23:50:34.000,273.897,-78.675,24095.783015
2 Jan 2020 23:51:04.000,272.749,-78.371,24251.743608
2 Jan 2020 23:51:34.000,271.682,-78.079,24413.123609
2 Jan 2020 23:52:04.000,270.689,-77.798,24579.681967
2 Jan 2020 23:52:34.000,269.763,-77.530,24751.175184
2 Jan 2020 23:53:04.000,268.899,-77.275,24927.356858
2 Jan 2020 23:53:34.000,268.090,-77.033,25107.980101
2 Jan 2020 23:54:04.000,267.333,-76.805,25292.797004
2 Jan 2020 23:54:34.000,266.622,-76.591,25481.559512
2 Jan 2020 23:55:04.000,265.954,-76.391,25674.019963
2 Jan 2020 23:55:34.000,265.326,-76.205,25869.931583
2 Jan 2020 23:56:04.000,264.734,-76.034,26069.048944
2 Jan 2020 23:56:11.113,264.599,-75.995,26116.701528
3 Jan 2020 01:11:16.949,91.872,-75.987,26109.962307
3 Jan 2020 01:11:46.000,92.853,-76.134,25934.637608
3 Jan 2020 01:12:16.000,93.914,-76.296,25757.198571
3 Jan 2020 01:12:46.000,95.026,-76.468,25583.651974
3 Jan 2020 01:13:16.000,96.193,-76.650,25414.223083
3 Jan 2020 01:13:46.000,97.420,-76.842,25249.136000
3 Jan 2020 01:14:16.000,98.710,-77.042,25088.613121
3 Jan 2020 01:14:46.000,100.067,-77.251,24932.874560
3 Jan 2020 01:15:16.000,101.498,-77.467,24782.137251
3 Jan 2020 01:15:46.000,103.007,-77.689,24636.615503
3 Jan 2020 01:16:16.000,104.599,-77.917,24496.518545
3 Jan 2020 01:16:46.000,106.280,-78.150,24362.051049
3 Jan 2020 01:17:16.000,108.056,-78.386,24233.412125
3 Jan 2020 01:17:46.000,109.934,-78.624,24110.794393
3 Jan 2020 01:18:16.000,111.919,-78.863,23994.384114
3 Jan 2020 01:18:46.000,114.019,-79.102,23884.359155
3 Jan 2020 01:19:16.000,116.238,-79.337,23780.889139
3 Jan 2020 01:19:46.000,118.582,-79.569,23684.134493
3 Jan 2020 01:20:16.000,121.057,-79.794,23594.245561
3 Jan 2020 01:20:46.000,123.665,-80.012,23511.362658
3 Jan 2020 01:21:16.000,126.411,-80.219,23435.614271
3 Jan 2020 01:21:46.000,129.293,-80.413,23367.117205
3 Jan 2020 01:22:16.000,132.311,-80.593,23305.975799
3 Jan 2020 01:22:46.000,135.459,-80.757,23252.281270
3 Jan 2020 01:23:16.000,138.731,-80.902,23206.111757
3 Jan 2020 01:23:46.000,142.116,-81.026,23167.531091
3 Jan 2020 01:24:16.000,145.599,-81.127,23136.589001
3 Jan 2020 01:24:46.000,149.163,-81.205,23113.320638
3 Jan 2020 01:25:16.000,152.787,-81.258,23097.746613
3 Jan 2020 01:25:46.000,156.448,-81.285,23089.872492
3 Jan 2020 01:26:16.000,160.123,-81.286,23089.689020
3 Jan 2020 01:26:46.000,163.786,-81.260,23097.172079
3 Jan 2020 01:27:16.000,167.414,-81.209,23112.282855
3 Jan 2020 01:27:46.000,170.985,-81.134,23134.967947
3 Jan 2020 01:28:16.000,174.478,-81.034,23165.159714
3 Jan 2020 01:28:46.000,177.877,-80.913,23202.776646
3 Jan 2020 01:29:16.000,181.169,-80.772,23247.723628
3 Jan 2020 01:29:46.000,184.342,-80.613,23299.892631
3 Jan 2020 01:30:16.000,187.392,-80.438,23359.163130
3 Jan 2020 01:30:46.000,190.313,-80.249,23425.402717
3 Jan 2020 01:31:16.000,193.105,-80.048,23498.467859
3 Jan 2020 01:31:46.000,195.769,-79.838,23578.204129
3 Jan 2020 01:32:16.000,198.307,-79.620,23664.447552
3 Jan 2020 01:32:46.000,200.725,-79.396,23757.024918
3 Jan 2020 01:33:16.000,203.026,-79.168,23855.754631
3 Jan 2020 01:33:46.000,205.218,-78.939,23960.447609
3 Jan 2020 01:34:16.000,207.305,-78.708,24070.907447
3 Jan 2020 01:34:46.000,209.295,-78.478,24186.932048
3 Jan 2020 01:35:16.000,211.193,-78.250,24308.313788
3 Jan 2020 01:35:46.000,213.006,-78.026,24434.840387
3 Jan 2020 01:36:16.000,214.740,-77.805,24566.295620
3 Jan 2020 01:36:46.000,216.400,-77.590,24702.460002
3 Jan 2020 01:37:16.000,217.993,-77.381,24843.111681
3 Jan 2020 01:37:46.000,219.523,-77.179,24988.026147
3 Jan 2020 01:38:16.000,220.995,-76.984,25136.978203
3 Jan 2020 01:38:46.000,222.415,-76.797,25289.741626
3 Jan 2020 01:39:16.000,223.785,-76.619,25446.089925
3 Jan 2020 01:39:46.000,225.111,-76.449,25605.796837
3 Jan 2020 01:40:16.000,226.395,-76.289,25768.636796
3 Jan 2020 01:40:46.000,227.643,-76.139,25934.385352
3 Jan 2020 01:41:16.000,228.856,-75.998,26102.819576
3 Jan 2020 01:41:17.222,228.904,-75.992,26109.735186
3 Jan 2020 05:54:23.145,315.684,-75.986,26105.618210
3 Jan 2020 05:54:53.000,317.014,-76.117,25947.971505
3 Jan 2020 05:55:23.000,318.386,-76.257,25792.336899
3 Jan 2020 05:55:53.000,319.798,-76.405,25639.703969
3 Jan 2020 05:56:23.000,321.252,-76.560,25490.288638
3 Jan 2020 05:56:53.000,322.752,-76.722,25344.307357
3 Jan 2020 05:57:23.000,324.302,-76.891,25201.976663
3 Jan 2020 05:57:53.000,325.906,-77.067,25063.512713
3 Jan 2020 05:58:23.000,327.567,-77.247,24929.130782
3 Jan 2020 05:58:53.000,329.289,-77.432,24799.044542
3 Jan 2020 05:59:23.000,331.076,-77.622,24673.466280
3 Jan 2020 05:59:53.000,332.934,-77.814,24552.605136
3 Jan 2020 06:00:23.000,334.866,-78.008,24436.667282
3 Jan 2020 06:00:53.000,336.876,-78.203,24325.855090
3 Jan 2020 06:01:23.000,338.968,-78.399,24220.366474
3 Jan 2020 06:01:53.000,341.147,-78.592,24120.394089
3 Jan 2020 06:02:23.000,343.416,-78.784,24026.125198
3 Jan 2020 06:02:53.000,345.778,-78.970,23937.740140
3 Jan 2020 06:03:23.000,348.236,-79.152,23855.412210
3 Jan 2020 06:03:53.000,350.789,-79.326,23779.306822
3 Jan 2020 06:04:23.000,353.440,-79.491,23709.580748
3 Jan 2020 06:04:53.000,356.187,-79.646,23646.381788
3 Jan 2020 06:05:23.000,359.027,-79.789,23589.847604
3 Jan 2020 06:05:53.000,1.956,-79.918,23540.105458
3 Jan 2020 06:06:23.000,4.968,-80.031,23497.271541
3 Jan 2020 06:06:53.000,8.053,-80.129,23461.450393
3 Jan 2020 06:07:23.000,11.203,-80.208,23432.734531
3 Jan 2020 06:07:53.000,14.405,-80.268,23411.203799
3 Jan 2020 06:08:23.000,17.645,-80.308,23396.925126
3 Jan 2020 06:08:53.000,20.908,-80.328,23389.952154
3 Jan 2020 06:09:23.000,24.178,-80.327,23390.325016
3 Jan 2020 06:09:53.000,27.438,-80.305,23398.069989
3 Jan 2020 06:10:23.000,30.673,-80.262,23413.199575
3 Jan 2020 06:10:53.000,33.867,-80.199,23435.712324
3 Jan 2020 06:11:23.000,37.006,-80.117,23465.592879
3 Jan 2020 06:11:53.000,40.077,-80.016,23502.812182
3 Jan 2020 06:12:23.000,43.069,-79.898,23547.327200
3 Jan 2020 06:12:53.000,45.973,-79.764,23599.081786
3 Jan 2020 06:13:23.000,48.782,-79.616,23658.006566
3 Jan 2020 06:13:53.000,51.492,-79.455,23724.019401
3 Jan 2020 06:14:23.000,54.098,-79.283,23797.025964
3 Jan 2020 06:14:53.000,56.599,-79.102,23876.919541
3 Jan 2020 06:15:23.000,58.996,-78.913,23963.582528
3 Jan 2020 06:15:53.000,61.289,-78.719,24056.886340
3 Jan 2020 06:16:23.000,63.479,-78.519,24156.692156
3 Jan 2020 06:16:53.000,65.571,-78.317,24262.851745
3 Jan 2020 06:17:23.000,67.567,-78.113,24375.207273
3 Jan 2020 06:17:53.000,69.471,-77.909,24493.593185
3 Jan 2020 06:18:23.000,71.286,-77.707,24617.836059
3 Jan 2020 06:18:53.000,73.018,-77.506,24747.755477
3 Jan 2020 06:19:23.000,74.669,-77.309,24883.164682
3 Jan 2020 06:19:53.000,76.246,-77.116,25023.871515
3 Jan 2020 06:20:23.000,77.750,-76.929,25169.677994
3 Jan 2020 06:20:53.000,79.187,-76.748,25320.382535
3 Jan 2020 06:21:23.000,80.561,-76.573,25475.779521
3 Jan 2020 06:21:53.000,81.874,-76.406,25635.660157
3 Jan 2020 06:22:23.000,83.131,-76.247,25799.813041
3 Jan 2020 06:22:53.000,84.335,-76.097,25968.024712
3 Jan 2020 06:23:17.094,85.266,-75.983,26105.914623
3 Jan 2020 07:38:35.088,277.936,-75.991,26112.379423
3 Jan 2020 07:39:05.000,277.514,-76.162,25909.006094
3 Jan 2020 07:39:35.000,277.061,-76.348,25708.013448
3 Jan 2020 07:40:05.000,276.576,-76.550,25510.253205
3 Jan 2020 07:40:35.000,276.056,-76.768,25315.975710
3 Jan 2020 07:41:05.000,275.498,-77.000,25125.432897
3 Jan 2020 07:41:35.000,274.898,-77.247,24938.877825
3 Jan 2020 07:42:05.000,274.253,-77.510,24756.564179
3 Jan 2020 07:42:35.000,273.557,-77.787,24578.745417
3 Jan 2020 07:43:05.000,272.806,-78.078,24405.675359
3 Jan 2020 07:43:35.000,271.994,-78.383,24237.605758
3 Jan 2020 07:44:05.000,271.113,-78.702,24074.786805
3 Jan 2020 07:44:35.000,270.157,-79.034,23917.466097
3 Jan 2020 07:45:05.000,269.114,-79.378,23765.887858
3 Jan 2020 07:45:35.000,267.976,-79.733,23620.291849
3 Jan 2020 07:46:05.000,266.729,-80.099,23480.913640
3 Jan 2020 07:46:35.000,265.358,-80.474,23347.982023
3 Jan 2020 07:47:05.000,263.846,-80.857,23221.719256
3 Jan 2020 07:47:35.000,262.172,-81.247,23102.339844
3 Jan 2020 07:48:05.000,260.312,-81.642,22990.049387
3 Jan 2020 07:48:35.000,258.239,-82.039,22885.044522
3 Jan 2020 07:49:05.000,255.917,-82.436,22787.510642
3 Jan 2020 07:49:35.000,253.308,-82.831,22697.621887
3 Jan 2020 07:50:05.000,250.367,-83.219,22615.539874
3 Jan 2020 07:50:35.000,247.043,-83.597,22541.413425
3 Jan 2020 07:51:05.000,243.281,-83.959,22475.376855
3 Jan 2020 07:51:35.000,239.023,-84.300,22417.549825
