STKdata/stk_70fov_4leo/Satellite-MEO_Satellite10006-To-Satellite-LEO_Satellite10000 AER.csv

"Time (UTCG)","Azimuth (deg)","Elevation (deg)","Range (km)"
1 Jan 2020 00:00:00.000,15.273,-76.143,25925.377606
1 Jan 2020 00:00:30.000,13.947,-76.040,26046.924467
1 Jan 2020 00:00:44.655,13.310,-75.991,26107.182458
1 Jan 2020 01:32:29.961,134.978,-75.988,26103.945248
1 Jan 2020 01:32:59.000,134.360,-76.124,25940.220328
1 Jan 2020 01:33:29.000,133.708,-76.276,25772.905500
1 Jan 2020 01:33:59.000,133.040,-76.438,25607.595420
1 Jan 2020 01:34:29.000,132.355,-76.611,25444.442338
1 Jan 2020 01:34:59.000,131.650,-76.794,25283.600035
1 Jan 2020 01:35:29.000,130.924,-76.988,25125.223654
1 Jan 2020 01:35:59.000,130.175,-77.193,24969.469512
1 Jan 2020 01:36:29.000,129.400,-77.408,24816.494903
1 Jan 2020 01:36:59.000,128.596,-77.634,24666.457871
1 Jan 2020 01:37:29.000,127.761,-77.870,24519.516976
1 Jan 2020 01:37:59.000,126.890,-78.116,24375.830773
1 Jan 2020 01:38:29.000,125.980,-78.372,24235.558585
1 Jan 2020 01:38:59.000,125.026,-78.638,24098.858626
1 Jan 2020 01:39:29.000,124.024,-78.913,23965.888747
1 Jan 2020 01:39:59.000,122.969,-79.197,23836.805834
1 Jan 2020 01:40:29.000,121.852,-79.489,23711.765463
1 Jan 2020 01:40:59.000,120.669,-79.789,23590.921529
1 Jan 2020 01:41:29.000,119.409,-80.097,23474.425864
1 Jan 2020 01:41:59.000,118.065,-80.412,23362.427611
1 Jan 2020 01:42:29.000,116.625,-80.732,23255.073734
1 Jan 2020 01:42:59.000,115.077,-81.057,23152.507200
1 Jan 2020 01:43:29.000,113.407,-81.387,23054.867489
1 Jan 2020 01:43:59.000,111.598,-81.719,22962.289916
1 Jan 2020 01:44:29.000,109.633,-82.053,22874.905195
1 Jan 2020 01:44:59.000,107.490,-82.386,22792.838842
1 Jan 2020 01:45:29.000,105.144,-82.718,22716.211338
1 Jan 2020 01:45:59.000,102.570,-83.045,22645.136775
1 Jan 2020 01:46:29.000,99.736,-83.366,22579.723053
1 Jan 2020 01:46:59.000,96.612,-83.677,22520.071304
1 Jan 2020 01:47:29.000,93.162,-83.975,22466.275491
1 Jan 2020 01:47:59.000,89.356,-84.257,22418.421945
1 Jan 2020 01:48:29.000,85.163,-84.518,22376.589369
1 Jan 2020 01:48:59.000,80.564,-84.753,22340.847940
1 Jan 2020 01:49:29.000,75.555,-84.958,22311.259400
1 Jan 2020 01:49:59.000,70.154,-85.126,22287.876684
1 Jan 2020 01:50:29.000,64.407,-85.254,22270.743672
1 Jan 2020 01:50:59.000,58.393,-85.338,22259.895073
1 Jan 2020 01:51:29.000,52.222,-85.373,22255.356128
1 Jan 2020 01:51:59.000,46.022,-85.359,22257.142606
1 Jan 2020 01:52:29.000,39.925,-85.296,22265.260698
1 Jan 2020 01:52:59.000,34.050,-85.187,22279.707038
1 Jan 2020 01:53:29.000,28.492,-85.035,22300.468551
1 Jan 2020 01:53:59.000,23.313,-84.844,22327.522746
1 Jan 2020 01:54:29.000,18.544,-84.620,22360.837673
1 Jan 2020 01:54:59.000,14.190,-84.368,22400.372104
1 Jan 2020 01:55:29.000,10.238,-84.092,22446.075818
1 Jan 2020 01:55:59.000,6.662,-83.797,22497.889426
1 Jan 2020 01:56:29.000,3.433,-83.488,22555.745206
1 Jan 2020 01:56:59.000,0.515,-83.168,22619.567021
1 Jan 2020 01:57:29.000,357.876,-82.839,22689.270730
1 Jan 2020 01:57:59.000,355.485,-82.505,22764.764534
1 Jan 2020 01:58:29.000,353.314,-82.168,22845.949535
1 Jan 2020 01:58:59.000,351.337,-81.829,22932.719380
1 Jan 2020 01:59:29.000,349.532,-81.492,23024.961766
1 Jan 2020 01:59:59.000,347.879,-81.156,23122.558136
1 Jan 2020 02:00:29.000,346.361,-80.824,23225.384282
1 Jan 2020 02:00:59.000,344.962,-80.496,23333.310779
1 Jan 2020 02:01:29.000,343.670,-80.174,23446.203418
1 Jan 2020 02:01:59.000,342.473,-79.859,23563.923904
1 Jan 2020 02:02:29.000,341.361,-79.550,23686.329235
1 Jan 2020 02:02:59.000,340.325,-79.250,23813.273689
1 Jan 2020 02:03:29.000,339.359,-78.958,23944.608207
1 Jan 2020 02:03:59.000,338.455,-78.675,24080.181051
1 Jan 2020 02:04:29.000,337.608,-78.401,24219.838201
1 Jan 2020 02:04:59.000,336.812,-78.138,24363.423726
1 Jan 2020 02:05:29.000,336.062,-77.884,24510.780152
1 Jan 2020 02:05:59.000,335.356,-77.641,24661.749101
1 Jan 2020 02:06:29.000,334.688,-77.408,24816.170454
1 Jan 2020 02:06:59.000,334.057,-77.187,24973.884399
1 Jan 2020 02:07:29.000,333.458,-76.976,25134.730573
1 Jan 2020 02:07:59.000,332.890,-76.776,25298.548627
1 Jan 2020 02:08:29.000,332.351,-76.588,25465.178475
1 Jan 2020 02:08:59.000,331.837,-76.410,25634.460542
1 Jan 2020 02:09:29.000,331.348,-76.244,25806.235976
1 Jan 2020 02:09:59.000,330.882,-76.089,25980.346857
1 Jan 2020 02:10:20.070,330.567,-75.987,26103.941779
1 Jan 2020 03:36:07.556,154.014,-75.991,26107.414753
1 Jan 2020 03:36:37.000,154.592,-76.131,25939.121933
1 Jan 2020 03:37:07.000,155.206,-76.285,25769.935484
1 Jan 2020 03:37:37.000,155.847,-76.449,25603.203914
1 Jan 2020 03:38:07.000,156.517,-76.623,25439.080633
1 Jan 2020 03:38:37.000,157.217,-76.808,25277.719607
1 Jan 2020 03:39:07.000,157.952,-77.003,25119.275149
1 Jan 2020 03:39:37.000,158.723,-77.208,24963.901689
1 Jan 2020 03:40:07.000,159.533,-77.423,24811.753532
1 Jan 2020 03:40:37.000,160.385,-77.647,24662.984591
1 Jan 2020 03:41:07.000,161.283,-77.881,24517.747832
1 Jan 2020 03:41:37.000,162.231,-78.124,24376.196114
1 Jan 2020 03:42:07.000,163.234,-78.375,24238.480162
1 Jan 2020 03:42:37.000,164.296,-78.635,24104.749396
1 Jan 2020 03:43:07.000,165.423,-78.902,23975.151298
1 Jan 2020 03:43:37.000,166.621,-79.177,23849.831061
1 Jan 2020 03:44:07.000,167.896,-79.458,23728.931222
1 Jan 2020 03:44:37.000,169.258,-79.745,23612.591049
1 Jan 2020 03:45:07.000,170.713,-80.036,23500.947110
1 Jan 2020 03:45:37.000,172.272,-80.332,23394.131435
1 Jan 2020 03:46:07.000,173.945,-80.631,23292.272093
1 Jan 2020 03:46:37.000,175.744,-80.931,23195.492541
1 Jan 2020 03:47:07.000,177.682,-81.232,23103.911227
1 Jan 2020 03:47:37.000,179.772,-81.531,23017.641014
1 Jan 2020 03:48:07.000,182.030,-81.828,22936.789505
1 Jan 2020 03:48:37.000,184.472,-82.121,22861.457567
1 Jan 2020 03:49:07.000,187.116,-82.406,22791.739696
1 Jan 2020 03:49:37.000,189.976,-82.682,22727.723473
1 Jan 2020 03:50:07.000,193.070,-82.947,22669.489222
1 Jan 2020 03:50:37.000,196.412,-83.197,22617.109577
1 Jan 2020 03:51:07.000,200.012,-83.429,22570.649677
1 Jan 2020 03:51:37.000,203.876,-83.641,22530.166137
1 Jan 2020 03:52:07.000,208.000,-83.828,22495.707334
1 Jan 2020 03:52:37.000,212.371,-83.988,22467.313066
1 Jan 2020 03:53:07.000,216.966,-84.118,22445.014336
1 Jan 2020 03:53:37.000,221.746,-84.214,22428.833416
1 Jan 2020 03:54:07.000,226.660,-84.275,22418.783433
1 Jan 2020 03:54:37.000,231.649,-84.298,22414.868533
1 Jan 2020 03:55:07.000,236.647,-84.285,22417.083807
1 Jan 2020 03:55:37.000,241.587,-84.234,22425.415320
1 Jan 2020 03:56:07.000,246.407,-84.148,22439.840143
1 Jan 2020 03:56:37.000,251.056,-84.028,22460.326483
1 Jan 2020 03:57:07.000,255.493,-83.877,22486.833812
1 Jan 2020 03:57:37.000,259.691,-83.698,22519.313041
1 Jan 2020 03:58:07.000,263.634,-83.495,22557.706731
1 Jan 2020 03:58:37.000,267.319,-83.270,22601.949428
1 Jan 2020 03:59:07.000,270.749,-83.027,22651.967581
1 Jan 2020 03:59:37.000,273.934,-82.770,22707.680353
1 Jan 2020 04:00:07.000,276.887,-82.500,22768.999622
1 Jan 2020 04:00:37.000,279.625,-82.221,22835.830403
1 Jan 2020 04:01:07.000,282.163,-81.935,22908.071215
1 Jan 2020 04:01:37.000,284.519,-81.645,22985.614616
1 Jan 2020 04:02:07.000,286.709,-81.351,23068.346999
1 Jan 2020 04:02:37.000,288.749,-81.055,23156.149868
1 Jan 2020 04:03:07.000,290.652,-80.760,23248.899679
1 Jan 2020 04:03:37.000,292.432,-80.467,23346.468385
1 Jan 2020 04:04:07.000,294.101,-80.176,23448.723853
1 Jan 2020 04:04:37.000,295.669,-79.889,23555.530266
1 Jan 2020 04:05:07.000,297.147,-79.606,23666.748749
1 Jan 2020 04:05:37.000,298.543,-79.329,23782.236904
1 Jan 2020 04:06:07.000,299.864,-79.058,23901.850471
1 Jan 2020 04:06:37.000,301.119,-78.794,24025.442863
1 Jan 2020 04:07:07.000,302.313,-78.537,24152.865738
1 Jan 2020 04:07:37.000,303.452,-78.287,24283.969348
1 Jan 2020 04:08:07.000,304.541,-78.046,24418.602872
1 Jan 2020 04:08:37.000,305.584,-77.814,24556.614735
1 Jan 2020 04:09:07.000,306.587,-77.590,24697.852911
1 Jan 2020 04:09:37.000,307.551,-77.375,24842.165205
1 Jan 2020 04:10:07.000,308.482,-77.170,24989.399821
1 Jan 2020 04:10:37.000,309.381,-76.974,25139.404434
1 Jan 2020 04:11:07.000,310.253,-76.787,25292.028174
1 Jan 2020 04:11:37.000,311.098,-76.611,25447.120688
1 Jan 2020 04:12:07.000,311.920,-76.444,25604.532618
1 Jan 2020 04:12:37.000,312.720,-76.286,25764.115796
1 Jan 2020 04:13:07.000,313.501,-76.139,25925.723399
1 Jan 2020 04:13:37.000,314.264,-76.002,26089.210113
1 Jan 2020 04:13:40.402,314.350,-75.987,26107.863599
1 Jan 2020 05:46:39.083,199.249,-75.993,26115.246517
1 Jan 2020 05:47:09.000,200.586,-76.091,25996.446168
1 Jan 2020 05:47:39.000,201.955,-76.193,25879.710889
1 Jan 2020 05:48:09.000,203.355,-76.299,25765.467724
1 Jan 2020 05:48:39.000,204.785,-76.407,25653.808951
1 Jan 2020 05:49:09.000,206.248,-76.519,25544.825921
1 Jan 2020 05:49:39.000,207.744,-76.634,25438.608928
1 Jan 2020 05:50:09.000,209.276,-76.751,25335.247058
1 Jan 2020 05:50:39.000,210.843,-76.870,25234.828050
1 Jan 2020 05:51:09.000,212.448,-76.991,25137.438140
1 Jan 2020 05:51:39.000,214.091,-77.113,25043.161914
1 Jan 2020 05:52:09.000,215.774,-77.236,24952.081950
1 Jan 2020 05:52:39.000,217.498,-77.359,24864.279455
1 Jan 2020 05:53:09.000,219.263,-77.482,24779.832910
1 Jan 2020 05:53:39.000,221.071,-77.604,24698.818715
1 Jan 2020 05:54:09.000,222.922,-77.725,24621.310822
1 Jan 2020 05:54:39.000,224.817,-77.845,24547.380581
1 Jan 2020 05:55:09.000,226.756,-77.962,24477.096579
1 Jan 2020 05:55:39.000,228.739,-78.077,24410.524484
1 Jan 2020 05:56:09.000,230.767,-78.188,24347.726769
1 Jan 2020 05:56:39.000,232.839,-78.295,24288.763073
1 Jan 2020 05:57:09.000,234.954,-78.398,24233.689275
1 Jan 2020 05:57:39.000,237.111,-78.496,24182.557884
1 Jan 2020 05:58:09.000,239.309,-78.588,24135.417776
1 Jan 2020 05:58:39.000,241.547,-78.674,24092.314063
1 Jan 2020 05:59:09.000,243.821,-78.753,24053.287975
1 Jan 2020 05:59:39.000,246.131,-78.825,24018.376757
1 Jan 2020 06:00:09.000,248.472,-78.890,23987.613496
1 Jan 2020 06:00:39.000,250.843,-78.947,23961.027313
1 Jan 2020 06:01:09.000,253.238,-78.995,23938.642851
1 Jan 2020 06:01:39.000,255.655,-79.034,23920.480503
1 Jan 2020 06:02:09.000,258.089,-79.065,23906.556284
1 Jan 2020 06:02:39.000,260.535,-79.086,23896.881782
1 Jan 2020 06:03:09.000,262.990,-79.098,23891.464130
1 Jan 2020 06:03:39.000,265.449,-79.100,23890.305986
1 Jan 2020 06:04:09.000,267.906,-79.093,23893.405537
1 Jan 2020 06:04:39.000,270.357,-79.077,23900.756479
1 Jan 2020 06:05:09.000,272.798,-79.051,23912.348061
1 Jan 2020 06:05:39.000,275.224,-79.016,23928.165113
1 Jan 2020 06:06:09.000,277.630,-78.973,23948.188090
1 Jan 2020 06:06:39.000,280.014,-78.921,23972.393127
1 Jan 2020 06:07:09.000,282.370,-78.861,24000.752111
1 Jan 2020 06:07:39.000,284.696,-78.793,24033.232760
1 Jan 2020 06:08:09.000,286.990,-78.717,24069.798797
1 Jan 2020 06:08:39.000,289.247,-78.635,24110.409730
1 Jan 2020 06:09:09.000,291.467,-78.547,24155.021434
1 Jan 2020 06:09:39.000,293.647,-78.452,24203.585960
1 Jan 2020 06:10:09.000,295.785,-78.353,24256.051745
1 Jan 2020 06:10:39.000,297.882,-78.249,24312.363742
1 Jan 2020 06:11:09.000,299.935,-78.140,24372.463558
1 Jan 2020 06:11:39.000,301.945,-78.028,24436.289609
1 Jan 2020 06:12:09.000,303.912,-77.913,24503.777264
1 Jan 2020 06:12:39.000,305.835,-77.796,24574.859161
1 Jan 2020 06:13:09.000,307.714,-77.677,24649.464738
1 Jan 2020 06:13:39.000,309.551,-77.556,24727.521323
1 Jan 2020 06:14:09.000,311.346,-77.434,24808.953681
1 Jan 2020 06:14:39.000,313.100,-77.312,24893.684332
1 Jan 2020 06:15:09.000,314.814,-77.191,24981.633706
1 Jan 2020 06:15:39.000,316.488,-77.069,25072.720313
1 Jan 2020 06:16:09.000,318.124,-76.949,25166.860893
1 Jan 2020 06:16:39.000,319.723,-76.830,25263.970581
1 Jan 2020 06:17:09.000,321.287,-76.713,25363.963058
1 Jan 2020 06:17:39.000,322.816,-76.598,25466.750704
1 Jan 2020 06:18:09.000,324.311,-76.485,25572.244969
1 Jan 2020 06:18:39.000,325.775,-76.376,25680.355630
1 Jan 2020 06:19:09.000,327.207,-76.269,25790.992255
1 Jan 2020 06:19:39.000,328.610,-76.166,25904.063457
1 Jan 2020 06:20:09.000,329.985,-76.066,26019.477250
1 Jan 2020 06:20:33.479,331.087,-75.988,26115.323002
1 Jan 2020 07:55:29.677,225.806,-75.992,26120.412081
1 Jan 2020 07:55:59.000,226.741,-76.116,25971.281817
1 Jan 2020 07:56:29.000,227.720,-76.250,25820.582885
1 Jan 2020 07:56:59.000,228.722,-76.393,25671.911957
1 Jan 2020 07:57:29.000,229.751,-76.544,25525.403824
1 Jan 2020 07:57:59.000,230.808,-76.703,25381.194271
1 Jan 2020 07:58:29.000,231.895,-76.869,25239.419920
1 Jan 2020 07:58:59.000,233.015,-77.043,25100.218054
1 Jan 2020 07:59:29.000,234.172,-77.225,24963.726434
1 Jan 2020 07:59:59.000,235.366,-77.414,24830.083093
1 Jan 2020 08:00:29.000,236.603,-77.609,24699.426129
1 Jan 2020 08:00:59.000,237.885,-77.811,24571.893470
1 Jan 2020 08:01:29.000,239.216,-78.019,24447.622387
1 Jan 2020 08:01:59.000,240.601,-78.233,24326.750235
1 Jan 2020 08:02:29.000,242.042,-78.452,24209.412677
1 Jan 2020 08:02:59.000,243.546,-78.676,24095.744414
1 Jan 2020 08:03:29.000,245.117,-78.903,23985.878636
1 Jan 2020 08:03:59.000,246.760,-79.134,23879.946718
1 Jan 2020 08:04:29.000,248.482,-79.367,23778.077903
1 Jan 2020 08:04:59.000,250.287,-79.602,23680.398975
1 Jan 2020 08:05:29.000,252.183,-79.837,23587.033753
1 Jan 2020 08:05:59.000,254.175,-80.072,23498.103478
1 Jan 2020 08:06:29.000,256.271,-80.306,23413.725361
1 Jan 2020 08:06:59.000,258.477,-80.537,23334.012986
1 Jan 2020 08:07:29.000,260.800,-80.764,23259.075777
1 Jan 2020 08:07:59.000,263.246,-80.985,23189.018652
1 Jan 2020 08:08:29.000,265.820,-81.199,23123.941680
1 Jan 2020 08:08:59.000,268.528,-81.404,23063.939640
1 Jan 2020 08:09:29.000,271.372,-81.599,23009.102148
1 Jan 2020 08:09:59.000,274.354,-81.781,22959.512640
1 Jan 2020 08:10:29.000,277.473,-81.949,22915.248554
1 Jan 2020 08:10:59.000,280.725,-82.101,22876.380917
1 Jan 2020 08:11:29.000,284.103,-82.235,22842.974084
1 Jan 2020 08:11:59.000,287.598,-82.350,22815.085450
1 Jan 2020 08:12:29.000,291.193,-82.444,22792.765394
1 Jan 2020 08:12:59.000,294.872,-82.515,22776.056816
1 Jan 2020 08:13:29.000,298.614,-82.563,22764.995155
1 Jan 2020 08:13:59.000,302.393,-82.586,22759.608196
1 Jan 2020 08:14:29.000,306.184,-82.585,22759.915956
1 Jan 2020 08:14:59.000,309.961,-82.559,22765.930640
1 Jan 2020 08:15:29.000,313.697,-82.508,22777.656462
1 Jan 2020 08:15:59.000,317.370,-82.434,22795.089796
1 Jan 2020 08:16:29.000,320.956,-82.337,22818.219094
1 Jan 2020 08:16:59.000,324.437,-82.219,22847.024945
1 Jan 2020 08:17:29.000,327.800,-82.081,22881.480160
1 Jan 2020 08:17:59.000,331.032,-81.924,22921.549980
1 Jan 2020 08:18:29.000,334.127,-81.752,22967.191805
1 Jan 2020 08:18:59.000,337.081,-81.565,23018.355954
1 Jan 2020 08:19:29.000,339.892,-81.365,23074.985473
1 Jan 2020 08:19:59.000,342.562,-81.155,23137.016441
1 Jan 2020 08:20:29.000,345.095,-80.935,23204.378209
1 Jan 2020 08:20:59.000,347.493,-80.708,23276.993821
1 Jan 2020 08:21:29.000,349.764,-80.475,23354.779652
1 Jan 2020 08:21:59.000,351.913,-80.238,23437.646640
1 Jan 2020 08:22:29.000,353.947,-79.998,23525.499977
1 Jan 2020 08:22:59.000,355.872,-79.757,23618.239571
1 Jan 2020 08:23:29.000,357.695,-79.515,23715.760376
1 Jan 2020 08:23:59.000,359.422,-79.274,23817.952717
1 Jan 2020 08:24:29.000,1.060,-79.034,23924.702856
1 Jan 2020 08:24:59.000,2.615,-78.797,24035.892408
1 Jan 2020 08:25:29.000,4.093,-78.564,24151.400042
1 Jan 2020 08:25:59.000,5.498,-78.335,24271.100910
1 Jan 2020 08:26:29.000,6.836,-78.111,24394.867193
1 Jan 2020 08:26:59.000,8.111,-77.892,24522.568431
1 Jan 2020 08:27:29.000,9.328,-77.679,24654.071826
1 Jan 2020 08:27:59.000,10.491,-77.473,24789.242554
1 Jan 2020 08:28:29.000,11.603,-77.274,24927.944058
1 Jan 2020 08:28:59.000,12.668,-77.082,25070.038628
1 Jan 2020 08:29:29.000,13.689,-76.898,25215.386490
1 Jan 2020 08:29:59.000,14.669,-76.722,25363.847838
1 Jan 2020 08:30:29.000,15.610,-76.554,25515.281901
1 Jan 2020 08:30:59.000,16.516,-76.395,25669.547479
1 Jan 2020 08:31:29.000,17.388,-76.244,25826.503159
1 Jan 2020 08:31:59.000,18.229,-76.102,25986.007523
1 Jan 2020 08:32:23.965,18.906,-75.991,26120.580804
1 Jan 2020 09:58:37.221,214.718,-75.990,26119.152667
1 Jan 2020 09:59:07.000,214.524,-76.139,25940.116521
1 Jan 2020 09:59:37.000,214.316,-76.302,25761.830863
1 Jan 2020 10:00:07.000,214.093,-76.477,25585.791658
1 Jan 2020 10:00:37.000,213.854,-76.664,25412.161987
1 Jan 2020 10:01:07.000,213.599,-76.863,25241.106251
1 Jan 2020 10:01:37.000,213.325,-77.075,25072.789977
1 Jan 2020 10:02:07.000,213.033,-77.299,24907.379603
1 Jan 2020 10:02:37.000,212.719,-77.536,24745.042243
1 Jan 2020 10:03:07.000,212.382,-77.784,24585.945431
1 Jan 2020 10:03:37.000,212.020,-78.045,24430.256852
1 Jan 2020 10:04:07.000,211.631,-78.318,24278.143728
1 Jan 2020 10:04:37.000,211.213,-78.603,24129.773764
1 Jan 2020 10:05:07.000,210.761,-78.900,23985.312911
1 Jan 2020 10:05:37.000,210.272,-79.208,23844.926284
1 Jan 2020 10:06:07.000,209.742,-79.528,23708.777465
1 Jan 2020 10:06:37.000,209.167,-79.858,23577.028110
1 Jan 2020 10:07:07.000,208.540,-80.200,23449.837533
1 Jan 2020 10:07:37.000,207.855,-80.551,23327.362038
1 Jan 2020 10:08:07.000,207.103,-80.913,23209.755462
1 Jan 2020 10:08:37.000,206.276,-81.284,23097.167224
1 Jan 2020 10:09:07.000,205.361,-81.663,22989.742865
1 Jan 2020 10:09:37.000,204.343,-82.051,22887.623329
1 Jan 2020 10:10:07.000,203.207,-82.445,22790.944478
1 Jan 2020 10:10:37.000,201.930,-82.846,22699.836436
1 Jan 2020 10:11:07.000,200.486,-83.252,22614.423868
1 Jan 2020 10:11:37.000,198.840,-83.662,22534.824359
1 Jan 2020 10:12:07.000,196.952,-84.073,22461.148738
1 Jan 2020 10:12:37.000,194.765,-84.485,22393.500431
1 Jan 2020 10:13:07.000,192.209,-84.895,22331.974925
1 Jan 2020 10:13:37.000,189.194,-85.299,22276.659837
1 Jan 2020 10:14:07.000,185.603,-85.693,22227.633805
1 Jan 2020 10:14:37.000,181.285,-86.072,22184.966641
1 Jan 2020 10:15:07.000,176.057,-86.429,22148.718887
1 Jan 2020 10:15:37.000,169.710,-86.755,22118.941485
1 Jan 2020 10:16:07.000,162.043,-87.035,22095.675783
1 Jan 2020 10:16:37.000,152.953,-87.255,22078.952953
1 Jan 2020 10:17:07.000,142.570,-87.399,22068.794118
1 Jan 2020 10:17:37.000,131.373,-87.452,22065.210178
1 Jan 2020 10:18:07.000,120.136,-87.408,22068.201765
1 Jan 2020 10:18:37.000,109.650,-87.273,22077.759221
1 Jan 2020 10:19:07.000,100.425,-87.059,22093.862652
1 Jan 2020 10:19:37.000,92.619,-86.784,22116.482024
1 Jan 2020 10:20:07.000,86.140,-86.464,22145.577308
1 Jan 2020 10:20:37.000,80.796,-86.110,22181.098729
1 Jan 2020 10:21:07.000,76.374,-85.734,22222.986726
1 Jan 2020 10:21:37.000,72.688,-85.343,22271.172618
1 Jan 2020 10:22:07.000,69.585,-84.941,22325.578659
1 Jan 2020 10:22:37.000,66.946,-84.534,22386.118446
1 Jan 2020 10:23:07.000,64.677,-84.125,22452.697416
1 Jan 2020 10:23:37.000,62.706,-83.715,22525.212762
1 Jan 2020 10:24:07.000,60.978,-83.308,22603.554574
1 Jan 2020 10:24:37.000,59.449,-82.904,22687.605819
1 Jan 2020 10:25:07.000,58.085,-82.506,22777.242914
1 Jan 2020 10:25:37.000,56.859,-82.113,22872.336197
1 Jan 2020 10:26:07.000,55.748,-81.728,22972.750607
1 Jan 2020 10:26:37.000,54.735,-81.351,23078.345373
1 Jan 2020 10:27:07.000,53.805,-80.982,23188.975667
1 Jan 2020 10:27:37.000,52.947,-80.622,23304.492316
1 Jan 2020 10:28:07.000,52.151,-80.272,23424.742456
1 Jan 2020 10:28:37.000,51.408,-79.933,23549.570001
1 Jan 2020 10:29:07.000,50.712,-79.603,23678.816087
1 Jan 2020 10:29:37.000,50.057,-79.285,23812.319768
1 Jan 2020 10:30:07.000,49.437,-78.978,23949.917423
1 Jan 2020 10:30:37.000,48.848,-78.682,24091.444663
1 Jan 2020 10:31:07.000,48.287,-78.398,24236.735719
1 Jan 2020 10:31:37.000,47.750,-78.126,24385.624056
1 Jan 2020 10:32:07.000,47.235,-77.865,24537.942716
1 Jan 2020 10:32:37.000,46.739,-77.617,24693.524639
1 Jan 2020 10:33:07.000,46.260,-77.380,24852.202972
1 Jan 2020 10:33:37.000,45.796,-77.156,25013.811341
1 Jan 2020 10:34:07.000,45.345,-76.943,25178.184118
1 Jan 2020 10:34:37.000,44.906,-76.743,25345.156663
1 Jan 2020 10:35:07.000,44.478,-76.555,25514.565864
1 Jan 2020 10:35:37.000,44.058,-76.378,25686.249039
1 Jan 2020 10:36:07.000,43.647,-76.213,25860.046069
1 Jan 2020 10:36:37.000,43.243,-76.061,26035.798262
1 Jan 2020 10:36:51.058,43.055,-75.993,26118.781850
1 Jan 2020 12:06:24.991,177.487,-75.986,26112.058627
1 Jan 2020 12:06:54.000,176.313,-76.092,25983.631550
1 Jan 2020 12:07:24.000,175.069,-76.207,25853.305917
1 Jan 2020 12:07:54.000,173.792,-76.327,25725.617636
1 Jan 2020 12:08:24.000,172.480,-76.451,25600.673704
1 Jan 2020 12:08:54.000,171.132,-76.580,25478.580144
1 Jan 2020 12:09:24.000,169.746,-76.713,25359.441838
1 Jan 2020 12:09:54.000,168.321,-76.850,25243.362352
1 Jan 2020 12:10:24.000,166.854,-76.990,25130.443748
1 Jan 2020 12:10:54.000,165.344,-77.132,25020.786408
1 Jan 2020 12:11:24.000,163.789,-77.277,24914.488617
1 Jan 2020 12:11:54.000,162.187,-77.424,24811.647249
1 Jan 2020 12:12:24.000,160.537,-77.573,24712.356245
1 Jan 2020 12:12:54.000,158.836,-77.722,24616.707302
1 Jan 2020 12:13:24.000,157.084,-77.872,24524.789446
1 Jan 2020 12:13:54.000,155.277,-78.021,24436.688830
1 Jan 2020 12:14:24.000,153.416,-78.169,24352.488533
1 Jan 2020 12:14:54.000,151.499,-78.315,24272.268359
1 Jan 2020 12:15:24.000,149.524,-78.459,24196.104469
1 Jan 2020 12:15:54.000,147.492,-78.600,24124.069871
1 Jan 2020 12:16:24.000,145.401,-78.737,24056.233192
1 Jan 2020 12:16:54.000,143.251,-78.869,23992.659194
1 Jan 2020 12:17:24.000,141.044,-78.996,23933.408421
1 Jan 2020 12:17:54.000,138.779,-79.117,23878.537027
1 Jan 2020 12:18:24.000,136.458,-79.231,23828.096622
1 Jan 2020 12:18:54.000,134.083,-79.337,23782.134018
1 Jan 2020 12:19:24.000,131.656,-79.435,23740.691507
1 Jan 2020 12:19:54.000,129.182,-79.524,23703.806104
1 Jan 2020 12:20:24.000,126.663,-79.603,23671.509864
1 Jan 2020 12:20:54.000,124.104,-79.672,23643.829683
1 Jan 2020 12:21:24.000,121.510,-79.730,23620.787208
1 Jan 2020 12:21:54.000,118.887,-79.777,23602.398780
1 Jan 2020 12:22:24.000,116.241,-79.812,23588.675344
1 Jan 2020 12:22:54.000,113.579,-79.836,23579.622577
1 Jan 2020 12:23:24.000,110.907,-79.847,23575.240621
1 Jan 2020 12:23:54.000,108.232,-79.846,23575.524268
1 Jan 2020 12:24:24.000,105.560,-79.834,23580.462928
1 Jan 2020 12:24:54.000,102.900,-79.809,23590.040671
1 Jan 2020 12:25:24.000,100.258,-79.773,23604.236277
1 Jan 2020 12:25:54.000,97.639,-79.725,23623.023350
1 Jan 2020 12:26:24.000,95.050,-79.667,23646.370271
1 Jan 2020 12:26:54.000,92.496,-79.598,23674.240480
1 Jan 2020 12:27:24.000,89.981,-79.519,23706.592487
1 Jan 2020 12:27:54.000,87.511,-79.431,23743.380024
1 Jan 2020 12:28:24.000,85.087,-79.334,23784.552195
1 Jan 2020 12:28:54.000,82.714,-79.229,23830.053630
1 Jan 2020 12:29:24.000,80.394,-79.117,23879.824744
1 Jan 2020 12:29:54.000,78.127,-78.998,23933.801548
1 Jan 2020 12:30:24.000,75.915,-78.874,23991.916373
1 Jan 2020 12:30:54.000,73.759,-78.745,24054.097712
1 Jan 2020 12:31:24.000,71.658,-78.611,24120.270499
1 Jan 2020 12:31:54.000,69.613,-78.474,24190.356320
1 Jan 2020 12:32:24.000,67.623,-78.334,24264.273614
1 Jan 2020 12:32:54.000,65.687,-78.192,24341.937882
1 Jan 2020 12:33:24.000,63.803,-78.048,24423.262056
1 Jan 2020 12:33:54.000,61.970,-77.904,24508.156092
1 Jan 2020 12:34:24.000,60.188,-77.759,24596.528092
1 Jan 2020 12:34:54.000,58.453,-77.614,24688.283913
1 Jan 2020 12:35:24.000,56.765,-77.471,24783.327519
1 Jan 2020 12:35:54.000,55.121,-77.329,24881.561182
1 Jan 2020 12:36:24.000,53.521,-77.188,24982.885683
1 Jan 2020 12:36:54.000,51.961,-77.050,25087.200503
1 Jan 2020 12:37:24.000,50.441,-76.915,25194.404009
1 Jan 2020 12:37:54.000,48.958,-76.782,25304.393636
1 Jan 2020 12:38:24.000,47.511,-76.653,25417.066066
1 Jan 2020 12:38:54.000,46.098,-76.528,25532.317620
1 Jan 2020 12:39:24.000,44.717,-76.407,25650.043509
1 Jan 2020 12:39:54.000,43.366,-76.290,25770.139348
1 Jan 2020 12:40:24.000,42.045,-76.177,25892.500403
1 Jan 2020 12:40:54.000,40.751,-76.070,26017.021951
1 Jan 2020 12:41:16.527,39.797,-75.992,26111.882187
1 Jan 2020 14:17:56.200,137.039,-75.987,26105.401748
1 Jan 2020 14:18:26.000,135.853,-76.097,25972.370420
1 Jan 2020 14:18:56.000,134.633,-76.213,25840.446323
1 Jan 2020 14:19:26.000,133.386,-76.336,25710.642108
1 Jan 2020 14:19:56.000,132.110,-76.464,25583.072081
1 Jan 2020 14:20:26.000,130.802,-76.597,25457.850875
1 Jan 2020 14:20:56.000,129.462,-76.735,25335.093302
1 Jan 2020 14:21:26.000,128.087,-76.878,25214.914196
1 Jan 2020 14:21:56.000,126.674,-77.025,25097.428246
1 Jan 2020 14:22:26.000,125.222,-77.176,24982.749819
1 Jan 2020 14:22:56.000,123.729,-77.331,24870.992776
1 Jan 2020 14:23:26.000,122.192,-77.490,24762.270276
1 Jan 2020 14:23:56.000,120.608,-77.651,24656.694363
1 Jan 2020 14:24:26.000,118.976,-77.814,24554.376605
1 Jan 2020 14:24:56.000,117.292,-77.980,24455.426589
1 Jan 2020 14:25:26.000,115.554,-78.146,24359.952560
1 Jan 2020 14:25:56.000,113.760,-78.313,24268.060969
1 Jan 2020 14:26:26.000,111.908,-78.481,24179.856234
1 Jan 2020 14:26:56.000,109.994,-78.647,24095.440502
1 Jan 2020 14:27:26.000,108.016,-78.812,24014.913396
1 Jan 2020 14:27:56.000,105.973,-78.974,23938.371634
1 Jan 2020 14:28:26.000,103.863,-79.134,23865.909335
1 Jan 2020 14:28:56.000,101.684,-79.289,23797.616917
1 Jan 2020 14:29:26.000,99.436,-79.440,23733.581422
1 Jan 2020 14:29:56.000,97.117,-79.584,23673.886126
1 Jan 2020 14:30:26.000,94.729,-79.722,23618.610297
1 Jan 2020 14:30:56.000,92.271,-79.852,23567.828955
1 Jan 2020 14:31:26.000,89.746,-79.974,23521.612568
1 Jan 2020 14:31:56.000,87.156,-80.086,23480.027148
1 Jan 2020 14:32:26.000,84.505,-80.187,23443.133551
1 Jan 2020 14:32:56.000,81.798,-80.277,23410.987613
1 Jan 2020 14:33:26.000,79.038,-80.355,23383.639880
1 Jan 2020 14:33:56.000,76.235,-80.419,23361.135437
1 Jan 2020 14:34:26.000,73.394,-80.471,23343.513755
1 Jan 2020 14:34:56.000,70.523,-80.508,23330.808542
1 Jan 2020 14:35:26.000,67.633,-80.531,23323.047672
1 Jan 2020 14:35:56.000,64.732,-80.540,23320.253001
1 Jan 2020 14:36:26.000,61.830,-80.533,23322.440353
1 Jan 2020 14:36:56.000,58.937,-80.512,23329.619446
1 Jan 2020 14:37:26.000,56.063,-80.476,23341.793848
1 Jan 2020 14:37:56.000,53.216,-80.426,23358.960964
1 Jan 2020 14:38:26.000,50.406,-80.362,23381.112113
1 Jan 2020 14:38:56.000,47.639,-80.285,23408.232284
1 Jan 2020 14:39:26.000,44.924,-80.195,23440.300568
1 Jan 2020 14:39:56.000,42.267,-80.094,23477.289984
1 Jan 2020 14:40:26.000,39.672,-79.981,23519.167624
1 Jan 2020 14:40:56.000,37.143,-79.858,23565.894761
1 Jan 2020 14:41:26.000,34.684,-79.726,23617.426975
1 Jan 2020 14:41:56.000,32.297,-79.586,23673.714434
1 Jan 2020 14:42:26.000,29.983,-79.438,23734.701507
1 Jan 2020 14:42:56.000,27.743,-79.284,23800.327746
1 Jan 2020 14:43:26.000,25.576,-79.125,23870.527540
1 Jan 2020 14:43:56.000,23.482,-78.961,23945.230448
1 Jan 2020 14:44:26.000,21.459,-78.794,24024.361408
1 Jan 2020 14:44:56.000,19.507,-78.624,24107.840951
1 Jan 2020 14:45:26.000,17.622,-78.452,24195.585431
1 Jan 2020 14:45:56.000,15.804,-78.279,24287.507471
1 Jan 2020 14:46:26.000,14.050,-78.106,24383.515340
1 Jan 2020 14:46:56.000,12.357,-77.934,24483.514468
1 Jan 2020 14:47:26.000,10.722,-77.763,24587.406842
1 Jan 2020 14:47:56.000,9.144,-77.593,24695.091458
1 Jan 2020 14:48:26.000,7.620,-77.426,24806.464557
1 Jan 2020 14:48:56.000,6.148,-77.262,24921.419865
1 Jan 2020 14:49:26.000,4.724,-77.102,25039.848825
1 Jan 2020 14:49:56.000,3.347,-76.946,25161.640827
1 Jan 2020 14:50:26.000,2.014,-76.794,25286.683689
1 Jan 2020 14:50:56.000,0.723,-76.646,25414.862861
1 Jan 2020 14:51:26.000,359.472,-76.504,25546.063148
1 Jan 2020 14:51:56.000,358.259,-76.368,25680.167917
1 Jan 2020 14:52:26.000,357.082,-76.237,25817.059538
1 Jan 2020 14:52:56.000,355.939,-76.113,25956.619579
1 Jan 2020 14:53:26.000,354.828,-75.995,26098.728987
1 Jan 2020 14:53:27.348,354.778,-75.989,26105.172114
1 Jan 2020 16:21:38.496,139.116,-75.989,26104.421631
1 Jan 2020 16:22:08.000,138.910,-76.137,25927.299752
1 Jan 2020 16:22:38.000,138.701,-76.300,25749.108696
1 Jan 2020 16:23:08.000,138.492,-76.475,25573.003685
1 Jan 2020 16:23:38.000,138.281,-76.662,25399.148065
1 Jan 2020 16:24:08.000,138.070,-76.863,25227.706864
1 Jan 2020 16:24:38.000,137.856,-77.075,25058.846619
1 Jan 2020 16:25:08.000,137.640,-77.301,24892.735173
1 Jan 2020 16:25:38.000,137.422,-77.539,24729.541458
1 Jan 2020 16:26:08.000,137.199,-77.790,24569.435250
1 Jan 2020 16:26:38.000,136.972,-78.053,24412.586917
1 Jan 2020 16:27:08.000,136.739,-78.330,24259.166834
1 Jan 2020 16:27:38.000,136.500,-78.618,24109.346267
1 Jan 2020 16:28:08.000,136.254,-78.920,23963.295258
1 Jan 2020 16:28:38.000,135.999,-79.234,23821.183477
1 Jan 2020 16:29:08.000,135.733,-79.560,23683.179551
1 Jan 2020 16:29:38.000,135.455,-79.899,23549.450669
1 Jan 2020 16:30:08.000,135.162,-80.249,23420.162179
1 Jan 2020 16:30:38.000,134.852,-80.611,23295.476915
1 Jan 2020 16:31:08.000,134.522,-80.985,23175.555714
1 Jan 2020 16:31:38.000,134.169,-81.369,23060.555498
1 Jan 2020 16:32:08.000,133.786,-81.765,22950.629779
1 Jan 2020 16:32:38.000,133.370,-82.171,22845.927927
1 Jan 2020 16:33:08.000,132.912,-82.586,22746.594671
1 Jan 2020 16:33:38.000,132.405,-83.012,22652.769425
1 Jan 2020 16:34:08.000,131.835,-83.446,22564.586524
1 Jan 2020 16:34:38.000,131.188,-83.888,22482.173599
1 Jan 2020 16:35:08.000,130.443,-84.338,22405.651849
1 Jan 2020 16:35:38.000,129.573,-84.795,22335.135369
1 Jan 2020 16:36:08.000,128.537,-85.258,22270.730565
1 Jan 2020 16:36:38.000,127.279,-85.726,22212.536177
1 Jan 2020 16:37:08.000,125.713,-86.198,22160.642136
1 Jan 2020 16:37:38.000,123.704,-86.672,22115.129657
1 Jan 2020 16:38:08.000,121.030,-87.144,22076.070750
1 Jan 2020 16:38:38.000,117.300,-87.613,22043.527832
1 Jan 2020 16:39:08.000,111.775,-88.070,22017.553678
1 Jan 2020 16:39:38.000,102.951,-88.501,21998.190796
1 Jan 2020 16:40:08.000,87.732,-88.872,21985.471486
1 Jan 2020 16:40:38.000,61.779,-89.100,21979.417618
1 Jan 2020 16:41:08.000,29.551,-89.074,21980.040540
1 Jan 2020 16:41:38.000,5.810,-88.809,21987.340990
1 Jan 2020 16:42:08.000,352.151,-88.422,22001.309116
1 Jan 2020 16:42:38.000,344.142,-87.984,22021.924528
1 Jan 2020 16:43:08.000,339.061,-87.524,22049.156386
1 Jan 2020 16:43:38.000,335.599,-87.054,22082.963633
1 Jan 2020 16:44:08.000,333.105,-86.580,22123.294890
1 Jan 2020 16:44:38.000,331.230,-86.106,22170.089124
1 Jan 2020 16:45:08.000,329.771,-85.634,22223.275665
1 Jan 2020 16:45:38.000,328.607,-85.166,22282.774590
1 Jan 2020 16:46:08.000,327.658,-84.704,22348.497222
1 Jan 2020 16:46:38.000,326.871,-84.247,22420.345990
1 Jan 2020 16:47:08.000,326.208,-83.797,22498.215628
1 Jan 2020 16:47:38.000,325.644,-83.356,22581.993110
1 Jan 2020 16:48:08.000,325.160,-82.922,22671.558238
1 Jan 2020 16:48:38.000,324.740,-82.498,22766.784119
1 Jan 2020 16:49:08.000,324.374,-82.083,22867.537871
1 Jan 2020 16:49:38.000,324.053,-81.678,22973.680267
1 Jan 2020 16:50:08.000,323.770,-81.283,23085.067493
1 Jan 2020 16:50:38.000,323.521,-80.900,23201.550815
1 Jan 2020 16:51:08.000,323.300,-80.527,23322.977278
1 Jan 2020 16:51:38.000,323.104,-80.167,23449.190192
1 Jan 2020 16:52:08.000,322.930,-79.818,23580.029605
1 Jan 2020 16:52:38.000,322.776,-79.481,23715.333038
1 Jan 2020 16:53:08.000,322.640,-79.156,23854.934847
1 Jan 2020 16:53:38.000,322.519,-78.843,23998.668269
1 Jan 2020 16:54:08.000,322.413,-78.544,24146.364764
1 Jan 2020 16:54:38.000,322.321,-78.256,24297.854669
1 Jan 2020 16:55:08.000,322.240,-77.982,24452.967574
1 Jan 2020 16:55:38.000,322.171,-77.720,24611.532665
1 Jan 2020 16:56:08.000,322.112,-77.471,24773.379056
1 Jan 2020 16:56:38.000,322.063,-77.235,24938.336094
1 Jan 2020 16:57:08.000,322.024,-77.012,25106.233641
1 Jan 2020 16:57:38.000,321.993,-76.802,25276.902669
1 Jan 2020 16:58:08.000,321.970,-76.604,25450.174186
1 Jan 2020 16:58:38.000,321.955,-76.419,25625.881420
1 Jan 2020 16:59:08.000,321.948,-76.246,25803.858717
1 Jan 2020 16:59:38.000,321.947,-76.086,25983.942048
1 Jan 2020 16:59:57.921,321.951,-75.987,26104.604923
1 Jan 2020 18:26:59.717,167.446,-75.992,26110.058375
1 Jan 2020 18:27:29.000,168.395,-76.116,25961.337403
1 Jan 2020 18:27:59.000,169.399,-76.250,25811.450448
1 Jan 2020 18:28:29.000,170.436,-76.391,25664.197929
1 Jan 2020 18:28:59.000,171.509,-76.540,25519.710528
1 Jan 2020 18:29:29.000,172.620,-76.696,25378.118472
1 Jan 2020 18:29:59.000,173.771,-76.858,25239.551328
1 Jan 2020 18:30:29.000,174.964,-77.027,25104.137792
1 Jan 2020 18:30:59.000,176.204,-77.201,24972.005460
1 Jan 2020 18:31:29.000,177.491,-77.382,24843.280597
1 Jan 2020 18:31:59.000,178.830,-77.567,24718.087632
1 Jan 2020 18:32:29.000,180.224,-77.757,24596.549944
1 Jan 2020 18:32:59.000,181.675,-77.952,24478.788035
1 Jan 2020 18:33:29.000,183.187,-78.149,24364.920311
1 Jan 2020 18:33:59.000,184.764,-78.350,24255.062544
1 Jan 2020 18:34:29.000,186.410,-78.552,24149.327594
1 Jan 2020 18:34:59.000,188.128,-78.756,24047.825122
1 Jan 2020 18:35:29.000,189.923,-78.961,23950.661112
1 Jan 2020 18:35:59.000,191.798,-79.165,23857.938376
1 Jan 2020 18:36:29.000,193.757,-79.367,23769.755065
1 Jan 2020 18:36:59.000,195.804,-79.568,23686.205198
1 Jan 2020 18:37:29.000,197.942,-79.764,23607.378177
1 Jan 2020 18:37:59.000,200.174,-79.956,23533.358514
1 Jan 2020 18:38:29.000,202.502,-80.143,23464.225568
1 Jan 2020 18:38:59.000,204.930,-80.322,23400.053136
1 Jan 2020 18:39:29.000,207.456,-80.493,23340.909832
1 Jan 2020 18:39:59.000,210.081,-80.654,23286.857913
1 Jan 2020 18:40:29.000,212.804,-80.804,23237.953706
1 Jan 2020 18:40:59.000,215.622,-80.942,23194.247251
1 Jan 2020 18:41:29.000,218.529,-81.067,23155.782122
1 Jan 2020 18:41:59.000,221.519,-81.176,23122.595204
1 Jan 2020 18:42:29.000,224.585,-81.270,23094.716866
1 Jan 2020 18:42:59.000,227.715,-81.347,23072.170371
1 Jan 2020 18:43:29.000,230.899,-81.407,23054.972122
1 Jan 2020 18:43:59.000,234.122,-81.448,23043.131522
1 Jan 2020 18:44:29.000,237.372,-81.471,23036.650938
1 Jan 2020 18:44:59.000,240.631,-81.475,23035.525684
1 Jan 2020 18:45:29.000,243.886,-81.460,23039.744098
1 Jan 2020 18:45:59.000,247.120,-81.426,23049.287488
1 Jan 2020 18:46:29.000,250.321,-81.374,23064.130283
1 Jan 2020 18:46:59.000,253.473,-81.305,23084.240109
1 Jan 2020 18:47:29.000,256.566,-81.219,23109.577913
1 Jan 2020 18:47:59.000,259.588,-81.117,23140.098160
1 Jan 2020 18:48:29.000,262.532,-81.000,23175.748806
1 Jan 2020 18:48:59.000,265.391,-80.870,23216.471767
1 Jan 2020 18:49:29.000,268.160,-80.727,23262.202955
1 Jan 2020 18:49:59.000,270.836,-80.573,23312.872539
1 Jan 2020 18:50:29.000,273.416,-80.410,23368.405197
1 Jan 2020 18:50:59.000,275.902,-80.238,23428.720364
1 Jan 2020 18:51:29.000,278.293,-80.060,23493.732635
1 Jan 2020 18:51:59.000,280.591,-79.875,23563.351530
1 Jan 2020 18:52:29.000,282.800,-79.685,23637.482532
1 Jan 2020 18:52:59.000,284.920,-79.492,23716.026886
1 Jan 2020 18:53:29.000,286.957,-79.296,23798.882019
1 Jan 2020 18:53:59.000,288.914,-79.098,23885.941831
1 Jan 2020 18:54:29.000,290.794,-78.900,23977.097001
1 Jan 2020 18:54:59.000,292.602,-78.702,24072.235275
1 Jan 2020 18:55:29.000,294.341,-78.506,24171.241962
1 Jan 2020 18:55:59.000,296.015,-78.310,24273.999445
1 Jan 2020 18:56:29.000,297.628,-78.118,24380.388617
1 Jan 2020 18:56:59.000,299.184,-77.928,24490.288396
1 Jan 2020 18:57:29.000,300.686,-77.742,24603.576185
1 Jan 2020 18:57:59.000,302.138,-77.560,24720.128130
1 Jan 2020 18:58:29.000,303.543,-77.382,24839.819369
1 Jan 2020 18:58:59.000,304.903,-77.210,24962.524278
1 Jan 2020 18:59:29.000,306.222,-77.043,25088.116692
1 Jan 2020 18:59:59.000,307.502,-76.881,25216.470131
1 Jan 2020 19:00:29.000,308.746,-76.726,25347.458002
1 Jan 2020 19:00:59.000,309.957,-76.577,25480.954056
1 Jan 2020 19:01:29.000,311.136,-76.434,25616.831542
1 Jan 2020 19:01:59.000,312.287,-76.298,25754.964914
1 Jan 2020 19:02:29.000,313.409,-76.168,25895.228974
1 Jan 2020 19:02:59.000,314.507,-76.046,26037.499274
1 Jan 2020 19:03:14.219,315.055,-75.987,26110.402749
1 Jan 2020 20:39:17.326,215.026,-75.993,26117.689856
1 Jan 2020 20:39:47.000,216.340,-76.091,25998.932625
1 Jan 2020 20:40:17.000,217.695,-76.194,25881.028582
1 Jan 2020 20:40:47.000,219.079,-76.300,25765.391221
1 Jan 2020 20:41:17.000,220.492,-76.411,25652.117140
1 Jan 2020 20:41:47.000,221.935,-76.525,25541.302588
1 Jan 2020 20:42:17.000,223.411,-76.642,25433.043331
1 Jan 2020 20:42:47.000,224.920,-76.762,25327.434512
1 Jan 2020 20:43:17.000,226.465,-76.885,25224.570506
1 Jan 2020 20:43:47.000,228.046,-77.009,25124.544770
1 Jan 2020 20:44:17.000,229.665,-77.136,25027.449684
1 Jan 2020 20:44:47.000,231.323,-77.264,24933.376393
1 Jan 2020 20:45:17.000,233.021,-77.393,24842.414451
1 Jan 2020 20:45:47.000,234.762,-77.522,24754.652423
1 Jan 2020 20:46:17.000,236.546,-77.651,24670.176539
1 Jan 2020 20:46:47.000,238.374,-77.780,24589.071314
1 Jan 2020 20:47:17.000,240.247,-77.907,24511.419165
1 Jan 2020 20:47:47.000,242.166,-78.033,24437.300235
1 Jan 2020 20:48:17.000,244.132,-78.157,24366.792213
1 Jan 2020 20:48:47.000,246.145,-78.278,24299.970155
1 Jan 2020 20:49:17.000,248.205,-78.395,24236.906308
1 Jan 2020 20:49:47.000,250.312,-78.509,24177.669807
1 Jan 2020 20:50:17.000,252.466,-78.617,24122.327002
1 Jan 2020 20:50:47.000,254.666,-78.721,24070.940529
1 Jan 2020 20:51:17.000,256.910,-78.818,24023.569660
1 Jan 2020 20:51:47.000,259.197,-78.910,23980.270013
1 Jan 2020 20:52:17.000,261.525,-78.994,23941.093400
1 Jan 2020 20:52:47.000,263.891,-79.070,23906.087683
1 Jan 2020 20:53:17.000,266.292,-79.138,23875.296636
1 Jan 2020 20:53:47.000,268.725,-79.198,23848.759774
1 Jan 2020 20:54:17.000,271.185,-79.248,23826.512433
1 Jan 2020 20:54:47.000,273.669,-79.290,23808.585355
1 Jan 2020 20:55:17.000,276.172,-79.321,23795.004812
1 Jan 2020 20:55:47.000,278.689,-79.342,23785.792468
1 Jan 2020 20:56:17.000,281.215,-79.354,23780.965311
1 Jan 2020 20:56:47.000,283.743,-79.354,23780.535603
1 Jan 2020 20:57:17.000,286.270,-79.345,23784.510856
1 Jan 2020 20:57:47.000,288.789,-79.325,23792.893734
1 Jan 2020 20:58:17.000,291.296,-79.296,23805.682139
1 Jan 2020 20:58:47.000,293.785,-79.256,23822.869161
1 Jan 2020 20:59:17.000,296.251,-79.207,23844.443101
1 Jan 2020 20:59:47.000,298.690,-79.148,23870.387509
1 Jan 2020 21:00:17.000,301.098,-79.081,23900.681225
1 Jan 2020 21:00:47.000,303.470,-79.005,23935.298523
1 Jan 2020 21:01:17.000,305.804,-78.921,23974.208864
1 Jan 2020 21:01:47.000,308.097,-78.830,24017.377444
1 Jan 2020 21:02:17.000,310.347,-78.731,24064.764994
1 Jan 2020 21:02:47.000,312.551,-78.627,24116.327955
1 Jan 2020 21:03:17.000,314.708,-78.517,24172.018604
1 Jan 2020 21:03:47.000,316.817,-78.402,24231.785175
1 Jan 2020 21:04:17.000,318.878,-78.283,24295.572002
1 Jan 2020 21:04:47.000,320.889,-78.160,24363.319815
1 Jan 2020 21:05:17.000,322.851,-78.034,24434.965283
1 Jan 2020 21:05:47.000,324.764,-77.906,24510.442074
1 Jan 2020 21:06:17.000,326.630,-77.776,24589.680424
1 Jan 2020 21:06:47.000,328.447,-77.644,24672.607453
1 Jan 2020 21:07:17.000,330.218,-77.512,24759.147330
1 Jan 2020 21:07:47.000,331.943,-77.379,24849.221449
1 Jan 2020 21:08:17.000,333.624,-77.247,24942.748602
1 Jan 2020 21:08:47.000,335.261,-77.116,25039.645151
1 Jan 2020 21:09:17.000,336.856,-76.986,25139.825415
1 Jan 2020 21:09:47.000,338.411,-76.858,25243.201009
1 Jan 2020 21:10:17.000,339.927,-76.733,25349.682252
1 Jan 2020 21:10:47.000,341.404,-76.609,25459.177516
1 Jan 2020 21:11:17.000,342.846,-76.489,25571.593599
1 Jan 2020 21:11:47.000,344.253,-76.372,25686.835883
1 Jan 2020 21:12:17.000,345.626,-76.259,25804.808494
1 Jan 2020 21:12:47.000,346.967,-76.150,25925.414456
1 Jan 2020 21:13:17.000,348.277,-76.045,26048.555837
1 Jan 2020 21:13:33.622,348.990,-75.989,26117.839622
1 Jan 2020 22:44:48.515,224.698,-75.991,26120.745054
1 Jan 2020 22:45:18.000,225.279,-76.131,25952.762737
1 Jan 2020 22:45:48.000,225.882,-76.284,25783.690263
1 Jan 2020 22:46:18.000,226.500,-76.448,25616.626364
1 Jan 2020 22:46:48.000,227.133,-76.623,25451.724792
1 Jan 2020 22:47:18.000,227.783,-76.809,25289.140860
1 Jan 2020 22:47:48.000,228.453,-77.006,25129.031274
1 Jan 2020 22:48:18.000,229.144,-77.214,24971.553942
1 Jan 2020 22:48:48.000,229.859,-77.433,24816.867779
1 Jan 2020 22:49:18.000,230.600,-77.662,24665.132479
1 Jan 2020 22:49:48.000,231.371,-77.903,24516.508278
1 Jan 2020 22:50:18.000,232.174,-78.153,24371.155429
1 Jan 2020 22:50:48.000,233.014,-78.414,24229.234987
1 Jan 2020 22:51:18.000,233.895,-78.686,24090.906909
1 Jan 2020 22:51:48.000,234.820,-78.967,23956.330806
1 Jan 2020 22:52:18.000,235.796,-79.257,23825.665346
1 Jan 2020 22:52:48.000,236.829,-79.556,23699.067891
1 Jan 2020 22:53:18.000,237.926,-79.865,23576.694132
1 Jan 2020 22:53:48.000,239.095,-80.181,23458.697487
1 Jan 2020 22:54:18.000,240.345,-80.504,23345.229547
1 Jan 2020 22:54:48.000,241.687,-80.835,23236.438375
1 Jan 2020 22:55:18.000,243.134,-81.171,23132.468945
1 Jan 2020 22:55:48.000,244.700,-81.512,23033.462480
1 Jan 2020 22:56:18.000,246.401,-81.857,22939.556012
1 Jan 2020 22:56:48.000,248.259,-82.204,22850.881774
1 Jan 2020 22:57:18.000,250.295,-82.553,22767.567392
1 Jan 2020 22:57:48.000,252.536,-82.901,22689.734455
1 Jan 2020 22:58:18.000,255.014,-83.245,22617.498735
1 Jan 2020 22:58:48.000,257.762,-83.585,22550.969585
1 Jan 2020 22:59:18.000,260.822,-83.916,22490.249513
1 Jan 2020 22:59:48.000,264.234,-84.236,22435.433672
1 Jan 2020 23:00:18.000,268.046,-84.540,22386.609900
1 Jan 2020 23:00:48.000,272.300,-84.824,22343.857696
1 Jan 2020 23:01:18.000,277.034,-85.082,22307.248330
1 Jan 2020 23:01:48.000,282.268,-85.310,22276.844425
1 Jan 2020 23:02:18.000,287.996,-85.500,22252.699646
1 Jan 2020 23:02:48.000,294.176,-85.646,22234.858601
1 Jan 2020 23:03:18.000,300.717,-85.743,22223.356417
1 Jan 2020 23:03:48.000,307.482,-85.788,22218.218740
1 Jan 2020 23:04:18.000,314.303,-85.777,22219.461579
1 Jan 2020 23:04:48.000,321.001,-85.712,22227.091260
1 Jan 2020 23:05:18.000,327.416,-85.594,22241.104288
1 Jan 2020 23:05:48.000,333.427,-85.430,22261.487513
1 Jan 2020 23:06:18.000,338.962,-85.224,22288.218103
1 Jan 2020 23:06:48.000,343.991,-84.982,22321.263669
1 Jan 2020 23:07:18.000,348.520,-84.711,22360.582501
1 Jan 2020 23:07:48.000,352.577,-84.416,22406.123409
1 Jan 2020 23:08:18.000,356.201,-84.103,22457.826454
1 Jan 2020 23:08:48.000,359.437,-83.776,22515.622889
1 Jan 2020 23:09:18.000,2.331,-83.437,22579.435533
1 Jan 2020 23:09:48.000,4.923,-83.092,22649.179098
1 Jan 2020 23:10:18.000,7.253,-82.742,22724.760723
1 Jan 2020 23:10:48.000,9.352,-82.390,22806.079643
1 Jan 2020 23:11:18.000,11.251,-82.037,22893.028633
1 Jan 2020 23:11:48.000,12.975,-81.686,22985.493733
1 Jan 2020 23:12:18.000,14.546,-81.338,23083.354848
1 Jan 2020 23:12:48.000,15.981,-80.994,23186.486176
1 Jan 2020 23:13:18.000,17.298,-80.656,23294.756877
1 Jan 2020 23:13:48.000,18.510,-80.324,23408.030635
1 Jan 2020 23:14:18.000,19.628,-79.998,23526.167399
1 Jan 2020 23:14:48.000,20.663,-79.681,23649.022965
1 Jan 2020 23:15:18.000,21.624,-79.372,23776.449620
1 Jan 2020 23:15:48.000,22.518,-79.072,23908.296564
1 Jan 2020 23:16:18.000,23.352,-78.781,24044.410319
1 Jan 2020 23:16:48.000,24.132,-78.501,24184.635129
1 Jan 2020 23:17:18.000,24.863,-78.230,24328.813649
1 Jan 2020 23:17:48.000,25.549,-77.970,24476.786098
1 Jan 2020 23:18:18.000,26.195,-77.721,24628.392422
1 Jan 2020 23:18:48.000,26.803,-77.483,24783.471427
1 Jan 2020 23:19:18.000,27.377,-77.256,24941.861389
1 Jan 2020 23:19:48.000,27.920,-77.040,25103.400357
1 Jan 2020 23:20:18.000,28.434,-76.836,25267.926427
1 Jan 2020 23:20:48.000,28.921,-76.643,25435.277999
1 Jan 2020 23:21:18.000,29.383,-76.461,25605.294023
1 Jan 2020 23:21:48.000,29.822,-76.291,25777.814218
1 Jan 2020 23:22:18.000,30.240,-76.132,25952.679273
1 Jan 2020 23:22:46.499,30.619,-75.992,26120.823778
2 Jan 2020 00:48:34.417,204.647,-75.988,26117.043833
2 Jan 2020 00:49:04.000,204.019,-76.128,25949.767796
2 Jan 2020 00:49:34.000,203.357,-76.279,25782.448649
2 Jan 2020 00:50:04.000,202.666,-76.441,25617.607699
2 Jan 2020 00:50:34.000,201.945,-76.612,25455.395886
2 Jan 2020 00:51:04.000,201.192,-76.794,25295.964595
2 Jan 2020 00:51:34.000,200.404,-76.986,25139.465435
2 Jan 2020 00:52:04.000,199.578,-77.187,24986.050021
2 Jan 2020 00:52:34.000,198.712,-77.397,24835.869726
2 Jan 2020 00:53:04.000,197.802,-77.617,24689.075423
2 Jan 2020 00:53:34.000,196.844,-77.845,24545.816932
2 Jan 2020 00:54:04.000,195.835,-78.083,24406.243859
2 Jan 2020 00:54:34.000,194.770,-78.328,24270.503586
2 Jan 2020 00:55:04.000,193.644,-78.580,24138.742095
2 Jan 2020 00:55:34.000,192.452,-78.840,24011.103348
2 Jan 2020 00:56:04.000,191.188,-79.107,23887.728943
2 Jan 2020 00:56:34.000,189.845,-79.379,23768.757756
2 Jan 2020 00:57:04.000,188.416,-79.656,23654.325345
2 Jan 2020 00:57:34.000,186.892,-79.937,23544.564508
2 Jan 2020 00:58:04.000,185.266,-80.222,23439.603492
2 Jan 2020 00:58:34.000,183.526,-80.509,23339.566552
2 Jan 2020 00:59:04.000,181.662,-80.797,23244.573334
2 Jan 2020 00:59:34.000,179.664,-81.084,23154.738481
2 Jan 2020 01:00:04.000,177.517,-81.369,23070.171083
2 Jan 2020 01:00:34.000,175.210,-81.651,22990.975000
2 Jan 2020 01:01:04.000,172.728,-81.928,22917.247426
2 Jan 2020 01:01:34.000,170.059,-82.197,22849.079256
2 Jan 2020 01:02:04.000,167.189,-82.456,22786.554562
2 Jan 2020 01:02:34.000,164.107,-82.702,22729.750274
2 Jan 2020 01:03:04.000,160.803,-82.935,22678.735754
2 Jan 2020 01:03:34.000,157.272,-83.149,22633.573008
2 Jan 2020 01:04:04.000,153.513,-83.343,22594.315687
2 Jan 2020 01:04:34.000,149.533,-83.514,22561.009373
2 Jan 2020 01:05:04.000,145.347,-83.658,22533.691262
2 Jan 2020 01:05:34.000,140.980,-83.773,22512.389953
2 Jan 2020 01:06:04.000,136.465,-83.858,22497.125530
2 Jan 2020 01:06:34.000,131.846,-83.910,22487.909157
2 Jan 2020 01:07:04.000,127.172,-83.928,22484.743255
2 Jan 2020 01:07:34.000,122.497,-83.912,22487.621426
2 Jan 2020 01:08:04.000,117.875,-83.862,22496.528499
2 Jan 2020 01:08:34.000,113.354,-83.779,22511.440557
2 Jan 2020 01:09:04.000,108.977,-83.666,22532.325075
2 Jan 2020 01:09:34.000,104.779,-83.525,22559.141045
2 Jan 2020 01:10:04.000,100.783,-83.357,22591.839155
2 Jan 2020 01:10:34.000,97.004,-83.166,22630.361991
2 Jan 2020 01:11:04.000,93.447,-82.956,22674.644367
2 Jan 2020 01:11:34.000,90.113,-82.727,22724.613244
2 Jan 2020 01:12:04.000,86.996,-82.485,22780.188526
2 Jan 2020 01:12:34.000,84.085,-82.231,22841.283053
2 Jan 2020 01:13:04.000,81.370,-81.967,22907.803015
2 Jan 2020 01:13:34.000,78.838,-81.695,22979.648307
2 Jan 2020 01:14:04.000,76.474,-81.419,23056.713047
2 Jan 2020 01:14:34.000,74.265,-81.139,23138.885374
2 Jan 2020 01:15:04.000,72.199,-80.858,23226.048691
2 Jan 2020 01:15:34.000,70.263,-80.576,23318.081502
2 Jan 2020 01:16:04.000,68.444,-80.295,23414.857945
2 Jan 2020 01:16:34.000,66.734,-80.016,23516.248189
2 Jan 2020 01:17:04.000,65.121,-79.740,23622.118827
2 Jan 2020 01:17:34.000,63.597,-79.469,23732.333479
2 Jan 2020 01:18:04.000,62.154,-79.202,23846.752338
2 Jan 2020 01:18:34.000,60.784,-78.941,23965.233780
2 Jan 2020 01:19:04.000,59.481,-78.686,24087.633917
2 Jan 2020 01:19:34.000,58.239,-78.438,24213.807141
2 Jan 2020 01:20:04.000,57.052,-78.197,24343.606467
2 Jan 2020 01:20:34.000,55.916,-77.964,24476.883858
2 Jan 2020 01:21:04.000,54.825,-77.739,24613.490526
2 Jan 2020 01:21:34.000,53.777,-77.523,24753.277233
2 Jan 2020 01:22:04.000,52.766,-77.315,24896.094559
2 Jan 2020 01:22:34.000,51.791,-77.116,25041.793457
2 Jan 2020 01:23:04.000,50.848,-76.926,25190.224347
2 Jan 2020 01:23:34.000,49.933,-76.745,25341.239050
2 Jan 2020 01:24:04.000,49.046,-76.574,25494.689871
2 Jan 2020 01:24:34.000,48.182,-76.412,25650.430069
2 Jan 2020 01:25:04.000,47.341,-76.259,25808.314043
2 Jan 2020 01:25:34.000,46.520,-76.116,25968.197487
2 Jan 2020 01:26:01.546,45.783,-75.993,26116.643428
2 Jan 2020 02:59:26.028,158.659,-75.986,26109.218598
2 Jan 2020 02:59:56.000,157.313,-76.083,25991.120443
2 Jan 2020 03:00:26.000,155.938,-76.185,25875.283332
2 Jan 2020 03:00:56.000,154.534,-76.289,25761.909953
2 Jan 2020 03:01:26.000,153.098,-76.397,25651.091848
2 Jan 2020 03:01:56.000,151.631,-76.509,25542.919692
2 Jan 2020 03:02:26.000,150.130,-76.622,25437.483164
2 Jan 2020 03:02:56.000,148.595,-76.738,25334.870804
2 Jan 2020 03:03:26.000,147.024,-76.857,25235.169868
2 Jan 2020 03:03:56.000,145.416,-76.976,25138.466183
2 Jan 2020 03:04:26.000,143.770,-77.097,25044.843995
2 Jan 2020 03:04:56.000,142.086,-77.219,24954.385623
2 Jan 2020 03:05:26.000,140.360,-77.341,24867.172078
2 Jan 2020 03:05:56.000,138.594,-77.463,24783.281732
2 Jan 2020 03:06:26.000,136.786,-77.584,24702.790954
2 Jan 2020 03:06:56.000,134.935,-77.704,24625.773744
2 Jan 2020 03:07:26.000,133.041,-77.823,24552.301580
2 Jan 2020 03:07:56.000,131.103,-77.939,24482.443259
2 Jan 2020 03:08:26.000,129.122,-78.053,24416.264742
2 Jan 2020 03:08:56.000,127.096,-78.163,24353.829002
2 Jan 2020 03:09:26.000,125.028,-78.269,24295.195739
2 Jan 2020 03:09:56.000,122.917,-78.371,24240.421776
2 Jan 2020 03:10:26.000,120.764,-78.468,24189.560097
2 Jan 2020 03:10:56.000,118.570,-78.560,24142.660271
2 Jan 2020 03:11:26.000,116.338,-78.645,24099.768180
2 Jan 2020 03:11:56.000,114.069,-78.724,24060.925901
2 Jan 2020 03:12:26.000,111.766,-78.795,24026.171596
2 Jan 2020 03:12:56.000,109.431,-78.860,23995.539403
2 Jan 2020 03:13:26.000,107.068,-78.916,23969.059298
2 Jan 2020 03:13:56.000,104.679,-78.964,23946.757236
2 Jan 2020 03:14:26.000,102.270,-79.003,23928.654719
2 Jan 2020 03:14:56.000,99.844,-79.033,23914.768991
2 Jan 2020 03:15:26.000,97.404,-79.055,23905.112919
2 Jan 2020 03:15:56.000,94.957,-79.067,23899.694961
2 Jan 2020 03:16:26.000,92.506,-79.070,23898.519142
2 Jan 2020 03:16:56.000,90.056,-79.063,23901.585039
2 Jan 2020 03:17:26.000,87.612,-79.047,23908.887810
2 Jan 2020 03:17:56.000,85.178,-79.022,23920.418134
2 Jan 2020 03:18:26.000,82.758,-78.988,23936.162327
2 Jan 2020 03:18:56.000,80.358,-78.945,23956.102336
2 Jan 2020 03:19:26.000,77.980,-78.893,23980.215799
2 Jan 2020 03:19:56.000,75.628,-78.834,24008.476107
2 Jan 2020 03:20:26.000,73.306,-78.767,24040.852480
2 Jan 2020 03:20:56.000,71.017,-78.692,24077.310055
2 Jan 2020 03:21:26.000,68.763,-78.611,24117.810070
2 Jan 2020 03:21:56.000,66.547,-78.523,24162.309615
2 Jan 2020 03:22:26.000,64.369,-78.430,24210.762270
2 Jan 2020 03:22:56.000,62.233,-78.331,24263.117884
2 Jan 2020 03:23:26.000,60.138,-78.228,24319.322792
2 Jan 2020 03:23:56.000,58.086,-78.121,24379.319951
2 Jan 2020 03:24:26.000,56.077,-78.010,24443.049081
2 Jan 2020 03:24:56.000,54.111,-77.896,24510.446813
2 Jan 2020 03:25:26.000,52.189,-77.779,24581.446842
2 Jan 2020 03:25:56.000,50.309,-77.661,24655.980245
2 Jan 2020 03:26:26.000,48.472,-77.541,24733.974988
2 Jan 2020 03:26:56.000,46.677,-77.420,24815.357048
2 Jan 2020 03:27:26.000,44.923,-77.299,24900.049941
2 Jan 2020 03:27:56.000,43.209,-77.178,24987.975035
2 Jan 2020 03:28:26.000,41.534,-77.057,25079.051712
2 Jan 2020 03:28:56.000,39.898,-76.937,25173.197527
2 Jan 2020 03:29:26.000,38.298,-76.819,25270.328362
2 Jan 2020 03:29:56.000,36.734,-76.703,25370.358580
2 Jan 2020 03:30:26.000,35.205,-76.588,25473.201179
2 Jan 2020 03:30:56.000,33.709,-76.476,25578.767939
2 Jan 2020 03:31:26.000,32.245,-76.367,25686.969788
2 Jan 2020 03:31:56.000,30.812,-76.261,25797.716055
2 Jan 2020 03:32:26.000,29.409,-76.158,25910.915931
2 Jan 2020 03:32:56.000,28.034,-76.059,26026.477721
2 Jan 2020 03:33:17.103,27.083,-75.992,26109.134247
2 Jan 2020 05:07:53.115,134.113,-75.987,26104.292351
2 Jan 2020 05:08:23.000,133.198,-76.116,25949.904504
2 Jan 2020 05:08:53.000,132.257,-76.253,25796.805732
2 Jan 2020 05:09:23.000,131.293,-76.399,25645.731106
2 Jan 2020 05:09:53.000,130.303,-76.554,25496.818278
2 Jan 2020 05:10:23.000,129.287,-76.717,25350.205992
2 Jan 2020 05:10:53.000,128.240,-76.888,25206.033915
2 Jan 2020 05:11:23.000,127.161,-77.067,25064.442468
2 Jan 2020 05:11:53.000,126.047,-77.253,24925.572628
2 Jan 2020 05:12:23.000,124.894,-77.448,24789.565729
2 Jan 2020 05:12:53.000,123.700,-77.650,24656.563242
2 Jan 2020 05:13:23.000,122.461,-77.858,24526.706537
2 Jan 2020 05:13:53.000,121.173,-78.074,24400.136386
2 Jan 2020 05:14:23.000,119.832,-78.295,24276.993712
2 Jan 2020 05:14:53.000,118.433,-78.522,24157.417778
2 Jan 2020 05:15:23.000,116.972,-78.755,24041.546930
2 Jan 2020 05:15:53.000,115.442,-78.991,23929.518025
2 Jan 2020 05:16:23.000,113.839,-79.232,23821.466123
2 Jan 2020 05:16:53.000,112.157,-79.476,23717.524155
2 Jan 2020 05:17:23.000,110.387,-79.722,23617.822586
2 Jan 2020 05:17:53.000,108.524,-79.969,23522.488886
2 Jan 2020 05:18:23.000,106.560,-80.216,23431.647927
2 Jan 2020 05:18:53.000,104.488,-80.462,23345.420485
2 Jan 2020 05:19:23.000,102.299,-80.706,23263.923646
2 Jan 2020 05:19:53.000,99.985,-80.946,23187.270254
2 Jan 2020 05:20:23.000,97.540,-81.181,23115.568547
2 Jan 2020 05:20:53.000,94.954,-81.409,23048.921693
2 Jan 2020 05:21:23.000,92.223,-81.628,22987.427884
2 Jan 2020 05:21:53.000,89.341,-81.837,22931.179312
2 Jan 2020 05:22:23.000,86.305,-82.033,22880.262299
2 Jan 2020 05:22:53.000,83.114,-82.214,22834.756868
2 Jan 2020 05:23:23.000,79.770,-82.379,22794.736440
2 Jan 2020 05:23:53.000,76.280,-82.526,22760.267501
2 Jan 2020 05:24:23.000,72.655,-82.652,22731.409564
2 Jan 2020 05:24:53.000,68.909,-82.755,22708.214586
2 Jan 2020 05:25:23.000,65.064,-82.834,22690.727007
2 Jan 2020 05:25:53.000,61.143,-82.888,22678.983500
2 Jan 2020 05:26:23.000,57.175,-82.916,22673.012824
2 Jan 2020 05:26:53.000,53.190,-82.916,22672.835728
2 Jan 2020 05:27:23.000,49.219,-82.890,22678.464788
2 Jan 2020 05:27:53.000,45.293,-82.838,22689.904450
2 Jan 2020 05:28:23.000,41.441,-82.760,22707.150956
2 Jan 2020 05:28:53.000,37.689,-82.657,22730.192373
2 Jan 2020 05:29:23.000,34.057,-82.531,22759.008641
2 Jan 2020 05:29:53.000,30.562,-82.384,22793.571746
2 Jan 2020 05:30:23.000,27.215,-82.218,22833.845469
2 Jan 2020 05:30:53.000,24.024,-82.035,22879.786063
2 Jan 2020 05:31:23.000,20.993,-81.836,22931.342086
2 Jan 2020 05:31:53.000,18.121,-81.624,22988.454681
2 Jan 2020 05:32:23.000,15.405,-81.401,23051.057808
2 Jan 2020 05:32:53.000,12.841,-81.169,23119.078653
2 Jan 2020 05:33:23.000,10.423,-80.929,23192.437278
2 Jan 2020 05:33:53.000,8.143,-80.684,23271.047827
2 Jan 2020 05:34:23.000,5.994,-80.434,23354.818235
2 Jan 2020 05:34:53.000,3.968,-80.182,23443.650697
2 Jan 2020 05:35:23.000,2.058,-79.929,23537.442000
2 Jan 2020 05:35:53.000,0.254,-79.676,23636.083858
2 Jan 2020 05:36:23.000,358.551,-79.423,23739.463502
2 Jan 2020 05:36:53.000,356.940,-79.173,23847.463090
2 Jan 2020 05:37:23.000,355.416,-78.926,23959.961447
2 Jan 2020 05:37:53.000,353.971,-78.683,24076.833495
2 Jan 2020 05:38:23.000,352.601,-78.444,24197.950832
2 Jan 2020 05:38:53.000,351.299,-78.211,24323.182068
2 Jan 2020 05:39:23.000,350.061,-77.984,24452.393161
2 Jan 2020 05:39:53.000,348.882,-77.763,24585.447746
2 Jan 2020 05:40:23.000,347.758,-77.549,24722.207721
2 Jan 2020 05:40:53.000,346.685,-77.342,24862.532468
2 Jan 2020 05:41:23.000,345.659,-77.144,25006.280768
2 Jan 2020 05:41:53.000,344.677,-76.953,25153.310010
2 Jan 2020 05:42:23.000,343.737,-76.771,25303.476724
2 Jan 2020 05:42:53.000,342.834,-76.598,25456.636842
2 Jan 2020 05:43:23.000,341.968,-76.433,25612.645933
2 Jan 2020 05:43:53.000,341.134,-76.278,25771.359436
2 Jan 2020 05:44:23.000,340.332,-76.131,25932.632871
2 Jan 2020 05:44:53.000,339.559,-75.994,26096.322040
2 Jan 2020 05:44:54.403,339.524,-75.988,26104.032231
2 Jan 2020 07:11:01.397,146.312,-75.990,26105.827157
2 Jan 2020 07:11:31.000,146.558,-76.138,25928.480848
2 Jan 2020 07:12:01.000,146.824,-76.300,25750.855134
2 Jan 2020 07:12:31.000,147.106,-76.475,25575.504841
2 Jan 2020 07:13:01.000,147.405,-76.661,25402.592724
2 Jan 2020 07:13:31.000,147.724,-76.860,25232.282779
2 Jan 2020 07:14:01.000,148.064,-77.070,25064.740051
2 Jan 2020 07:14:31.000,148.425,-77.293,24900.130406
2 Jan 2020 07:15:01.000,148.811,-77.528,24738.620300
2 Jan 2020 07:15:31.000,149.223,-77.775,24580.376520
2 Jan 2020 07:16:01.000,149.663,-78.034,24425.565901
2 Jan 2020 07:16:31.000,150.135,-78.305,24274.354719
2 Jan 2020 07:17:01.000,150.641,-78.587,24126.909636
2 Jan 2020 07:17:31.000,151.186,-78.881,23983.395450
2 Jan 2020 07:18:01.000,151.772,-79.186,23843.976019
2 Jan 2020 07:18:31.000,152.406,-79.502,23708.813561
2 Jan 2020 07:19:01.000,153.092,-79.828,23578.068257
2 Jan 2020 07:19:31.000,153.837,-80.165,23451.897841
2 Jan 2020 07:20:01.000,154.648,-80.512,23330.456925
2 Jan 2020 07:20:31.000,155.536,-80.867,23213.897552
2 Jan 2020 07:21:01.000,156.510,-81.231,23102.367238
2 Jan 2020 07:21:31.000,157.583,-81.603,22996.009522
2 Jan 2020 07:22:01.000,158.771,-81.982,22894.963248
2 Jan 2020 07:22:31.000,160.093,-82.367,22799.362085
2 Jan 2020 07:23:01.000,161.571,-82.757,22709.333878
2 Jan 2020 07:23:31.000,163.234,-83.151,22625.000930
2 Jan 2020 07:24:01.000,165.116,-83.547,22546.478395
2 Jan 2020 07:24:31.000,167.260,-83.943,22473.874603
2 Jan 2020 07:25:01.000,169.719,-84.336,22407.290433
2 Jan 2020 07:25:31.000,172.560,-84.725,22346.818775
2 Jan 2020 07:26:01.000,175.866,-85.105,22292.544616
2 Jan 2020 07:26:31.000,179.734,-85.473,22244.543947
2 Jan 2020 07:27:01.000,184.283,-85.821,22202.883918
2 Jan 2020 07:27:31.000,189.641,-86.143,22167.622417
2 Jan 2020 07:28:01.000,195.931,-86.430,22138.807745
2 Jan 2020 07:28:31.000,203.236,-86.670,22116.478637
2 Jan 2020 07:29:01.000,211.540,-86.852,22100.663698
2 Jan 2020 07:29:31.000,220.663,-86.965,22091.381536
2 Jan 2020 07:30:01.000,230.237,-86.998,22088.640603
2 Jan 2020 07:30:31.000,239.768,-86.951,22092.439164
2 Jan 2020 07:31:01.000,248.774,-86.827,22102.765283
2 Jan 2020 07:31:31.000,256.921,-86.634,22119.596892
2 Jan 2020 07:32:01.000,264.060,-86.386,22142.901895
2 Jan 2020 07:32:31.000,270.200,-86.094,22172.638319
2 Jan 2020 07:33:01.000,275.432,-85.768,22208.754578
2 Jan 2020 07:33:31.000,279.883,-85.418,22251.189435
2 Jan 2020 07:34:01.000,283.681,-85.050,22299.872672
2 Jan 2020 07:34:31.000,286.940,-84.670,22354.725158
2 Jan 2020 07:35:01.000,289.756,-84.283,22415.659252
2 Jan 2020 07:35:31.000,292.208,-83.891,22482.579307
2 Jan 2020 07:36:01.000,294.360,-83.498,22555.381588
2 Jan 2020 07:36:31.000,296.264,-83.105,22633.955408
2 Jan 2020 07:37:01.000,297.960,-82.715,22718.183114
2 Jan 2020 07:37:31.000,299.483,-82.329,22807.940652
2 Jan 2020 07:38:01.000,300.858,-81.948,22903.098040
2 Jan 2020 07:38:31.000,302.109,-81.574,23003.520041
2 Jan 2020 07:39:01.000,303.253,-81.206,23109.065855
2 Jan 2020 07:39:31.000,304.306,-80.847,23219.590756
2 Jan 2020 07:40:01.000,305.280,-80.496,23334.945805
2 Jan 2020 07:40:31.000,306.185,-80.154,23454.978499
2 Jan 2020 07:41:01.000,307.030,-79.822,23579.533231
2 Jan 2020 07:41:31.000,307.823,-79.500,23708.451730
2 Jan 2020 07:42:01.000,308.571,-79.189,23841.573743
2 Jan 2020 07:42:31.000,309.278,-78.888,23978.736456
2 Jan 2020 07:43:01.000,309.949,-78.598,24119.776366
2 Jan 2020 07:43:31.000,310.588,-78.320,24264.528680
2 Jan 2020 07:44:01.000,311.200,-78.053,24412.827919
2 Jan 2020 07:44:31.000,311.786,-77.798,24564.508253
2 Jan 2020 07:45:01.000,312.350,-77.554,24719.403819
2 Jan 2020 07:45:31.000,312.895,-77.322,24877.349015
2 Jan 2020 07:46:01.000,313.422,-77.102,25038.178779
2 Jan 2020 07:46:31.000,313.933,-76.894,25201.728843
2 Jan 2020 07:47:01.000,314.431,-76.697,25367.835965
2 Jan 2020 07:47:31.000,314.916,-76.512,25536.338469
2 Jan 2020 07:48:01.000,315.389,-76.339,25707.075162
2 Jan 2020 07:48:31.000,315.854,-76.178,25879.887418
2 Jan 2020 07:49:01.000,316.309,-76.028,26054.618077
2 Jan 2020 07:49:09.786,316.441,-75.986,26106.133286
2 Jan 2020 09:19:11.111,184.778,-75.993,26113.020907
2 Jan 2020 09:19:41.000,186.014,-76.100,25983.113553
2 Jan 2020 09:20:11.000,187.285,-76.213,25855.244592
2 Jan 2020 09:20:41.000,188.588,-76.330,25730.006666
2 Jan 2020 09:21:11.000,189.926,-76.452,25607.504081
2 Jan 2020 09:21:41.000,191.299,-76.578,25487.840124
2 Jan 2020 09:22:11.000,192.710,-76.707,25371.116901
2 Jan 2020 09:22:41.000,194.160,-76.840,25257.435162
2 Jan 2020 09:23:11.000,195.650,-76.976,25146.894129
2 Jan 2020 09:23:41.000,197.183,-77.115,25039.591313
2 Jan 2020 09:24:11.000,198.760,-77.255,24935.622118
2 Jan 2020 09:24:41.000,200.382,-77.398,24835.080512
2 Jan 2020 09:25:11.000,202.052,-77.541,24738.057536
2 Jan 2020 09:25:41.000,203.770,-77.685,24644.641988
2 Jan 2020 09:26:11.000,205.539,-77.829,24554.920004
