STKdata/stk_70fov_4leo/Satellite-MEO_Satellite10103-To-Satellite-LEO_Satellite10000 AER.csv

"Time (UTCG)","Azimuth (deg)","Elevation (deg)","Range (km)"
1 Jan 2020 01:20:51.788,51.766,-75.992,26118.164580
1 Jan 2020 01:21:21.000,50.674,-76.134,25947.973341
1 Jan 2020 01:21:51.000,49.521,-76.291,25775.766623
1 Jan 2020 01:22:21.000,48.333,-76.458,25606.393126
1 Jan 2020 01:22:51.000,47.106,-76.635,25440.081899
1 Jan 2020 01:23:21.000,45.837,-76.823,25277.063520
1 Jan 2020 01:23:51.000,44.520,-77.020,25117.569676
1 Jan 2020 01:24:21.000,43.153,-77.226,24961.832715
1 Jan 2020 01:24:51.000,41.730,-77.442,24810.085149
1 Jan 2020 01:25:21.000,40.245,-77.665,24662.558912
1 Jan 2020 01:25:51.000,38.693,-77.897,24519.485680
1 Jan 2020 01:26:21.000,37.068,-78.135,24381.094928
1 Jan 2020 01:26:51.000,35.363,-78.379,24247.614194
1 Jan 2020 01:27:21.000,33.570,-78.628,24119.268182
1 Jan 2020 01:27:51.000,31.684,-78.881,23996.278067
1 Jan 2020 01:28:21.000,29.694,-79.136,23878.860584
1 Jan 2020 01:28:51.000,27.594,-79.392,23767.227985
1 Jan 2020 01:29:21.000,25.375,-79.648,23661.586199
1 Jan 2020 01:29:51.000,23.027,-79.902,23562.134764
1 Jan 2020 01:30:21.000,20.544,-80.152,23469.065852
1 Jan 2020 01:30:51.000,17.916,-80.396,23382.563355
1 Jan 2020 01:31:21.000,15.138,-80.631,23302.802570
1 Jan 2020 01:31:51.000,12.204,-80.855,23229.948680
1 Jan 2020 01:32:21.000,9.110,-81.066,23164.156499
1 Jan 2020 01:32:51.000,5.857,-81.262,23105.569602
1 Jan 2020 01:33:21.000,2.448,-81.439,23054.319568
1 Jan 2020 01:33:51.000,358.890,-81.595,23010.525585
1 Jan 2020 01:34:21.000,355.195,-81.727,22974.293423
1 Jan 2020 01:34:51.000,351.382,-81.834,22945.715183
1 Jan 2020 01:35:21.000,347.473,-81.914,22924.868728
1 Jan 2020 01:35:51.000,343.495,-81.964,22911.817297
1 Jan 2020 01:36:21.000,339.479,-81.985,22906.609112
1 Jan 2020 01:36:51.000,335.457,-81.974,22909.277168
1 Jan 2020 01:37:21.000,331.464,-81.934,22919.839100
1 Jan 2020 01:37:51.000,327.531,-81.863,22938.296905
1 Jan 2020 01:38:21.000,323.687,-81.764,22964.637201
1 Jan 2020 01:38:51.000,319.959,-81.638,22998.831160
1 Jan 2020 01:39:21.000,316.365,-81.487,23040.834808
1 Jan 2020 01:39:51.000,312.922,-81.314,23090.588903
1 Jan 2020 01:40:21.000,309.640,-81.121,23148.019824
1 Jan 2020 01:40:51.000,306.523,-80.910,23213.039620
1 Jan 2020 01:41:21.000,303.575,-80.685,23285.546578
1 Jan 2020 01:41:51.000,300.792,-80.447,23365.425952
1 Jan 2020 01:42:21.000,298.171,-80.200,23452.549811
1 Jan 2020 01:42:51.000,295.706,-79.945,23546.778787
1 Jan 2020 01:43:21.000,293.390,-79.685,23647.962041
1 Jan 2020 01:43:51.000,291.214,-79.421,23755.938155
1 Jan 2020 01:44:21.000,289.171,-79.157,23870.536114
1 Jan 2020 01:44:51.000,287.251,-78.893,23991.575146
1 Jan 2020 01:45:21.000,285.447,-78.631,24118.866855
1 Jan 2020 01:45:51.000,283.750,-78.373,24252.215097
1 Jan 2020 01:46:21.000,282.152,-78.119,24391.416979
1 Jan 2020 01:46:51.000,280.648,-77.872,24536.263615
1 Jan 2020 01:47:21.000,279.229,-77.631,24686.541168
1 Jan 2020 01:47:51.000,277.889,-77.398,24842.030419
1 Jan 2020 01:48:21.000,276.622,-77.174,25002.509195
1 Jan 2020 01:48:51.000,275.424,-76.959,25167.751904
1 Jan 2020 01:49:21.000,274.289,-76.755,25337.530464
1 Jan 2020 01:49:51.000,273.213,-76.560,25511.614921
1 Jan 2020 01:50:21.000,272.191,-76.377,25689.774024
1 Jan 2020 01:50:51.000,271.219,-76.205,25871.775774
1 Jan 2020 01:51:21.000,270.295,-76.045,26057.388259
1 Jan 2020 01:51:30.665,270.006,-75.996,26117.915670
1 Jan 2020 03:06:31.479,86.343,-75.988,26111.156222
1 Jan 2020 03:07:01.000,87.023,-76.150,25918.084335
1 Jan 2020 03:07:31.000,87.753,-76.328,25725.118182
1 Jan 2020 03:08:01.000,88.526,-76.520,25535.654884
1 Jan 2020 03:08:31.000,89.345,-76.725,25349.936863
1 Jan 2020 03:09:01.000,90.215,-76.943,25168.207101
1 Jan 2020 03:09:31.000,91.139,-77.173,24990.708631
1 Jan 2020 03:10:01.000,92.122,-77.416,24817.684005
1 Jan 2020 03:10:31.000,93.171,-77.671,24649.374403
1 Jan 2020 03:11:01.000,94.290,-77.937,24486.020218
1 Jan 2020 03:11:31.000,95.486,-78.214,24327.858575
1 Jan 2020 03:12:01.000,96.768,-78.500,24175.123845
1 Jan 2020 03:12:31.000,98.144,-78.795,24028.046607
1 Jan 2020 03:13:01.000,99.623,-79.099,23886.852876
1 Jan 2020 03:13:31.000,101.215,-79.408,23751.763036
1 Jan 2020 03:14:01.000,102.933,-79.724,23622.992114
1 Jan 2020 03:14:31.000,104.788,-80.043,23500.747278
1 Jan 2020 03:15:01.000,106.797,-80.364,23385.228109
1 Jan 2020 03:15:31.000,108.972,-80.685,23276.625451
1 Jan 2020 03:16:01.000,111.332,-81.004,23175.120362
1 Jan 2020 03:16:31.000,113.893,-81.318,23080.884092
1 Jan 2020 03:17:01.000,116.673,-81.625,22994.075993
1 Jan 2020 03:17:31.000,119.689,-81.921,22914.843575
1 Jan 2020 03:18:01.000,122.955,-82.203,22843.321398
1 Jan 2020 03:18:31.000,126.485,-82.468,22779.630888
1 Jan 2020 03:19:01.000,130.286,-82.711,22723.878855
1 Jan 2020 03:19:31.000,134.356,-82.928,22676.157451
1 Jan 2020 03:20:01.000,138.686,-83.116,22636.543422
1 Jan 2020 03:20:31.000,143.252,-83.269,22605.097997
1 Jan 2020 03:21:01.000,148.018,-83.386,22581.865992
1 Jan 2020 03:21:31.000,152.936,-83.463,22566.875904
1 Jan 2020 03:22:01.000,157.943,-83.498,22560.139612
1 Jan 2020 03:22:31.000,162.973,-83.490,22561.652413
1 Jan 2020 03:23:01.000,167.957,-83.440,22571.392836
1 Jan 2020 03:23:31.000,172.828,-83.349,22589.322907
1 Jan 2020 03:24:01.000,177.533,-83.220,22615.388348
1 Jan 2020 03:24:31.000,182.026,-83.055,22649.518777
1 Jan 2020 03:25:01.000,186.278,-82.858,22691.628241
1 Jan 2020 03:25:31.000,190.272,-82.634,22741.615621
1 Jan 2020 03:26:01.000,194.003,-82.387,22799.365281
1 Jan 2020 03:26:31.000,197.474,-82.120,22864.747386
1 Jan 2020 03:27:01.000,200.695,-81.837,22937.619042
1 Jan 2020 03:27:31.000,203.679,-81.542,23017.824756
1 Jan 2020 03:28:01.000,206.444,-81.238,23105.197286
1 Jan 2020 03:28:31.000,209.006,-80.928,23199.558632
1 Jan 2020 03:29:01.000,211.382,-80.615,23300.720246
1 Jan 2020 03:29:31.000,213.591,-80.301,23408.484837
1 Jan 2020 03:30:01.000,215.648,-79.987,23522.646635
1 Jan 2020 03:30:31.000,217.567,-79.677,23642.992416
1 Jan 2020 03:31:01.000,219.363,-79.370,23769.302565
1 Jan 2020 03:31:31.000,221.048,-79.070,23901.351166
1 Jan 2020 03:32:01.000,222.633,-78.776,24038.907968
1 Jan 2020 03:32:31.000,224.128,-78.491,24181.738449
1 Jan 2020 03:33:01.000,225.542,-78.214,24329.604783
1 Jan 2020 03:33:31.000,226.884,-77.947,24482.266578
1 Jan 2020 03:34:01.000,228.160,-77.690,24639.481592
1 Jan 2020 03:34:31.000,229.378,-77.445,24801.006662
1 Jan 2020 03:35:01.000,230.543,-77.210,24966.597274
1 Jan 2020 03:35:31.000,231.661,-76.987,25136.009731
1 Jan 2020 03:36:01.000,232.736,-76.776,25309.000648
1 Jan 2020 03:36:31.000,233.773,-76.578,25485.327714
1 Jan 2020 03:37:01.000,234.775,-76.392,25664.750155
1 Jan 2020 03:37:31.000,235.747,-76.218,25847.029146
1 Jan 2020 03:38:01.000,236.690,-76.057,26031.928198
1 Jan 2020 03:38:13.685,237.082,-75.993,26110.840341
1 Jan 2020 07:52:19.343,327.103,-75.986,26104.805914
1 Jan 2020 07:52:49.000,328.659,-76.095,25972.712656
1 Jan 2020 07:53:19.000,330.272,-76.210,25842.184954
1 Jan 2020 07:53:49.000,331.924,-76.329,25714.963747
1 Jan 2020 07:54:19.000,333.619,-76.452,25591.243518
1 Jan 2020 07:54:49.000,335.358,-76.579,25471.217684
1 Jan 2020 07:55:19.000,337.143,-76.708,25355.078139
1 Jan 2020 07:55:49.000,338.977,-76.840,25243.014775
1 Jan 2020 07:56:19.000,340.862,-76.973,25135.214989
1 Jan 2020 07:56:49.000,342.800,-77.106,25031.863015
1 Jan 2020 07:57:19.000,344.791,-77.240,24933.139991
1 Jan 2020 07:57:49.000,346.839,-77.372,24839.222511
1 Jan 2020 07:58:19.000,348.942,-77.502,24750.282677
1 Jan 2020 07:58:49.000,351.103,-77.630,24666.487384
1 Jan 2020 07:59:19.000,353.322,-77.754,24587.997753
1 Jan 2020 07:59:49.000,355.598,-77.873,24514.968480
1 Jan 2020 08:00:19.000,357.930,-77.987,24447.547614
1 Jan 2020 08:00:49.000,0.318,-78.094,24385.875478
1 Jan 2020 08:01:19.000,2.758,-78.193,24330.084484
1 Jan 2020 08:01:49.000,5.248,-78.284,24280.298517
1 Jan 2020 08:02:19.000,7.785,-78.365,24236.632403
1 Jan 2020 08:02:49.000,10.363,-78.436,24199.191563
1 Jan 2020 08:03:19.000,12.978,-78.496,24168.071353
1 Jan 2020 08:03:49.000,15.624,-78.544,24143.356807
1 Jan 2020 08:04:19.000,18.294,-78.580,24125.122229
1 Jan 2020 08:04:49.000,20.981,-78.603,24113.430884
1 Jan 2020 08:05:19.000,23.678,-78.613,24108.334641
1 Jan 2020 08:05:49.000,26.376,-78.610,24109.873844
1 Jan 2020 08:06:19.000,29.068,-78.594,24118.077075
1 Jan 2020 08:06:49.000,31.746,-78.564,24132.961045
1 Jan 2020 08:07:19.000,34.403,-78.522,24154.530596
1 Jan 2020 08:07:49.000,37.031,-78.467,24182.778392
1 Jan 2020 08:08:19.000,39.623,-78.400,24217.685396
1 Jan 2020 08:08:49.000,42.173,-78.322,24259.220683
1 Jan 2020 08:09:19.000,44.676,-78.233,24307.341665
1 Jan 2020 08:09:49.000,47.126,-78.135,24361.994423
1 Jan 2020 08:10:19.000,49.520,-78.028,24423.113441
1 Jan 2020 08:10:49.000,51.854,-77.913,24490.622667
1 Jan 2020 08:11:19.000,54.127,-77.791,24564.435358
1 Jan 2020 08:11:49.000,56.336,-77.663,24644.454586
1 Jan 2020 08:12:19.000,58.480,-77.530,24730.573822
1 Jan 2020 08:12:49.000,60.558,-77.394,24822.676710
1 Jan 2020 08:13:19.000,62.571,-77.255,24920.638541
1 Jan 2020 08:13:49.000,64.519,-77.114,25024.326094
1 Jan 2020 08:14:19.000,66.402,-76.972,25133.598308
1 Jan 2020 08:14:49.000,68.223,-76.831,25248.306812
1 Jan 2020 08:15:19.000,69.983,-76.691,25368.296692
1 Jan 2020 08:15:49.000,71.683,-76.552,25493.406107
1 Jan 2020 08:16:19.000,73.324,-76.417,25623.468204
1 Jan 2020 08:16:49.000,74.910,-76.285,25758.310747
1 Jan 2020 08:17:19.000,76.442,-76.157,25897.756874
1 Jan 2020 08:17:49.000,77.923,-76.034,26041.625614
1 Jan 2020 08:18:01.909,78.544,-75.982,26104.845172
1 Jan 2020 09:34:14.497,283.215,-75.990,26111.175723
1 Jan 2020 09:34:44.000,283.129,-76.163,25906.300161
1 Jan 2020 09:35:14.000,283.026,-76.354,25700.664056
1 Jan 2020 09:35:44.000,282.905,-76.562,25497.990403
1 Jan 2020 09:36:14.000,282.767,-76.786,25298.533646
1 Jan 2020 09:36:44.000,282.609,-77.027,25102.550684
1 Jan 2020 09:37:14.000,282.430,-77.285,24910.300456
1 Jan 2020 09:37:44.000,282.229,-77.560,24722.043480
1 Jan 2020 09:38:14.000,282.002,-77.851,24538.041337
1 Jan 2020 09:38:44.000,281.749,-78.159,24358.555792
1 Jan 2020 09:39:14.000,281.465,-78.484,24183.849471
1 Jan 2020 09:39:44.000,281.148,-78.824,24014.183253
1 Jan 2020 09:40:14.000,280.793,-79.181,23849.816861
1 Jan 2020 09:40:44.000,280.396,-79.554,23691.007772
1 Jan 2020 09:41:14.000,279.952,-79.943,23538.010408
1 Jan 2020 09:41:44.000,279.452,-80.346,23391.075006
1 Jan 2020 09:42:14.000,278.889,-80.764,23250.447837
1 Jan 2020 09:42:44.000,278.253,-81.196,23116.368585
1 Jan 2020 09:43:14.000,277.529,-81.641,22989.070521
1 Jan 2020 09:43:44.000,276.701,-82.099,22868.779237
1 Jan 2020 09:44:14.000,275.749,-82.567,22755.711418
1 Jan 2020 09:44:44.000,274.644,-83.047,22650.074719
1 Jan 2020 09:45:14.000,273.351,-83.535,22552.065417
1 Jan 2020 09:45:44.000,271.819,-84.030,22461.868325
1 Jan 2020 09:46:14.000,269.983,-84.531,22379.655452
1 Jan 2020 09:46:44.000,267.748,-85.034,22305.585636
1 Jan 2020 09:47:14.000,264.980,-85.537,22239.802781
1 Jan 2020 09:47:44.000,261.483,-86.033,22182.435625
1 Jan 2020 09:48:14.000,256.967,-86.518,22133.596736
1 Jan 2020 09:48:44.000,250.998,-86.979,22093.382198
1 Jan 2020 09:49:14.000,242.953,-87.401,22061.870446
1 Jan 2020 09:49:44.000,232.061,-87.756,22039.122175
1 Jan 2020 09:50:14.000,217.773,-88.006,22025.179819
1 Jan 2020 09:50:44.000,200.761,-88.106,22020.067399
1 Jan 2020 09:51:14.000,183.517,-88.032,22023.790165
1 Jan 2020 09:51:44.000,168.721,-87.802,22036.334706
1 Jan 2020 09:52:14.000,157.319,-87.461,22057.669035
1 Jan 2020 09:52:44.000,148.871,-87.048,22087.742636
1 Jan 2020 09:53:14.000,142.600,-86.592,22126.486987
1 Jan 2020 09:53:44.000,137.856,-86.112,22173.815862
1 Jan 2020 09:54:14.000,134.177,-85.618,22229.625995
1 Jan 2020 09:54:44.000,131.257,-85.117,22293.797311
1 Jan 2020 09:55:14.000,128.886,-84.615,22366.194210
1 Jan 2020 09:55:44.000,126.923,-84.116,22446.665995
1 Jan 2020 09:56:14.000,125.269,-83.622,22535.047962
1 Jan 2020 09:56:44.000,123.853,-83.134,22631.161730
1 Jan 2020 09:57:14.000,122.625,-82.656,22734.817053
1 Jan 2020 09:57:44.000,121.546,-82.188,22845.812244
1 Jan 2020 09:58:14.000,120.587,-81.730,22963.935321
1 Jan 2020 09:58:44.000,119.726,-81.286,23088.965253
1 Jan 2020 09:59:14.000,118.946,-80.854,23220.672047
1 Jan 2020 09:59:44.000,118.233,-80.436,23358.819126
1 Jan 2020 10:00:14.000,117.576,-80.032,23503.163409
1 Jan 2020 10:00:44.000,116.967,-79.644,23653.456491
1 Jan 2020 10:01:14.000,116.397,-79.270,23809.445571
1 Jan 2020 10:01:44.000,115.861,-78.912,23970.874630
1 Jan 2020 10:02:14.000,115.354,-78.571,24137.484112
1 Jan 2020 10:02:44.000,114.872,-78.245,24309.013457
1 Jan 2020 10:03:14.000,114.411,-77.936,24485.200699
1 Jan 2020 10:03:44.000,113.968,-77.643,24665.783459
1 Jan 2020 10:04:14.000,113.540,-77.366,24850.499585
1 Jan 2020 10:04:44.000,113.125,-77.106,25039.087755
1 Jan 2020 10:05:14.000,112.721,-76.863,25231.288023
1 Jan 2020 10:05:44.000,112.326,-76.636,25426.842628
1 Jan 2020 10:06:14.000,111.939,-76.425,25625.495187
1 Jan 2020 10:06:44.000,111.558,-76.230,25826.992981
1 Jan 2020 10:07:14.000,111.182,-76.051,26031.086058
1 Jan 2020 10:07:25.750,111.035,-75.986,26111.674564
1 Jan 2020 11:26:29.894,245.002,-75.993,26118.264141
1 Jan 2020 11:26:59.000,243.233,-76.067,26028.386682
1 Jan 2020 11:27:29.000,241.373,-76.142,25940.595974
1 Jan 2020 11:27:59.000,239.475,-76.215,25857.828695
1 Jan 2020 11:28:29.000,237.542,-76.287,25780.183036
1 Jan 2020 11:28:59.000,235.573,-76.357,25707.749736
1 Jan 2020 11:29:29.000,233.570,-76.423,25640.611765
1 Jan 2020 11:29:59.000,231.534,-76.486,25578.843877
1 Jan 2020 11:30:29.000,229.468,-76.545,25522.512932
1 Jan 2020 11:30:59.000,227.372,-76.600,25471.676744
1 Jan 2020 11:31:29.000,225.250,-76.650,25426.384469
1 Jan 2020 11:31:59.000,223.103,-76.695,25386.676267
1 Jan 2020 11:32:29.000,220.935,-76.733,25352.583141
1 Jan 2020 11:32:59.000,218.749,-76.766,25324.126727
1 Jan 2020 11:33:29.000,216.547,-76.793,25301.319566
1 Jan 2020 11:33:59.000,214.332,-76.813,25284.164503
1 Jan 2020 11:34:29.000,212.109,-76.827,25272.655048
1 Jan 2020 11:34:59.000,209.880,-76.834,25266.775302
1 Jan 2020 11:35:29.000,207.648,-76.834,25266.500019
1 Jan 2020 11:35:59.000,205.418,-76.827,25271.794675
1 Jan 2020 11:36:29.000,203.193,-76.814,25282.615723
1 Jan 2020 11:36:59.000,200.975,-76.795,25298.910561
1 Jan 2020 11:37:29.000,198.769,-76.769,25320.617878
1 Jan 2020 11:37:59.000,196.576,-76.738,25347.667848
1 Jan 2020 11:38:29.000,194.399,-76.701,25379.982392
1 Jan 2020 11:38:59.000,192.242,-76.658,25417.475495
1 Jan 2020 11:39:29.000,190.106,-76.611,25460.053423
1 Jan 2020 11:39:59.000,187.993,-76.559,25507.615193
1 Jan 2020 11:40:29.000,185.906,-76.503,25560.052853
1 Jan 2020 11:40:59.000,183.845,-76.444,25617.251871
1 Jan 2020 11:41:29.000,181.811,-76.382,25679.091521
1 Jan 2020 11:41:59.000,179.806,-76.317,25745.445288
1 Jan 2020 11:42:29.000,177.831,-76.250,25816.181353
1 Jan 2020 11:42:59.000,175.886,-76.182,25891.162681
1 Jan 2020 11:43:29.000,173.970,-76.112,25970.247919
1 Jan 2020 11:43:59.000,172.085,-76.042,26053.291495
1 Jan 2020 11:44:21.455,170.693,-75.990,26117.949443
1 Jan 2020 14:28:13.128,358.545,-75.996,26121.479996
1 Jan 2020 14:28:43.000,356.612,-76.049,26056.859556
1 Jan 2020 14:29:13.000,354.647,-76.100,25996.125465
1 Jan 2020 14:29:43.000,352.660,-76.149,25939.687607
1 Jan 2020 14:30:13.000,350.650,-76.195,25887.663957
1 Jan 2020 14:30:43.000,348.619,-76.238,25840.166949
1 Jan 2020 14:31:13.000,346.568,-76.278,25797.303111
1 Jan 2020 14:31:43.000,344.500,-76.314,25759.172720
1 Jan 2020 14:32:13.000,342.415,-76.346,25725.869457
1 Jan 2020 14:32:43.000,340.316,-76.374,25697.480141
1 Jan 2020 14:33:13.000,338.204,-76.397,25674.084332
1 Jan 2020 14:33:43.000,336.083,-76.416,25655.754127
1 Jan 2020 14:34:13.000,333.954,-76.429,25642.553881
1 Jan 2020 14:34:43.000,331.820,-76.437,25634.539976
1 Jan 2020 14:35:13.000,329.683,-76.440,25631.760648
1 Jan 2020 14:35:43.000,327.547,-76.438,25634.255675
1 Jan 2020 14:36:13.000,325.414,-76.430,25642.056428
1 Jan 2020 14:36:43.000,323.286,-76.417,25655.185625
1 Jan 2020 14:37:13.000,321.167,-76.398,25673.657283
1 Jan 2020 14:37:43.000,319.059,-76.375,25697.476660
1 Jan 2020 14:38:13.000,316.964,-76.346,25726.640331
1 Jan 2020 14:38:43.000,314.886,-76.313,25761.135847
1 Jan 2020 14:39:13.000,312.826,-76.275,25800.942300
1 Jan 2020 14:39:43.000,310.787,-76.234,25846.030062
1 Jan 2020 14:40:13.000,308.770,-76.188,25896.360983
1 Jan 2020 14:40:43.000,306.778,-76.139,25951.888527
1 Jan 2020 14:41:13.000,304.813,-76.087,26012.558074
1 Jan 2020 14:41:43.000,302.874,-76.033,26078.306595
1 Jan 2020 14:42:01.578,301.689,-75.998,26121.539399
1 Jan 2020 16:02:45.480,66.431,-75.990,26115.868244
1 Jan 2020 16:03:15.000,65.930,-76.158,25917.034733
1 Jan 2020 16:03:45.000,65.410,-76.343,25717.419444
1 Jan 2020 16:04:15.000,64.878,-76.543,25520.520954
1 Jan 2020 16:04:45.000,64.332,-76.760,25326.589037
1 Jan 2020 16:05:15.000,63.770,-76.992,25135.876300
1 Jan 2020 16:05:45.000,63.189,-77.240,24948.637794
1 Jan 2020 16:06:15.000,62.586,-77.503,24765.130592
1 Jan 2020 16:06:45.000,61.959,-77.783,24585.613310
1 Jan 2020 16:07:15.000,61.303,-78.078,24410.345307
1 Jan 2020 16:07:45.000,60.614,-78.388,24239.587237
1 Jan 2020 16:08:15.000,59.886,-78.714,24073.598724
1 Jan 2020 16:08:45.000,59.116,-79.054,23912.638835
1 Jan 2020 16:09:15.000,58.294,-79.409,23756.965067
1 Jan 2020 16:09:45.000,57.414,-79.779,23606.832580
1 Jan 2020 16:10:15.000,56.465,-80.162,23462.493134
1 Jan 2020 16:10:45.000,55.437,-80.558,23324.195222
1 Jan 2020 16:11:15.000,54.315,-80.966,23192.181669
1 Jan 2020 16:11:45.000,53.082,-81.385,23066.689715
1 Jan 2020 16:12:15.000,51.717,-81.815,22947.949798
1 Jan 2020 16:12:45.000,50.194,-82.253,22836.184385
1 Jan 2020 16:13:15.000,48.481,-82.699,22731.607746
1 Jan 2020 16:13:45.000,46.536,-83.149,22634.423786
1 Jan 2020 16:14:15.000,44.307,-83.603,22544.825845
1 Jan 2020 16:14:45.000,41.728,-84.057,22462.995402
1 Jan 2020 16:15:15.000,38.712,-84.507,22389.101611
1 Jan 2020 16:15:45.000,35.149,-84.949,22323.299636
1 Jan 2020 16:16:15.000,30.899,-85.376,22265.730305
1 Jan 2020 16:16:45.000,25.792,-85.781,22216.519098
1 Jan 2020 16:17:15.000,19.635,-86.151,22175.775716
1 Jan 2020 16:17:45.000,12.240,-86.474,22143.592958
1 Jan 2020 16:18:15.000,3.502,-86.732,22120.046488
1 Jan 2020 16:18:45.000,353.514,-86.907,22105.194279
1 Jan 2020 16:19:15.000,342.679,-86.982,22099.076306
1 Jan 2020 16:19:45.000,331.688,-86.950,22101.714197
1 Jan 2020 16:20:15.000,321.294,-86.813,22113.111190
1 Jan 2020 16:20:45.000,312.032,-86.586,22133.252146
1 Jan 2020 16:21:15.000,304.115,-86.286,22162.103443
1 Jan 2020 16:21:45.000,297.503,-85.932,22199.613485
1 Jan 2020 16:22:15.000,292.029,-85.538,22245.712850
1 Jan 2020 16:22:45.000,287.499,-85.117,22300.314888
1 Jan 2020 16:23:15.000,283.729,-84.678,22363.315802
1 Jan 2020 16:23:45.000,280.567,-84.227,22434.595930
1 Jan 2020 16:24:15.000,277.892,-83.772,22514.020033
1 Jan 2020 16:24:45.000,275.609,-83.314,22601.438347
1 Jan 2020 16:25:15.000,273.643,-82.859,22696.686780
1 Jan 2020 16:25:45.000,271.937,-82.407,22799.588756
1 Jan 2020 16:26:15.000,270.445,-81.962,22909.955528
1 Jan 2020 16:26:45.000,269.132,-81.525,23027.587300
1 Jan 2020 16:27:15.000,267.969,-81.098,23152.274455
1 Jan 2020 16:27:45.000,266.934,-80.682,23283.797542
1 Jan 2020 16:28:15.000,266.007,-80.278,23421.929747
1 Jan 2020 16:28:45.000,265.174,-79.886,23566.436893
1 Jan 2020 16:29:15.000,264.423,-79.508,23717.078631
1 Jan 2020 16:29:45.000,263.744,-79.144,23873.609371
1 Jan 2020 16:30:15.000,263.127,-78.794,24035.779497
1 Jan 2020 16:30:45.000,262.565,-78.460,24203.334965
1 Jan 2020 16:31:15.000,262.054,-78.141,24376.019992
1 Jan 2020 16:31:45.000,261.586,-77.838,24553.576594
1 Jan 2020 16:32:15.000,261.159,-77.551,24735.745612
1 Jan 2020 16:32:45.000,260.768,-77.280,24922.267396
1 Jan 2020 16:33:15.000,260.410,-77.025,25112.882428
1 Jan 2020 16:33:45.000,260.082,-76.786,25307.331898
1 Jan 2020 16:34:15.000,259.781,-76.563,25505.358587
1 Jan 2020 16:34:45.000,259.507,-76.357,25706.705959
1 Jan 2020 16:35:15.000,259.255,-76.167,25911.120667
1 Jan 2020 16:35:44.573,259.030,-75.995,26115.386352
1 Jan 2020 17:51:30.330,98.448,-75.987,26108.533997
1 Jan 2020 17:52:00.000,99.770,-76.116,25952.723522
1 Jan 2020 17:52:30.000,101.159,-76.254,25799.306185
1 Jan 2020 17:53:00.000,102.601,-76.398,25650.235687
1 Jan 2020 17:53:30.000,104.101,-76.548,25505.707275
1 Jan 2020 17:54:00.000,105.660,-76.703,25365.912774
1 Jan 2020 17:54:30.000,107.282,-76.861,25231.040040
1 Jan 2020 17:55:00.000,108.969,-77.023,25101.272156
1 Jan 2020 17:55:30.000,110.724,-77.188,24976.787821
1 Jan 2020 17:56:00.000,112.550,-77.354,24857.759306
1 Jan 2020 17:56:30.000,114.448,-77.520,24744.352841
1 Jan 2020 17:57:00.000,116.422,-77.686,24636.727772
1 Jan 2020 17:57:30.000,118.472,-77.850,24535.035974
1 Jan 2020 17:58:00.000,120.601,-78.012,24439.421051
1 Jan 2020 17:58:30.000,122.809,-78.169,24350.018615
1 Jan 2020 17:59:00.000,125.095,-78.320,24266.954435
1 Jan 2020 17:59:30.000,127.461,-78.465,24190.344781
1 Jan 2020 18:00:00.000,129.904,-78.603,24120.295685
1 Jan 2020 18:00:30.000,132.421,-78.731,24056.902338
1 Jan 2020 18:01:00.000,135.010,-78.848,24000.249215
1 Jan 2020 18:01:30.000,137.666,-78.954,23950.408810
1 Jan 2020 18:02:00.000,140.383,-79.048,23907.441883
1 Jan 2020 18:02:30.000,143.154,-79.128,23871.397009
1 Jan 2020 18:03:00.000,145.971,-79.193,23842.310255
1 Jan 2020 18:03:30.000,148.826,-79.244,23820.205338
1 Jan 2020 18:04:00.000,151.709,-79.279,23805.092965
1 Jan 2020 18:04:30.000,154.611,-79.297,23796.971137
1 Jan 2020 18:05:00.000,157.519,-79.300,23795.825058
1 Jan 2020 18:05:30.000,160.424,-79.287,23801.627174
1 Jan 2020 18:06:00.000,163.316,-79.258,23814.337388
1 Jan 2020 18:06:30.000,166.184,-79.213,23833.903093
1 Jan 2020 18:07:00.000,169.020,-79.154,23860.259527
1 Jan 2020 18:07:30.000,171.813,-79.080,23893.330048
1 Jan 2020 18:08:00.000,174.558,-78.993,23933.026524
1 Jan 2020 18:08:30.000,177.248,-78.894,23979.249584
1 Jan 2020 18:09:00.000,179.877,-78.784,24031.889275
1 Jan 2020 18:09:30.000,182.441,-78.664,24090.825421
1 Jan 2020 18:10:00.000,184.937,-78.535,24155.928176
1 Jan 2020 18:10:30.000,187.364,-78.398,24227.058660
1 Jan 2020 18:11:00.000,189.719,-78.255,24304.069191
1 Jan 2020 18:11:30.000,192.004,-78.106,24386.804384
1 Jan 2020 18:12:00.000,194.217,-77.954,24475.101433
1 Jan 2020 18:12:30.000,196.361,-77.798,24568.790808
1 Jan 2020 18:13:00.000,198.437,-77.641,24667.696872
1 Jan 2020 18:13:30.000,200.446,-77.483,24771.638652
1 Jan 2020 18:14:00.000,202.392,-77.325,24880.429869
1 Jan 2020 18:14:30.000,204.276,-77.168,24993.880405
1 Jan 2020 18:15:00.000,206.101,-77.014,25111.796329
1 Jan 2020 18:15:30.000,207.871,-76.862,25233.980611
1 Jan 2020 18:16:00.000,209.588,-76.713,25360.233684
1 Jan 2020 18:16:30.000,211.254,-76.569,25490.353975
1 Jan 2020 18:17:00.000,212.873,-76.429,25624.138424
1 Jan 2020 18:17:30.000,214.448,-76.294,25761.383169
1 Jan 2020 18:18:00.000,215.981,-76.165,25901.883212
1 Jan 2020 18:18:30.000,217.476,-76.043,26045.434051
1 Jan 2020 18:18:43.009,218.112,-75.991,26108.581006
1 Jan 2020 22:32:12.952,306.198,-75.987,26106.773132
1 Jan 2020 22:32:42.000,307.218,-76.132,25933.288505
1 Jan 2020 22:33:12.000,308.300,-76.293,25756.645851
1 Jan 2020 22:33:42.000,309.416,-76.465,25582.797789
1 Jan 2020 22:34:12.000,310.568,-76.648,25411.976647
1 Jan 2020 22:34:42.000,311.761,-76.843,25244.416518
1 Jan 2020 22:35:12.000,312.999,-77.047,25080.352846
1 Jan 2020 22:35:42.000,314.286,-77.263,24920.021983
1 Jan 2020 22:36:12.000,315.627,-77.488,24763.660698
1 Jan 2020 22:36:42.000,317.028,-77.722,24611.505430
1 Jan 2020 22:37:12.000,318.495,-77.965,24463.792636
1 Jan 2020 22:37:42.000,320.035,-78.216,24320.756804
1 Jan 2020 22:38:12.000,321.654,-78.474,24182.630742
1 Jan 2020 22:38:42.000,323.361,-78.739,24049.644668
1 Jan 2020 22:39:12.000,325.163,-79.009,23922.025501
1 Jan 2020 22:39:42.000,327.070,-79.282,23799.995936
1 Jan 2020 22:40:12.000,329.092,-79.558,23683.774419
1 Jan 2020 22:40:42.000,331.239,-79.835,23573.573229
1 Jan 2020 22:41:12.000,333.521,-80.111,23469.598429
1 Jan 2020 22:41:42.000,335.950,-80.385,23372.048857
1 Jan 2020 22:42:12.000,338.536,-80.653,23281.115173
1 Jan 2020 22:42:42.000,341.290,-80.915,23196.979553
1 Jan 2020 22:43:12.000,344.220,-81.166,23119.814076
1 Jan 2020 22:43:42.000,347.335,-81.405,23049.780472
1 Jan 2020 22:44:12.000,350.638,-81.629,22987.029207
1 Jan 2020 22:44:42.000,354.131,-81.834,22931.698671
1 Jan 2020 22:45:12.000,357.809,-82.018,22883.914787
1 Jan 2020 22:45:42.000,1.662,-82.177,22843.789880
1 Jan 2020 22:46:12.000,5.674,-82.309,22811.422421
1 Jan 2020 22:46:42.000,9.819,-82.412,22786.896407
1 Jan 2020 22:47:12.000,14.067,-82.482,22770.280963
1 Jan 2020 22:47:42.000,18.380,-82.519,22761.629859
1 Jan 2020 22:48:12.000,22.719,-82.522,22760.981305
1 Jan 2020 22:48:42.000,27.038,-82.490,22768.357761
1 Jan 2020 22:49:12.000,31.297,-82.424,22783.765667
1 Jan 2020 22:49:42.000,35.458,-82.326,22807.195630
1 Jan 2020 22:50:12.000,39.486,-82.197,22838.622363
1 Jan 2020 22:50:42.000,43.355,-82.040,22878.004965
1 Jan 2020 22:51:12.000,47.046,-81.857,22925.286795
1 Jan 2020 22:51:42.000,50.546,-81.652,22980.396334
1 Jan 2020 22:52:12.000,53.850,-81.427,23043.247253
1 Jan 2020 22:52:42.000,56.956,-81.185,23113.739110
1 Jan 2020 22:53:12.000,59.869,-80.930,23191.757357
1 Jan 2020 22:53:42.000,62.594,-80.664,23277.174749
1 Jan 2020 22:54:12.000,65.140,-80.389,23369.851481
1 Jan 2020 22:54:42.000,67.517,-80.109,23469.636025
1 Jan 2020 22:55:12.000,69.737,-79.826,23576.366091
1 Jan 2020 22:55:42.000,71.809,-79.541,23689.868510
1 Jan 2020 22:56:12.000,73.744,-79.257,23809.961336
1 Jan 2020 22:56:42.000,75.553,-78.975,23936.453788
1 Jan 2020 22:57:12.000,77.246,-78.697,24069.147259
1 Jan 2020 22:57:42.000,78.831,-78.424,24207.836369
1 Jan 2020 22:58:12.000,80.317,-78.157,24352.308782
1 Jan 2020 22:58:42.000,81.713,-77.897,24502.347432
1 Jan 2020 22:59:12.000,83.025,-77.646,24657.730325
1 Jan 2020 22:59:42.000,84.260,-77.404,24818.231504
1 Jan 2020 23:00:12.000,85.424,-77.172,24983.621761
1 Jan 2020 23:00:42.000,86.523,-76.951,25153.669305
1 Jan 2020 23:01:12.000,87.561,-76.741,25328.140725
1 Jan 2020 23:01:42.000,88.543,-76.542,25506.800309
1 Jan 2020 23:02:12.000,89.474,-76.354,25689.412527
1 Jan 2020 23:02:42.000,90.356,-76.180,25875.741290
1 Jan 2020 23:03:12.000,91.195,-76.017,26065.550755
1 Jan 2020 23:03:18.501,91.371,-75.984,26107.117313
2 Jan 2020 00:18:16.633,272.314,-75.992,26113.865953
2 Jan 2020 00:18:46.000,271.557,-76.150,25924.907739
2 Jan 2020 00:19:16.000,270.743,-76.324,25735.198264
2 Jan 2020 00:19:46.000,269.883,-76.512,25549.084190
2 Jan 2020 00:20:16.000,268.974,-76.712,25366.804462
2 Jan 2020 00:20:46.000,268.012,-76.923,25188.598176
2 Jan 2020 00:21:16.000,266.992,-77.147,25014.704065
2 Jan 2020 00:21:46.000,265.910,-77.382,24845.359947
2 Jan 2020 00:22:16.000,264.760,-77.628,24680.801833
2 Jan 2020 00:22:46.000,263.536,-77.884,24521.264509
2 Jan 2020 00:23:16.000,262.232,-78.150,24366.979042
2 Jan 2020 00:23:46.000,260.839,-78.424,24218.173311
2 Jan 2020 00:24:16.000,259.351,-78.705,24075.070960
2 Jan 2020 00:24:46.000,257.757,-78.993,23937.890645
2 Jan 2020 00:25:16.000,256.049,-79.286,23806.844979
2 Jan 2020 00:25:46.000,254.216,-79.583,23682.140809
2 Jan 2020 00:26:16.000,252.246,-79.882,23563.976762
2 Jan 2020 00:26:46.000,250.127,-80.181,23452.543526
2 Jan 2020 00:27:16.000,247.847,-80.479,23348.022741
2 Jan 2020 00:27:46.000,245.392,-80.772,23250.585987
2 Jan 2020 00:28:16.000,242.750,-81.059,23160.394785
2 Jan 2020 00:28:46.000,239.908,-81.337,23077.598584
2 Jan 2020 00:29:16.000,236.856,-81.603,23002.334848
2 Jan 2020 00:29:46.000,233.585,-81.853,22934.728012
2 Jan 2020 00:30:16.000,230.090,-82.085,22874.889329
2 Jan 2020 00:30:46.000,226.373,-82.294,22822.915482
2 Jan 2020 00:31:16.000,222.442,-82.479,22778.888585
2 Jan 2020 00:31:46.000,218.312,-82.635,22742.875497
2 Jan 2020 00:32:16.000,214.008,-82.759,22714.927764
2 Jan 2020 00:32:46.000,209.565,-82.848,22695.080801
2 Jan 2020 00:33:16.000,205.024,-82.902,22683.354035
2 Jan 2020 00:33:46.000,200.434,-82.919,22679.750664
2 Jan 2020 00:34:16.000,195.848,-82.898,22684.257730
2 Jan 2020 00:34:46.000,191.315,-82.840,22696.846008
2 Jan 2020 00:35:16.000,186.884,-82.746,22717.470295
2 Jan 2020 00:35:46.000,182.593,-82.619,22746.069653
2 Jan 2020 00:36:16.000,178.476,-82.462,22782.567632
2 Jan 2020 00:36:46.000,174.555,-82.277,22826.872844
2 Jan 2020 00:37:16.000,170.844,-82.067,22878.879369
2 Jan 2020 00:37:46.000,167.347,-81.837,22938.467430
2 Jan 2020 00:38:16.000,164.066,-81.589,23005.503710
2 Jan 2020 00:38:46.000,160.993,-81.327,23079.842492
2 Jan 2020 00:39:16.000,158.121,-81.054,23161.326112
2 Jan 2020 00:39:46.000,155.437,-80.772,23249.785799
2 Jan 2020 00:40:16.000,152.929,-80.485,23345.042642
2 Jan 2020 00:40:46.000,150.584,-80.194,23446.907798
2 Jan 2020 00:41:16.000,148.389,-79.902,23555.184243
2 Jan 2020 00:41:46.000,146.331,-79.611,23669.667026
2 Jan 2020 00:42:16.000,144.399,-79.322,23790.144256
2 Jan 2020 00:42:46.000,142.580,-79.037,23916.397938
2 Jan 2020 00:43:16.000,140.865,-78.757,24048.205020
2 Jan 2020 00:43:46.000,139.244,-78.483,24185.337292
2 Jan 2020 00:44:16.000,137.708,-78.217,24327.563491
2 Jan 2020 00:44:46.000,136.249,-77.959,24474.649164
2 Jan 2020 00:45:16.000,134.860,-77.710,24626.357598
2 Jan 2020 00:45:46.000,133.534,-77.471,24782.450489
2 Jan 2020 00:46:16.000,132.265,-77.241,24942.688575
2 Jan 2020 00:46:46.000,131.048,-77.023,25106.832238
2 Jan 2020 00:47:16.000,129.877,-76.815,25274.642333
2 Jan 2020 00:47:46.000,128.749,-76.619,25445.879588
2 Jan 2020 00:48:16.000,127.658,-76.434,25620.306748
2 Jan 2020 00:48:46.000,126.602,-76.261,25797.687896
2 Jan 2020 00:49:16.000,125.577,-76.100,25977.789135
2 Jan 2020 00:49:38.445,124.829,-75.987,26114.177476
2 Jan 2020 05:03:24.618,35.918,-75.994,26119.783564
2 Jan 2020 05:03:54.000,34.429,-76.107,25982.606124
2 Jan 2020 05:04:24.000,32.872,-76.229,25845.532728
2 Jan 2020 05:04:54.000,31.273,-76.356,25711.680587
2 Jan 2020 05:05:24.000,29.632,-76.487,25581.250126
2 Jan 2020 05:05:54.000,27.946,-76.623,25454.441137
2 Jan 2020 05:06:24.000,26.211,-76.762,25331.452329
2 Jan 2020 05:06:54.000,24.426,-76.905,25212.480846
2 Jan 2020 05:07:24.000,22.588,-77.049,25097.721769
2 Jan 2020 05:07:54.000,20.694,-77.196,24987.367432
2 Jan 2020 05:08:24.000,18.743,-77.343,24881.607525
2 Jan 2020 05:08:54.000,16.732,-77.490,24780.627557
2 Jan 2020 05:09:24.000,14.659,-77.636,24684.608944
2 Jan 2020 05:09:54.000,12.523,-77.780,24593.728254
2 Jan 2020 05:10:24.000,10.323,-77.920,24508.156614
2 Jan 2020 05:10:54.000,8.057,-78.057,24428.059019
2 Jan 2020 05:11:24.000,5.728,-78.189,24353.594127
2 Jan 2020 05:11:54.000,3.334,-78.314,24284.913060
2 Jan 2020 05:12:24.000,0.877,-78.432,24222.159233
2 Jan 2020 05:12:54.000,358.360,-78.542,24165.467678
2 Jan 2020 05:13:24.000,355.785,-78.642,24114.964450
2 Jan 2020 05:13:54.000,353.157,-78.732,24070.766284
2 Jan 2020 05:14:24.000,350.481,-78.810,24032.979801
2 Jan 2020 05:14:54.000,347.763,-78.875,24001.701255
2 Jan 2020 05:15:24.000,345.009,-78.928,23977.016044
2 Jan 2020 05:15:54.000,342.227,-78.966,23958.998343
2 Jan 2020 05:16:24.000,339.427,-78.991,23947.710739
2 Jan 2020 05:16:54.000,336.616,-79.001,23943.203967
2 Jan 2020 05:17:24.000,333.803,-78.996,23945.516677
2 Jan 2020 05:17:54.000,330.999,-78.976,23954.675251
2 Jan 2020 05:18:24.000,328.212,-78.942,23970.693763
2 Jan 2020 05:18:54.000,325.451,-78.893,23993.573646
2 Jan 2020 05:19:24.000,322.725,-78.830,24023.304082
2 Jan 2020 05:19:54.000,320.042,-78.755,24059.861815
2 Jan 2020 05:20:24.000,317.407,-78.667,24103.211334
2 Jan 2020 05:20:54.000,314.828,-78.567,24153.305174
2 Jan 2020 05:21:24.000,312.310,-78.457,24210.083646
2 Jan 2020 05:21:54.000,309.856,-78.337,24273.475860
2 Jan 2020 05:22:24.000,307.471,-78.209,24343.399574
2 Jan 2020 05:22:54.000,305.156,-78.073,24419.761692
2 Jan 2020 05:23:24.000,302.913,-77.932,24502.458850
2 Jan 2020 05:23:54.000,300.742,-77.785,24591.377195
2 Jan 2020 05:24:24.000,298.645,-77.635,24686.393871
2 Jan 2020 05:24:54.000,296.619,-77.482,24787.376872
2 Jan 2020 05:25:24.000,294.665,-77.327,24894.185739
2 Jan 2020 05:25:54.000,292.781,-77.172,25006.672107
2 Jan 2020 05:26:24.000,290.965,-77.017,25124.680511
2 Jan 2020 05:26:54.000,289.216,-76.864,25248.047995
2 Jan 2020 05:27:24.000,287.530,-76.713,25376.606105
2 Jan 2020 05:27:54.000,285.906,-76.565,25510.180523
2 Jan 2020 05:28:24.000,284.342,-76.421,25648.591863
2 Jan 2020 05:28:54.000,282.834,-76.282,25791.656225
2 Jan 2020 05:29:24.000,281.381,-76.148,25939.185741
2 Jan 2020 05:29:54.000,279.979,-76.020,26090.989378
2 Jan 2020 05:29:59.576,279.724,-75.997,26119.658765
2 Jan 2020 06:45:56.579,78.039,-75.989,26113.287942
2 Jan 2020 06:46:26.000,78.202,-76.161,25909.493287
2 Jan 2020 06:46:56.000,78.388,-76.352,25704.430322
2 Jan 2020 06:47:26.000,78.594,-76.559,25502.383765
2 Jan 2020 06:47:56.000,78.822,-76.782,25303.607602
2 Jan 2020 06:48:26.000,79.075,-77.022,25108.358133
2 Jan 2020 06:48:56.000,79.353,-77.279,24916.893554
2 Jan 2020 06:49:26.000,79.661,-77.552,24729.473483
2 Jan 2020 06:49:56.000,79.999,-77.841,24546.358435
2 Jan 2020 06:50:26.000,80.372,-78.147,24367.808936
2 Jan 2020 06:50:56.000,80.783,-78.469,24194.086203
2 Jan 2020 06:51:26.000,81.236,-78.806,24025.449505
2 Jan 2020 06:51:56.000,81.737,-79.159,23862.156768
2 Jan 2020 06:52:26.000,82.293,-79.528,23704.463474
2 Jan 2020 06:52:56.000,82.909,-79.911,23552.621842
2 Jan 2020 06:53:26.000,83.596,-80.309,23406.879704
2 Jan 2020 06:53:56.000,84.364,-80.720,23267.480720
2 Jan 2020 06:54:26.000,85.226,-81.144,23134.661753
2 Jan 2020 06:54:56.000,86.198,-81.580,23008.653053
2 Jan 2020 06:55:26.000,87.302,-82.028,22889.676984
2 Jan 2020 06:55:56.000,88.563,-82.484,22777.946820
2 Jan 2020 06:56:26.000,90.015,-82.950,22673.666613
2 Jan 2020 06:56:56.000,91.699,-83.421,22577.028870
2 Jan 2020 06:57:26.000,93.673,-83.897,22488.214470
2 Jan 2020 06:57:56.000,96.009,-84.375,22407.391350
2 Jan 2020 06:58:26.000,98.809,-84.851,22334.714147
2 Jan 2020 06:58:56.000,102.206,-85.320,22270.322462
2 Jan 2020 06:59:26.000,106.380,-85.776,22214.340646
2 Jan 2020 06:59:56.000,111.573,-86.211,22166.876825
2 Jan 2020 07:00:26.000,118.087,-86.613,22128.022601
2 Jan 2020 07:00:56.000,126.258,-86.964,22097.851928
2 Jan 2020 07:01:26.000,136.340,-87.242,22076.421031
2 Jan 2020 07:01:56.000,148.254,-87.421,22063.767926
2 Jan 2020 07:02:26.000,161.316,-87.479,22059.912288
2 Jan 2020 07:02:56.000,174.299,-87.406,22064.855117
2 Jan 2020 07:03:26.000,186.020,-87.214,22078.578881
2 Jan 2020 07:03:56.000,195.878,-86.926,22101.047617
2 Jan 2020 07:04:26.000,203.853,-86.569,22132.207005
2 Jan 2020 07:04:56.000,210.220,-86.164,22171.984905
2 Jan 2020 07:05:26.000,215.314,-85.727,22220.291686
2 Jan 2020 07:05:56.000,219.431,-85.271,22277.020893
2 Jan 2020 07:06:26.000,222.803,-84.803,22342.049505
2 Jan 2020 07:06:56.000,225.606,-84.329,22415.239213
2 Jan 2020 07:07:26.000,227.967,-83.854,22496.436864
2 Jan 2020 07:07:56.000,229.984,-83.381,22585.475556
2 Jan 2020 07:08:26.000,231.727,-82.913,22682.174965
2 Jan 2020 07:08:56.000,233.252,-82.451,22786.343158
2 Jan 2020 07:09:26.000,234.599,-81.999,22897.777013
2 Jan 2020 07:09:56.000,235.801,-81.556,23016.263359
2 Jan 2020 07:10:26.000,236.882,-81.124,23141.580214
2 Jan 2020 07:10:56.000,237.864,-80.705,23273.496876
2 Jan 2020 07:11:26.000,238.762,-80.298,23411.776267
2 Jan 2020 07:11:56.000,239.589,-79.905,23556.175019
2 Jan 2020 07:12:26.000,240.356,-79.526,23706.444636
2 Jan 2020 07:12:56.000,241.072,-79.162,23862.332413
2 Jan 2020 07:13:26.000,241.743,-78.813,24023.582590
2 Jan 2020 07:13:56.000,242.377,-78.480,24189.936049
2 Jan 2020 07:14:26.000,242.978,-78.162,24361.132791
2 Jan 2020 07:14:56.000,243.551,-77.860,24536.911556
2 Jan 2020 07:15:26.000,244.099,-77.574,24717.010786
2 Jan 2020 07:15:56.000,244.627,-77.304,24901.169261
2 Jan 2020 07:16:26.000,245.136,-77.051,25089.126686
2 Jan 2020 07:16:56.000,245.630,-76.813,25280.624227
2 Jan 2020 07:17:26.000,246.111,-76.592,25475.404999
2 Jan 2020 07:17:56.000,246.581,-76.386,25673.214842
2 Jan 2020 07:18:26.000,247.040,-76.196,25873.801363
2 Jan 2020 07:18:56.000,247.492,-76.022,26076.916311
2 Jan 2020 07:19:01.260,247.571,-75.994,26112.770789
2 Jan 2020 08:38:57.267,118.485,-75.986,26106.292721
2 Jan 2020 08:39:27.000,120.348,-76.051,26027.049252
2 Jan 2020 08:39:57.000,122.259,-76.115,25952.064420
2 Jan 2020 08:40:27.000,124.202,-76.176,25882.157530
2 Jan 2020 08:40:57.000,126.176,-76.235,25817.406447
2 Jan 2020 08:41:27.000,128.180,-76.291,25757.881185
2 Jan 2020 08:41:57.000,130.211,-76.343,25703.643665
2 Jan 2020 08:42:27.000,132.267,-76.392,25654.747357
2 Jan 2020 08:42:57.000,134.348,-76.436,25611.237592
2 Jan 2020 08:43:27.000,136.449,-76.475,25573.150618
2 Jan 2020 08:43:57.000,138.570,-76.509,25540.513987
2 Jan 2020 08:44:27.000,140.707,-76.538,25513.346315
2 Jan 2020 08:44:57.000,142.858,-76.561,25491.657207
2 Jan 2020 08:45:27.000,145.020,-76.579,25475.447159
2 Jan 2020 08:45:57.000,147.189,-76.591,25464.707812
2 Jan 2020 08:46:27.000,149.363,-76.597,25459.421575
2 Jan 2020 08:46:57.000,151.539,-76.597,25459.561973
2 Jan 2020 08:47:27.000,153.714,-76.591,25465.093673
2 Jan 2020 08:47:57.000,155.885,-76.579,25475.972616
2 Jan 2020 08:48:27.000,158.048,-76.562,25492.146171
2 Jan 2020 08:48:57.000,160.202,-76.539,25513.553380
2 Jan 2020 08:49:27.000,162.344,-76.511,25540.125100
2 Jan 2020 08:49:57.000,164.471,-76.478,25571.784316
2 Jan 2020 08:50:27.000,166.581,-76.440,25608.446407
2 Jan 2020 08:50:57.000,168.673,-76.398,25650.019439
2 Jan 2020 08:51:27.000,170.744,-76.353,25696.404493
2 Jan 2020 08:51:57.000,172.792,-76.303,25747.496054
2 Jan 2020 08:52:27.000,174.817,-76.251,25803.182167
2 Jan 2020 08:52:57.000,176.817,-76.196,25863.345093
2 Jan 2020 08:53:27.000,178.792,-76.139,25927.861503
2 Jan 2020 08:53:57.000,180.740,-76.080,25996.602911
2 Jan 2020 08:54:27.000,182.661,-76.019,26069.436064
2 Jan 2020 08:54:41.709,183.594,-75.989,26106.600608
2 Jan 2020 11:38:17.443,354.856,-75.983,26103.411951
2 Jan 2020 11:38:47.000,356.724,-76.046,26026.716756
2 Jan 2020 11:39:17.000,358.647,-76.108,25952.815688
2 Jan 2020 11:39:47.000,0.598,-76.169,25883.026517
2 Jan 2020 11:40:17.000,2.576,-76.229,25817.483914
2 Jan 2020 11:40:47.000,4.580,-76.286,25756.317791
2 Jan 2020 11:41:17.000,6.610,-76.340,25699.652903
2 Jan 2020 11:41:47.000,8.664,-76.392,25647.608456
2 Jan 2020 11:42:17.000,10.741,-76.439,25600.297686
2 Jan 2020 11:42:47.000,12.840,-76.483,25557.827639
2 Jan 2020 11:43:17.000,14.959,-76.522,25520.298568
2 Jan 2020 11:43:47.000,17.095,-76.557,25487.803752
2 Jan 2020 11:44:17.000,19.246,-76.587,25460.429131
2 Jan 2020 11:44:47.000,21.411,-76.611,25438.252993
2 Jan 2020 11:45:17.000,23.586,-76.629,25421.345710
2 Jan 2020 11:45:47.000,25.768,-76.642,25409.769423
2 Jan 2020 11:46:17.000,27.955,-76.649,25403.577879
2 Jan 2020 11:46:47.000,30.144,-76.650,25402.816197
2 Jan 2020 11:47:17.000,32.331,-76.645,25407.520701
2 Jan 2020 11:47:47.000,34.514,-76.633,25417.718783
2 Jan 2020 11:48:17.000,36.689,-76.616,25433.428872
2 Jan 2020 11:48:47.000,38.853,-76.592,25454.660093
2 Jan 2020 11:49:17.000,41.004,-76.563,25481.412627
2 Jan 2020 11:49:47.000,43.138,-76.529,25513.677459
2 Jan 2020 11:50:17.000,45.253,-76.489,25551.436475
2 Jan 2020 11:50:47.000,47.346,-76.444,25594.662537
2 Jan 2020 11:51:17.000,49.415,-76.395,25643.319706
2 Jan 2020 11:51:47.000,51.458,-76.341,25697.362905
2 Jan 2020 11:52:17.000,53.472,-76.284,25756.738791
2 Jan 2020 11:52:47.000,55.457,-76.224,25821.385496
2 Jan 2020 11:53:17.000,57.410,-76.161,25891.232964
2 Jan 2020 11:53:47.000,59.331,-76.095,25966.203206
2 Jan 2020 11:54:17.000,61.218,-76.028,26046.210733
2 Jan 2020 11:54:37.383,62.481,-75.982,26103.396292
2 Jan 2020 13:14:18.048,292.057,-75.989,26109.109193
2 Jan 2020 13:14:48.000,292.487,-76.160,25905.485777
2 Jan 2020 13:15:18.000,292.924,-76.347,25704.020636
2 Jan 2020 13:15:48.000,293.370,-76.551,25505.289980
2 Jan 2020 13:16:18.000,293.825,-76.770,25309.545008
2 Jan 2020 13:16:48.000,294.293,-77.005,25117.039767
2 Jan 2020 13:17:18.000,294.774,-77.256,24928.030766
2 Jan 2020 13:17:48.000,295.271,-77.524,24742.776547
2 Jan 2020 13:18:18.000,295.787,-77.808,24561.537209
2 Jan 2020 13:18:48.000,296.325,-78.108,24384.573594
2 Jan 2020 13:19:18.000,296.888,-78.424,24212.147865
2 Jan 2020 13:19:48.000,297.480,-78.756,24044.521140
2 Jan 2020 13:20:18.000,298.107,-79.104,23881.953981
2 Jan 2020 13:20:48.000,298.774,-79.467,23724.705373
2 Jan 2020 13:21:18.000,299.488,-79.844,23573.031951
2 Jan 2020 13:21:48.000,300.256,-80.237,23427.186921
2 Jan 2020 13:22:18.000,301.089,-80.643,23287.420216
2 Jan 2020 13:22:48.000,301.998,-81.063,23153.976043
2 Jan 2020 13:23:18.000,302.999,-81.496,23027.092989
2 Jan 2020 13:23:48.000,304.109,-81.940,22907.002782
2 Jan 2020 13:24:18.000,305.352,-82.394,22793.929111
2 Jan 2020 13:24:48.000,306.757,-82.858,22688.087411
2 Jan 2020 13:25:18.000,308.364,-83.330,22589.682651
2 Jan 2020 13:25:48.000,310.221,-83.808,22498.909147
2 Jan 2020 13:26:18.000,312.397,-84.289,22415.949239
2 Jan 2020 13:26:48.000,314.982,-84.771,22340.972847
2 Jan 2020 13:27:18.000,318.100,-85.250,22274.135762
2 Jan 2020 13:27:48.000,321.922,-85.720,22215.579303
2 Jan 2020 13:28:18.000,326.683,-86.173,22165.429303
2 Jan 2020 13:28:48.000,332.698,-86.600,22123.795675
2 Jan 2020 13:29:18.000,340.359,-86.985,22090.771263
2 Jan 2020 13:29:48.000,350.061,-87.305,22066.431625
2 Jan 2020 13:30:18.000,1.966,-87.533,22050.834456
2 Jan 2020 13:30:48.000,15.603,-87.639,22044.019305
2 Jan 2020 13:31:18.000,29.677,-87.607,22046.007201
2 Jan 2020 13:31:48.000,42.638,-87.442,22056.800624
2 Jan 2020 13:32:18.000,53.543,-87.168,22076.383518
2 Jan 2020 13:32:48.000,62.257,-86.815,22104.721205
2 Jan 2020 13:33:18.000,69.091,-86.407,22141.760879
2 Jan 2020 13:33:48.000,74.455,-85.965,22187.431780
2 Jan 2020 13:34:18.000,78.710,-85.502,22241.645791
2 Jan 2020 13:34:48.000,82.133,-85.025,22304.297546
2 Jan 2020 13:35:18.000,84.929,-84.542,22375.265707
2 Jan 2020 13:35:48.000,87.244,-84.058,22454.413278
2 Jan 2020 13:36:18.000,89.187,-83.576,22541.588663
2 Jan 2020 13:36:48.000,90.836,-83.098,22636.625886
2 Jan 2020 13:37:18.000,92.250,-82.626,22739.346441
2 Jan 2020 13:37:48.000,93.474,-82.163,22849.559624
2 Jan 2020 13:38:18.000,94.541,-81.711,22967.063668
2 Jan 2020 13:38:48.000,95.478,-81.269,23091.646983
2 Jan 2020 13:39:18.000,96.306,-80.839,23223.088163
2 Jan 2020 13:39:48.000,97.041,-80.422,23361.158458
2 Jan 2020 13:40:18.000,97.697,-80.019,23505.621792
2 Jan 2020 13:40:48.000,98.284,-79.631,23656.235964
2 Jan 2020 13:41:18.000,98.811,-79.257,23812.753850
2 Jan 2020 13:41:48.000,99.286,-78.899,23974.923269
2 Jan 2020 13:42:18.000,99.714,-78.556,24142.489390
2 Jan 2020 13:42:48.000,100.101,-78.229,24315.194537
2 Jan 2020 13:43:18.000,100.451,-77.919,24492.779220
2 Jan 2020 13:43:48.000,100.768,-77.624,24674.982862
2 Jan 2020 13:44:18.000,101.054,-77.347,24861.544477
2 Jan 2020 13:44:48.000,101.313,-77.086,25052.203628
2 Jan 2020 13:45:18.000,101.546,-76.841,25246.699714
2 Jan 2020 13:45:48.000,101.757,-76.613,25444.774424
2 Jan 2020 13:46:18.000,101.945,-76.401,25646.170942
2 Jan 2020 13:46:48.000,102.114,-76.206,25850.634698
2 Jan 2020 13:47:18.000,102.264,-76.027,26057.913760
2 Jan 2020 13:47:25.433,102.298,-75.985,26109.677748
2 Jan 2020 15:03:25.474,259.824,-75.993,26116.430656
2 Jan 2020 15:03:55.000,258.436,-76.116,25967.993712
2 Jan 2020 15:04:25.000,256.976,-76.246,25821.403913
2 Jan 2020 15:04:55.000,255.462,-76.382,25679.265599
2 Jan 2020 15:05:25.000,253.892,-76.523,25541.764696
2 Jan 2020 15:05:55.000,252.264,-76.667,25409.083128
2 Jan 2020 15:06:25.000,250.575,-76.815,25281.398278
2 Jan 2020 15:06:55.000,248.823,-76.964,25158.882206
2 Jan 2020 15:07:25.000,247.007,-77.115,25041.702032
2 Jan 2020 15:07:55.000,245.124,-77.267,24930.017958
2 Jan 2020 15:08:25.000,243.172,-77.418,24823.983654
2 Jan 2020 15:08:55.000,241.151,-77.567,24723.745467
2 Jan 2020 15:09:25.000,239.060,-77.713,24629.441864
2 Jan 2020 15:09:55.000,236.898,-77.856,24541.202697
2 Jan 2020 15:10:25.000,234.665,-77.994,24459.149484
2 Jan 2020 15:10:55.000,232.363,-78.125,24383.393685
2 Jan 2020 15:11:25.000,229.993,-78.250,24314.037057
2 Jan 2020 15:11:55.000,227.557,-78.366,24251.170999
2 Jan 2020 15:12:25.000,225.059,-78.473,24194.876017
2 Jan 2020 15:12:55.000,222.502,-78.570,24145.221876
2 Jan 2020 15:13:25.000,219.893,-78.655,24102.266483
2 Jan 2020 15:13:55.000,217.236,-78.728,24066.056154
2 Jan 2020 15:14:25.000,214.539,-78.789,24036.625250
2 Jan 2020 15:14:55.000,211.808,-78.836,24013.995936
2 Jan 2020 15:15:25.000,209.053,-78.869,23998.178364
2 Jan 2020 15:15:55.000,206.281,-78.888,23989.170156
2 Jan 2020 15:16:25.000,203.502,-78.893,23986.956724
2 Jan 2020 15:16:55.000,200.724,-78.883,23991.511248
2 Jan 2020 15:17:25.000,197.956,-78.859,24002.794786
2 Jan 2020 15:17:55.000,195.206,-78.821,24020.756503
2 Jan 2020 15:18:25.000,192.483,-78.770,24045.333803
2 Jan 2020 15:18:55.000,189.794,-78.706,24076.452688
2 Jan 2020 15:19:25.000,187.146,-78.630,24114.028072
2 Jan 2020 15:19:55.000,184.544,-78.543,24157.964204
2 Jan 2020 15:20:25.000,181.993,-78.446,24208.154916
2 Jan 2020 15:20:55.000,179.497,-78.339,24264.484324
2 Jan 2020 15:21:25.000,177.059,-78.224,24326.827171
2 Jan 2020 15:21:55.000,174.682,-78.102,24395.049376
2 Jan 2020 15:22:25.000,172.367,-77.974,24469.008584
2 Jan 2020 15:22:55.000,170.114,-77.841,24548.554838
2 Jan 2020 15:23:25.000,167.925,-77.704,24633.530708
2 Jan 2020 15:23:55.000,165.797,-77.564,24723.772529
2 Jan 2020 15:24:25.000,163.731,-77.421,24819.110567
2 Jan 2020 15:24:55.000,161.724,-77.278,24919.369704
2 Jan 2020 15:25:25.000,159.776,-77.135,25024.370031
2 Jan 2020 15:25:55.000,157.884,-76.992,25133.927415
2 Jan 2020 15:26:25.000,156.047,-76.851,25247.854242
2 Jan 2020 15:26:55.000,154.261,-76.712,25365.959292
2 Jan 2020 15:27:25.000,152.524,-76.576,25488.049267
2 Jan 2020 15:27:55.000,150.835,-76.444,25613.928657
2 Jan 2020 15:28:25.000,149.191,-76.316,25743.400389
2 Jan 2020 15:28:55.000,147.588,-76.192,25876.266303
2 Jan 2020 15:29:25.000,146.025,-76.073,26012.327598
2 Jan 2020 15:29:47.508,144.877,-75.988,26116.388499
2 Jan 2020 19:43:39.262,55.670,-75.992,26117.758926
2 Jan 2020 19:44:09.000,54.692,-76.144,25936.322395
2 Jan 2020 19:44:39.000,53.678,-76.309,25755.818072
2 Jan 2020 19:45:09.000,52.633,-76.486,25578.085137
2 Jan 2020 19:45:39.000,51.553,-76.676,25403.359050
2 Jan 2020 19:46:09.000,50.435,-76.876,25231.877254
2 Jan 2020 19:46:39.000,49.274,-77.089,25063.878769
2 Jan 2020 19:47:09.000,48.066,-77.312,24899.603747
2 Jan 2020 19:47:39.000,46.805,-77.547,24739.292989
2 Jan 2020 19:48:09.000,45.486,-77.791,24583.187180
2 Jan 2020 19:48:39.000,44.103,-78.046,24431.527281
2 Jan 2020 19:49:09.000,42.649,-78.309,24284.552475
2 Jan 2020 19:49:39.000,41.116,-78.581,24142.500491
2 Jan 2020 19:50:09.000,39.496,-78.860,24005.606675
2 Jan 2020 19:50:39.000,37.780,-79.146,23874.103267
2 Jan 2020 19:51:09.000,35.958,-79.436,23748.218454
2 Jan 2020 19:51:39.000,34.018,-79.731,23628.176365
2 Jan 2020 19:52:09.000,31.950,-80.028,23514.195076
2 Jan 2020 19:52:39.000,29.739,-80.326,23406.486577
2 Jan 2020 19:53:09.000,27.372,-80.622,23305.255724
2 Jan 2020 19:53:39.000,24.836,-80.914,23210.699250
2 Jan 2020 19:54:09.000,22.117,-81.201,23123.005467
2 Jan 2020 19:54:39.000,19.200,-81.479,23042.352562
2 Jan 2020 19:55:09.000,16.074,-81.745,22968.908342
2 Jan 2020 19:55:39.000,12.728,-81.997,22902.829281
2 Jan 2020 19:56:09.000,9.156,-82.230,22844.259653
2 Jan 2020 19:56:39.000,5.358,-82.441,22793.331145
2 Jan 2020 19:57:09.000,1.341,-82.627,22750.161626
2 Jan 2020 19:57:39.000,357.118,-82.784,22714.854891
2 Jan 2020 19:58:09.000,352.716,-82.910,22687.499990
2 Jan 2020 19:58:39.000,348.168,-83.000,22668.170813
2 Jan 2020 19:59:09.000,343.521,-83.053,22656.925543
2 Jan 2020 19:59:39.000,338.825,-83.068,22653.806438
2 Jan 2020 20:00:09.000,334.136,-83.044,22658.839606
2 Jan 2020 20:00:39.000,329.509,-82.982,22672.034726
2 Jan 2020 20:01:09.000,324.994,-82.883,22693.385190
2 Jan 2020 20:01:39.000,320.636,-82.749,22722.868041
2 Jan 2020 20:02:09.000,316.468,-82.583,22760.444237
2 Jan 2020 20:02:39.000,312.515,-82.389,22806.058526
2 Jan 2020 20:03:09.000,308.791,-82.169,22859.640294
2 Jan 2020 20:03:39.000,305.301,-81.927,22921.103641
2 Jan 2020 20:04:09.000,302.044,-81.668,22990.348089
2 Jan 2020 20:04:39.000,299.014,-81.393,23067.258593
2 Jan 2020 20:05:09.000,296.201,-81.107,23151.706970
2 Jan 2020 20:05:39.000,293.591,-80.813,23243.552058
2 Jan 2020 20:06:09.000,291.171,-80.512,23342.640564
2 Jan 2020 20:06:39.000,288.928,-80.209,23448.808066
2 Jan 2020 20:07:09.000,286.847,-79.904,23561.878903
2 Jan 2020 20:07:39.000,284.916,-79.600,23681.668327
2 Jan 2020 20:08:09.000,283.120,-79.298,23807.982460
2 Jan 2020 20:08:39.000,281.449,-79.001,23940.619340
2 Jan 2020 20:09:09.000,279.892,-78.710,24079.370010
2 Jan 2020 20:09:39.000,278.439,-78.425,24224.018347
2 Jan 2020 20:10:09.000,277.081,-78.148,24374.343344
2 Jan 2020 20:10:39.000,275.810,-77.881,24530.118926
2 Jan 2020 20:11:09.000,274.618,-77.623,24691.114950
2 Jan 2020 20:11:39.000,273.499,-77.376,24857.097941
2 Jan 2020 20:12:09.000,272.447,-77.139,25027.831787
2 Jan 2020 20:12:39.000,271.456,-76.915,25203.078737
2 Jan 2020 20:13:09.000,270.521,-76.702,25382.598707
2 Jan 2020 20:13:39.000,269.639,-76.502,25566.151835
2 Jan 2020 20:14:09.000,268.804,-76.314,25753.497724
2 Jan 2020 20:14:39.000,268.014,-76.140,25944.396277
2 Jan 2020 20:15:05.736,267.345,-75.996,26117.326870
2 Jan 2020 21:30:05.273,88.974,-75.988,26110.624389
2 Jan 2020 21:30:35.000,89.816,-76.145,25922.724985
2 Jan 2020 21:31:05.000,90.709,-76.317,25736.541565
2 Jan 2020 21:31:35.000,91.650,-76.500,25554.047347
2 Jan 2020 21:32:05.000,92.643,-76.695,25375.477582
2 Jan 2020 21:32:35.000,93.691,-76.901,25201.067291
2 Jan 2020 21:33:05.000,94.799,-77.119,25031.050740
2 Jan 2020 21:33:35.000,95.972,-77.346,24865.660879
2 Jan 2020 21:34:05.000,97.216,-77.584,24705.128446
2 Jan 2020 21:34:35.000,98.535,-77.830,24549.682538
2 Jan 2020 21:35:05.000,99.937,-78.085,24399.548120
2 Jan 2020 21:35:35.000,101.429,-78.347,24254.946555
2 Jan 2020 21:36:05.000,103.018,-78.615,24116.094564
2 Jan 2020 21:36:35.000,104.712,-78.889,23983.203480
2 Jan 2020 21:37:05.000,106.521,-79.166,23856.478209
2 Jan 2020 21:37:35.000,108.453,-79.445,23736.117510
2 Jan 2020 21:38:05.000,110.519,-79.724,23622.311586
2 Jan 2020 21:38:35.000,112.728,-80.003,23515.242373
2 Jan 2020 21:39:05.000,115.090,-80.278,23415.082470
2 Jan 2020 21:39:35.000,117.616,-80.547,23321.994162
2 Jan 2020 21:40:05.000,120.315,-80.809,23236.129437
2 Jan 2020 21:40:35.000,123.195,-81.060,23157.628061
2 Jan 2020 21:41:05.000,126.261,-81.297,23086.617676
2 Jan 2020 21:41:35.000,129.516,-81.519,23023.212822
2 Jan 2020 21:42:05.000,132.960,-81.721,22967.514818
2 Jan 2020 21:42:35.000,136.587,-81.902,22919.610460
2 Jan 2020 21:43:05.000,140.384,-82.057,22879.572052
2 Jan 2020 21:43:35.000,144.333,-82.186,22847.456796
2 Jan 2020 21:44:05.000,148.411,-82.284,22823.306758
2 Jan 2020 21:44:35.000,152.585,-82.351,22807.148151
2 Jan 2020 21:45:05.000,156.820,-82.385,22798.991499
2 Jan 2020 21:45:35.000,161.076,-82.386,22798.831465
2 Jan 2020 21:46:05.000,165.313,-82.353,22806.646946
2 Jan 2020 21:46:35.000,169.492,-82.288,22822.401044
2 Jan 2020 21:47:05.000,173.578,-82.192,22846.041364
2 Jan 2020 21:47:35.000,177.541,-82.067,22877.500309
2 Jan 2020 21:48:05.000,181.356,-81.914,22916.695313
2 Jan 2020 21:48:35.000,185.006,-81.738,22963.529458
2 Jan 2020 21:49:05.000,188.481,-81.540,23017.891890
2 Jan 2020 21:49:35.000,191.774,-81.323,23079.658415
2 Jan 2020 21:50:05.000,194.886,-81.091,23148.692262
2 Jan 2020 21:50:35.000,197.821,-80.846,23224.844317
2 Jan 2020 21:51:05.000,200.583,-80.591,23307.954509
2 Jan 2020 21:51:35.000,203.182,-80.329,23397.852152
2 Jan 2020 21:52:05.000,205.627,-80.062,23494.356840
2 Jan 2020 21:52:35.000,207.928,-79.791,23597.279417
2 Jan 2020 21:53:05.000,210.095,-79.519,23706.422155
2 Jan 2020 21:53:35.000,212.138,-79.248,23821.580517
2 Jan 2020 21:54:05.000,214.067,-78.979,23942.543354
2 Jan 2020 21:54:35.000,215.892,-78.713,24069.093861
2 Jan 2020 21:55:05.000,217.621,-78.453,24201.010367
2 Jan 2020 21:55:35.000,219.263,-78.198,24338.067317
2 Jan 2020 21:56:05.000,220.825,-77.950,24480.035142
2 Jan 2020 21:56:35.000,222.314,-77.710,24626.682260
2 Jan 2020 21:57:05.000,223.737,-77.478,24777.774902
2 Jan 2020 21:57:35.000,225.099,-77.255,24933.077959
2 Jan 2020 21:58:05.000,226.407,-77.042,25092.355593
2 Jan 2020 21:58:35.000,227.665,-76.839,25255.371795
2 Jan 2020 21:59:05.000,228.877,-76.647,25421.890920
2 Jan 2020 21:59:35.000,230.048,-76.465,25591.678168
2 Jan 2020 22:00:05.000,231.183,-76.294,25764.500322
2 Jan 2020 22:00:35.000,232.283,-76.134,25940.125031
2 Jan 2020 22:01:03.657,233.306,-75.992,26110.294848
3 Jan 2020 02:14:29.920,321.185,-75.986,26105.137976
3 Jan 2020 02:14:59.000,322.602,-76.103,25963.248394
3 Jan 2020 02:15:29.000,324.101,-76.231,25819.761604
3 Jan 2020 02:15:59.000,325.641,-76.364,25679.413187
3 Jan 2020 02:16:29.000,327.223,-76.504,25542.408913
3 Jan 2020 02:16:59.000,328.851,-76.648,25408.954324
3 Jan 2020 02:17:29.000,330.529,-76.797,25279.254288
3 Jan 2020 02:17:59.000,332.258,-76.950,25153.512519
3 Jan 2020 02:18:29.000,334.042,-77.107,25031.931081
3 Jan 2020 02:18:59.000,335.884,-77.266,24914.709693
3 Jan 2020 02:19:29.000,337.787,-77.427,24802.045862
3 Jan 2020 02:19:59.000,339.753,-77.588,24694.133280
3 Jan 2020 02:20:29.000,341.786,-77.750,24591.161934
3 Jan 2020 02:20:59.000,343.887,-77.910,24493.317329
3 Jan 2020 02:21:29.000,346.058,-78.069,24400.779873
3 Jan 2020 02:21:59.000,348.302,-78.224,24313.724145
3 Jan 2020 02:22:29.000,350.619,-78.374,24232.318715
3 Jan 2020 02:22:59.000,353.009,-78.519,24156.724834
3 Jan 2020 02:23:29.000,355.472,-78.657,24087.096277
3 Jan 2020 02:23:59.000,358.007,-78.787,24023.578617
3 Jan 2020 02:24:29.000,0.612,-78.907,23966.308569
3 Jan 2020 02:24:59.000,3.282,-79.017,23915.413653
3 Jan 2020 02:25:29.000,6.014,-79.115,23871.011279
3 Jan 2020 02:25:59.000,8.801,-79.200,23833.208484
3 Jan 2020 02:26:29.000,11.637,-79.271,23802.101385
3 Jan 2020 02:26:59.000,14.513,-79.327,23777.774745
3 Jan 2020 02:27:29.000,17.421,-79.368,23760.301598
3 Jan 2020 02:27:59.000,20.350,-79.393,23749.742861
3 Jan 2020 02:28:29.000,23.290,-79.401,23746.147096
3 Jan 2020 02:28:59.000,26.230,-79.393,23749.550268
3 Jan 2020 02:29:29.000,29.158,-79.369,23759.975639
3 Jan 2020 02:29:59.000,32.064,-79.328,23777.433432
3 Jan 2020 02:30:29.000,34.938,-79.271,23801.921121
3 Jan 2020 02:30:59.000,37.770,-79.199,23833.423245
3 Jan 2020 02:31:29.000,40.550,-79.112,23871.911545
3 Jan 2020 02:31:59.000,43.272,-79.012,23917.345233
3 Jan 2020 02:32:29.000,45.929,-78.899,23969.670723
3 Jan 2020 02:32:59.000,48.514,-78.775,24028.822594
3 Jan 2020 02:33:29.000,51.025,-78.641,24094.723459
3 Jan 2020 02:33:59.000,53.457,-78.498,24167.284441
3 Jan 2020 02:34:29.000,55.809,-78.347,24246.405764
3 Jan 2020 02:34:59.000,58.080,-78.189,24331.976531
3 Jan 2020 02:35:29.000,60.270,-78.027,24423.876217
3 Jan 2020 02:35:59.000,62.379,-77.861,24521.974538
3 Jan 2020 02:36:29.000,64.408,-77.692,24626.132160
3 Jan 2020 02:36:59.000,66.358,-77.522,24736.201273
3 Jan 2020 02:37:29.000,68.233,-77.352,24852.026417
3 Jan 2020 02:37:59.000,70.035,-77.183,24973.444103
3 Jan 2020 02:38:29.000,71.765,-77.016,25100.284864
3 Jan 2020 02:38:59.000,73.427,-76.851,25232.372900
3 Jan 2020 02:39:29.000,75.024,-76.690,25369.526906
3 Jan 2020 02:39:59.000,76.558,-76.534,25511.560665
3 Jan 2020 02:40:29.000,78.032,-76.383,25658.283626
3 Jan 2020 02:40:59.000,79.450,-76.238,25809.501750
3 Jan 2020 02:41:29.000,80.814,-76.099,25965.016915
3 Jan 2020 02:41:55.416,81.972,-75.983,26105.354308
3 Jan 2020 03:57:36.522,280.641,-75.990,26111.716830
3 Jan 2020 03:58:06.000,280.395,-76.161,25908.385521
3 Jan 2020 03:58:36.000,280.122,-76.351,25704.258190
3 Jan 2020 03:59:06.000,279.825,-76.557,25503.211552
3 Jan 2020 03:59:36.000,279.501,-76.779,25305.498733
3 Jan 2020 04:00:06.000,279.148,-77.017,25111.374962
3 Jan 2020 04:00:36.000,278.763,-77.271,24921.097129
3 Jan 2020 04:01:06.000,278.345,-77.541,24734.923307
3 Jan 2020 04:01:36.000,277.888,-77.827,24553.112220
3 Jan 2020 04:02:06.000,277.390,-78.129,24375.922338
3 Jan 2020 04:02:36.000,276.845,-78.447,24203.612570
3 Jan 2020 04:03:06.000,276.249,-78.779,24036.439594
3 Jan 2020 04:03:36.000,275.594,-79.127,23874.658470
3 Jan 2020 04:04:06.000,274.875,-79.489,23718.521536
3 Jan 2020 04:04:36.000,274.080,-79.865,23568.277588
3 Jan 2020 04:05:06.000,273.201,-80.254,23424.170751
3 Jan 2020 04:05:36.000,272.225,-80.655,23286.440709
3 Jan 2020 04:06:06.000,271.135,-81.068,23155.320075
3 Jan 2020 04:06:36.000,269.913,-81.492,23031.034589
3 Jan 2020 04:07:06.000,268.535,-81.924,22913.801862
3 Jan 2020 04:07:36.000,266.974,-82.365,22803.830178
3 Jan 2020 04:08:06.000,265.193,-82.811,22701.318386
3 Jan 2020 04:08:36.000,263.146,-83.260,22606.453600
3 Jan 2020 04:09:06.000,260.777,-83.711,22519.411138
3 Jan 2020 04:09:36.000,258.013,-84.159,22440.353235
3 Jan 2020 04:10:06.000,254.761,-84.600,22369.428715
3 Jan 2020 04:10:36.000,250.908,-85.029,22306.771294
3 Jan 2020 04:11:06.000,246.313,-85.438,22252.499392
3 Jan 2020 04:11:36.000,240.816,-85.819,22206.715199
3 Jan 2020 04:12:06.000,234.250,-86.159,22169.504411
3 Jan 2020 04:12:36.000,226.495,-86.445,22140.935145
3 Jan 2020 04:13:06.000,217.548,-86.659,22121.057902
3 Jan 2020 04:13:36.000,207.626,-86.786,22109.905113
3 Jan 2020 04:14:06.000,197.211,-86.814,22107.491047
3 Jan 2020 04:14:36.000,186.945,-86.740,22113.811522
3 Jan 2020 04:15:06.000,177.417,-86.573,22128.844065
3 Jan 2020 04:15:36.000,168.988,-86.325,22152.548052
3 Jan 2020 04:16:06.000,161.764,-86.013,22184.864807
3 Jan 2020 04:16:36.000,155.675,-85.655,22225.718161
3 Jan 2020 04:17:06.000,150.571,-85.261,22275.014800
3 Jan 2020 04:17:36.000,146.286,-84.845,22332.644949
3 Jan 2020 04:18:06.000,142.667,-84.412,22398.482640
3 Jan 2020 04:18:36.000,139.586,-83.970,22472.386999
3 Jan 2020 04:19:06.000,136.938,-83.524,22554.202692
3 Jan 2020 04:19:36.000,134.642,-83.077,22643.761013
3 Jan 2020 04:20:06.000,132.632,-82.632,22740.880226
3 Jan 2020 04:20:36.000,130.858,-82.192,22845.367348
3 Jan 2020 04:21:06.000,129.277,-81.758,22957.018572
3 Jan 2020 04:21:36.000,127.858,-81.333,23075.620389
3 Jan 2020 04:22:06.000,126.574,-80.918,23200.950808
3 Jan 2020 04:22:36.000,125.405,-80.514,23332.779448
3 Jan 2020 04:23:06.000,124.333,-80.122,23470.869834
3 Jan 2020 04:23:36.000,123.344,-79.742,23614.979481
3 Jan 2020 04:24:06.000,122.426,-79.375,23764.861036
3 Jan 2020 04:24:36.000,121.568,-79.023,23920.263168
3 Jan 2020 04:25:06.000,120.764,-78.685,24080.931700
3 Jan 2020 04:25:36.000,120.005,-78.362,24246.609311
3 Jan 2020 04:26:06.000,119.286,-78.054,24417.037950
3 Jan 2020 04:26:36.000,118.602,-77.761,24591.958462
3 Jan 2020 04:27:06.000,117.947,-77.483,24771.111529
3 Jan 2020 04:27:36.000,117.319,-77.222,24954.238285
3 Jan 2020 04:28:06.000,116.714,-76.976,25141.080887
3 Jan 2020 04:28:36.000,116.129,-76.745,25331.383033
3 Jan 2020 04:29:06.000,115.561,-76.530,25524.890435
3 Jan 2020 04:29:36.000,115.008,-76.331,25721.351573
3 Jan 2020 04:30:06.000,114.468,-76.147,25920.516766
3 Jan 2020 04:30:34.536,113.964,-75.986,26112.249988
3 Jan 2020 05:51:36.755,237.025,-75.993,26118.622825
3 Jan 2020 05:52:06.000,235.141,-76.044,26055.629404
3 Jan 2020 05:52:36.000,233.182,-76.094,25995.989912
3 Jan 2020 05:53:06.000,231.197,-76.141,25941.454656
3 Jan 2020 05:53:36.000,229.189,-76.184,25892.076474
3 Jan 2020 05:54:06.000,227.159,-76.224,25847.900058
3 Jan 2020 05:54:36.000,225.109,-76.260,25808.961795
3 Jan 2020 05:55:06.000,223.042,-76.291,25775.289535
3 Jan 2020 05:55:36.000,220.959,-76.318,25746.902886
