STKdata/stk_70fov_4leo/Satellite-MEO_Satellite10000-To-Satellite-LEO_Satellite10000 AER.csv

"Time (UTCG)","Azimuth (deg)","Elevation (deg)","Range (km)"
1 Jan 2020 00:00:00.000,159.733,-78.691,24076.535268
1 Jan 2020 00:00:30.000,160.690,-78.971,23942.436318
1 Jan 2020 00:01:00.000,161.713,-79.260,23812.597113
1 Jan 2020 00:01:30.000,162.807,-79.557,23687.167374
1 Jan 2020 00:02:00.000,163.981,-79.862,23566.294034
1 Jan 2020 00:02:30.000,165.244,-80.173,23450.120837
1 Jan 2020 00:03:00.000,166.604,-80.490,23338.787930
1 Jan 2020 00:03:30.000,168.075,-80.812,23232.431216
1 Jan 2020 00:04:00.000,169.669,-81.138,23131.182830
1 Jan 2020 00:04:30.000,171.400,-81.467,23035.169351
1 Jan 2020 00:05:00.000,173.287,-81.797,22944.512293
1 Jan 2020 00:05:30.000,175.347,-82.127,22859.327450
1 Jan 2020 00:06:00.000,177.602,-82.455,22779.724475
1 Jan 2020 00:06:30.000,180.077,-82.778,22705.806315
1 Jan 2020 00:07:00.000,182.798,-83.095,22637.669474
1 Jan 2020 00:07:30.000,185.791,-83.403,22575.402629
1 Jan 2020 00:08:00.000,189.087,-83.698,22519.086959
1 Jan 2020 00:08:30.000,192.711,-83.977,22468.795630
1 Jan 2020 00:09:00.000,196.689,-84.237,22424.593408
1 Jan 2020 00:09:30.000,201.037,-84.472,22386.536744
1 Jan 2020 00:10:00.000,205.758,-84.679,22354.672961
1 Jan 2020 00:10:30.000,210.839,-84.853,22329.040441
1 Jan 2020 00:11:00.000,216.242,-84.989,22309.668349
1 Jan 2020 00:11:30.000,221.904,-85.083,22296.576476
1 Jan 2020 00:12:00.000,227.737,-85.132,22289.775277
1 Jan 2020 00:12:30.000,233.636,-85.136,22289.265611
1 Jan 2020 00:13:00.000,239.486,-85.094,22295.038890
1 Jan 2020 00:13:30.000,245.180,-85.006,22307.077079
1 Jan 2020 00:14:00.000,250.629,-84.877,22325.352804
1 Jan 2020 00:14:30.000,255.765,-84.710,22349.829364
1 Jan 2020 00:15:00.000,260.550,-84.510,22380.461045
1 Jan 2020 00:15:30.000,264.967,-84.280,22417.193237
1 Jan 2020 00:16:00.000,269.018,-84.027,22459.962684
1 Jan 2020 00:16:30.000,272.718,-83.753,22508.697851
1 Jan 2020 00:17:00.000,276.092,-83.463,22563.318888
1 Jan 2020 00:17:30.000,279.165,-83.160,22623.738451
1 Jan 2020 00:18:00.000,281.967,-82.848,22689.861746
1 Jan 2020 00:18:30.000,284.525,-82.530,22761.586985
1 Jan 2020 00:19:00.000,286.867,-82.207,22838.805779
1 Jan 2020 00:19:30.000,289.015,-81.882,22921.403720
1 Jan 2020 00:20:00.000,290.993,-81.557,23009.260152
1 Jan 2020 00:20:30.000,292.819,-81.233,23102.249561
1 Jan 2020 00:21:00.000,294.510,-80.911,23200.241380
1 Jan 2020 00:21:30.000,296.082,-80.594,23303.100581
1 Jan 2020 00:22:00.000,297.548,-80.281,23410.688114
1 Jan 2020 00:22:30.000,298.920,-79.973,23522.861330
1 Jan 2020 00:23:00.000,300.208,-79.673,23639.474638
1 Jan 2020 00:23:30.000,301.420,-79.379,23760.379009
1 Jan 2020 00:24:00.000,302.565,-79.093,23885.423729
1 Jan 2020 00:24:30.000,303.650,-78.815,24014.455897
1 Jan 2020 00:25:00.000,304.681,-78.546,24147.321021
1 Jan 2020 00:25:30.000,305.663,-78.287,24283.863376
1 Jan 2020 00:26:00.000,306.601,-78.036,24423.926348
1 Jan 2020 00:26:30.000,307.499,-77.795,24567.352755
1 Jan 2020 00:27:00.000,308.362,-77.564,24713.985158
1 Jan 2020 00:27:30.000,309.193,-77.344,24863.666149
1 Jan 2020 00:28:00.000,309.994,-77.133,25016.238920
1 Jan 2020 00:28:30.000,310.769,-76.933,25171.546308
1 Jan 2020 00:29:00.000,311.521,-76.743,25329.432833
1 Jan 2020 00:29:30.000,312.250,-76.564,25489.743715
1 Jan 2020 00:30:00.000,312.960,-76.395,25652.325367
1 Jan 2020 00:30:30.000,313.652,-76.236,25817.025576
1 Jan 2020 00:31:00.000,314.328,-76.089,25983.693668
1 Jan 2020 00:31:22.038,314.815,-75.987,26107.295373
1 Jan 2020 02:03:22.283,194.566,-75.993,26114.567552
1 Jan 2020 02:03:52.000,195.872,-76.093,25993.855165
1 Jan 2020 02:04:22.000,197.220,-76.197,25874.433618
1 Jan 2020 02:04:52.000,198.598,-76.305,25757.557600
1 Jan 2020 02:05:22.000,200.009,-76.417,25643.321987
1 Jan 2020 02:05:52.000,201.452,-76.532,25531.820657
1 Jan 2020 02:06:22.000,202.931,-76.651,25423.146343
1 Jan 2020 02:06:52.000,204.445,-76.771,25317.390486
1 Jan 2020 02:07:22.000,205.997,-76.894,25214.643080
1 Jan 2020 02:07:52.000,207.587,-77.019,25114.992515
1 Jan 2020 02:08:22.000,209.218,-77.145,25018.525414
1 Jan 2020 02:08:52.000,210.889,-77.272,24925.326273
1 Jan 2020 02:09:22.000,212.603,-77.399,24835.478114
1 Jan 2020 02:09:52.000,214.360,-77.527,24749.061076
1 Jan 2020 02:10:22.000,216.162,-77.654,24666.153082
1 Jan 2020 02:10:52.000,218.008,-77.780,24586.829466
1 Jan 2020 02:11:22.000,219.901,-77.904,24511.162806
1 Jan 2020 02:11:52.000,221.840,-78.026,24439.222759
1 Jan 2020 02:12:22.000,223.825,-78.145,24371.075901
1 Jan 2020 02:12:52.000,225.857,-78.261,24306.785431
1 Jan 2020 02:13:22.000,227.936,-78.373,24246.411567
1 Jan 2020 02:13:52.000,230.060,-78.480,24190.010566
1 Jan 2020 02:14:22.000,232.229,-78.583,24137.635142
1 Jan 2020 02:14:52.000,234.441,-78.679,24089.334188
1 Jan 2020 02:15:22.000,236.695,-78.769,24045.152647
1 Jan 2020 02:15:52.000,238.989,-78.852,24005.131398
1 Jan 2020 02:16:22.000,241.320,-78.928,23969.307139
1 Jan 2020 02:16:52.000,243.685,-78.996,23937.712219
1 Jan 2020 02:17:22.000,246.081,-79.056,23910.374850
1 Jan 2020 02:17:52.000,248.503,-79.106,23887.318564
1 Jan 2020 02:18:22.000,250.949,-79.148,23868.562465
1 Jan 2020 02:18:52.000,253.413,-79.180,23854.121101
1 Jan 2020 02:19:22.000,255.892,-79.203,23844.004416
1 Jan 2020 02:19:52.000,258.379,-79.216,23838.217732
1 Jan 2020 02:20:22.000,260.870,-79.219,23836.761725
1 Jan 2020 02:20:52.000,263.360,-79.213,23839.632458
1 Jan 2020 02:21:22.000,265.844,-79.196,23846.821340
1 Jan 2020 02:21:52.000,268.318,-79.170,23858.315199
1 Jan 2020 02:22:22.000,270.775,-79.135,23874.096310
1 Jan 2020 02:22:52.000,273.213,-79.090,23894.142449
1 Jan 2020 02:23:22.000,275.626,-79.036,23918.426963
1 Jan 2020 02:23:52.000,278.011,-78.974,23946.918846
1 Jan 2020 02:24:22.000,280.364,-78.904,23979.582906
1 Jan 2020 02:24:52.000,282.682,-78.826,24016.379584
1 Jan 2020 02:25:22.000,284.963,-78.742,24057.265477
1 Jan 2020 02:25:52.000,287.204,-78.650,24102.193193
1 Jan 2020 02:26:22.000,289.403,-78.553,24151.111549
1 Jan 2020 02:26:52.000,291.560,-78.450,24203.965713
1 Jan 2020 02:27:22.000,293.672,-78.343,24260.697340
1 Jan 2020 02:27:52.000,295.740,-78.231,24321.244737
1 Jan 2020 02:28:22.000,297.763,-78.116,24385.543140
1 Jan 2020 02:28:52.000,299.740,-77.998,24453.524369
1 Jan 2020 02:29:22.000,301.673,-77.877,24525.117750
1 Jan 2020 02:29:52.000,303.560,-77.754,24600.249785
1 Jan 2020 02:30:22.000,305.404,-77.630,24678.844443
1 Jan 2020 02:30:52.000,307.205,-77.505,24760.823333
1 Jan 2020 02:31:22.000,308.963,-77.379,24846.105873
1 Jan 2020 02:31:52.000,310.680,-77.254,24934.609461
1 Jan 2020 02:32:22.000,312.357,-77.130,25026.249643
1 Jan 2020 02:32:52.000,313.994,-77.006,25120.940279
1 Jan 2020 02:33:22.000,315.595,-76.884,25218.593911
1 Jan 2020 02:33:52.000,317.159,-76.764,25319.121119
1 Jan 2020 02:34:22.000,318.687,-76.646,25422.431875
1 Jan 2020 02:34:52.000,320.183,-76.531,25528.434903
1 Jan 2020 02:35:22.000,321.645,-76.418,25637.038024
1 Jan 2020 02:35:52.000,323.077,-76.309,25748.148302
1 Jan 2020 02:36:22.000,324.479,-76.203,25861.672177
1 Jan 2020 02:36:52.000,325.853,-76.101,25977.515605
1 Jan 2020 02:37:22.000,327.199,-76.003,26095.584178
1 Jan 2020 02:37:26.792,327.412,-75.987,26114.643736
1 Jan 2020 04:13:04.515,225.427,-75.992,26120.193476
1 Jan 2020 04:13:34.000,226.443,-76.112,25975.454827
1 Jan 2020 04:14:04.000,227.499,-76.242,25830.093601
1 Jan 2020 04:14:34.000,228.581,-76.378,25686.780548
1 Jan 2020 04:15:04.000,229.690,-76.522,25545.644766
1 Jan 2020 04:15:34.000,230.829,-76.674,25406.816162
1 Jan 2020 04:16:04.000,231.999,-76.832,25270.425298
1 Jan 2020 04:16:34.000,233.204,-76.997,25136.603218
1 Jan 2020 04:17:04.000,234.446,-77.168,25005.481269
1 Jan 2020 04:17:34.000,235.727,-77.346,24877.190909
1 Jan 2020 04:18:04.000,237.050,-77.529,24751.863495
1 Jan 2020 04:18:34.000,238.420,-77.718,24629.630067
1 Jan 2020 04:19:04.000,239.839,-77.912,24510.620883
1 Jan 2020 04:19:34.000,241.310,-78.111,24394.966120
1 Jan 2020 04:20:04.000,242.838,-78.314,24282.794188
1 Jan 2020 04:20:34.000,244.427,-78.520,24174.232426
1 Jan 2020 04:21:04.000,246.081,-78.729,24069.406581
1 Jan 2020 04:21:34.000,247.804,-78.940,23968.440527
1 Jan 2020 04:22:04.000,249.601,-79.152,23871.455963
1 Jan 2020 04:22:34.000,251.477,-79.365,23778.572118
1 Jan 2020 04:23:04.000,253.436,-79.578,23689.905270
1 Jan 2020 04:23:34.000,255.484,-79.789,23605.569116
1 Jan 2020 04:24:04.000,257.625,-79.998,23525.673422
1 Jan 2020 04:24:34.000,259.863,-80.203,23450.324401
1 Jan 2020 04:25:04.000,262.204,-80.403,23379.624222
1 Jan 2020 04:25:34.000,264.649,-80.597,23313.670695
1 Jan 2020 04:26:04.000,267.203,-80.783,23252.556959
1 Jan 2020 04:26:34.000,269.867,-80.960,23196.371080
1 Jan 2020 04:27:04.000,272.641,-81.127,23145.196171
1 Jan 2020 04:27:34.000,275.524,-81.282,23099.109467
1 Jan 2020 04:28:04.000,278.514,-81.423,23058.182492
1 Jan 2020 04:28:34.000,281.604,-81.550,23022.480694
1 Jan 2020 04:29:04.000,284.787,-81.660,22992.063201
1 Jan 2020 04:29:34.000,288.053,-81.752,22966.982579
1 Jan 2020 04:30:04.000,291.389,-81.826,22947.284762
1 Jan 2020 04:30:34.000,294.782,-81.880,22933.008666
1 Jan 2020 04:31:04.000,298.214,-81.914,22924.186187
1 Jan 2020 04:31:34.000,301.667,-81.926,22920.842044
1 Jan 2020 04:32:04.000,305.122,-81.918,22922.993675
1 Jan 2020 04:32:34.000,308.561,-81.889,22930.651206
1 Jan 2020 04:33:04.000,311.965,-81.839,22943.817276
1 Jan 2020 04:33:34.000,315.316,-81.769,22962.487211
1 Jan 2020 04:34:04.000,318.600,-81.679,22986.648924
1 Jan 2020 04:34:34.000,321.801,-81.571,23016.282988
1 Jan 2020 04:35:04.000,324.909,-81.447,23051.362710
1 Jan 2020 04:35:34.000,327.916,-81.306,23091.854332
1 Jan 2020 04:36:04.000,330.815,-81.151,23137.716758
1 Jan 2020 04:36:34.000,333.602,-80.984,23188.902290
1 Jan 2020 04:37:04.000,336.274,-80.805,23245.356424
1 Jan 2020 04:37:34.000,338.832,-80.616,23307.018139
1 Jan 2020 04:38:04.000,341.277,-80.419,23373.820116
1 Jan 2020 04:38:34.000,343.610,-80.215,23445.689126
1 Jan 2020 04:39:04.000,345.836,-80.005,23522.545672
1 Jan 2020 04:39:34.000,347.957,-79.792,23604.305156
1 Jan 2020 04:40:04.000,349.979,-79.575,23690.877567
1 Jan 2020 04:40:34.000,351.906,-79.356,23782.167911
1 Jan 2020 04:41:04.000,353.742,-79.137,23878.076508
1 Jan 2020 04:41:34.000,355.493,-78.917,23978.499293
1 Jan 2020 04:42:04.000,357.164,-78.699,24083.328338
1 Jan 2020 04:42:34.000,358.758,-78.483,24192.451287
1 Jan 2020 04:43:04.000,0.281,-78.270,24305.752958
1 Jan 2020 04:43:34.000,1.737,-78.060,24423.114790
1 Jan 2020 04:44:04.000,3.130,-77.855,24544.415357
1 Jan 2020 04:44:34.000,4.463,-77.654,24669.530660
1 Jan 2020 04:45:04.000,5.742,-77.459,24798.334418
1 Jan 2020 04:45:34.000,6.968,-77.269,24930.698347
1 Jan 2020 04:46:04.000,8.146,-77.086,25066.492434
1 Jan 2020 04:46:34.000,9.277,-76.909,25205.585487
1 Jan 2020 04:47:04.000,10.366,-76.740,25347.844254
1 Jan 2020 04:47:34.000,11.415,-76.577,25493.135353
1 Jan 2020 04:48:04.000,12.426,-76.422,25641.324389
1 Jan 2020 04:48:34.000,13.402,-76.275,25792.276447
1 Jan 2020 04:49:04.000,14.345,-76.136,25945.856303
1 Jan 2020 04:49:34.000,15.256,-76.006,26101.928622
1 Jan 2020 04:49:37.515,15.361,-75.991,26120.372146
1 Jan 2020 06:16:14.784,216.710,-75.990,26119.535897
1 Jan 2020 06:16:44.000,216.633,-76.137,25943.026039
1 Jan 2020 06:17:14.000,216.543,-76.301,25763.781327
1 Jan 2020 06:17:44.000,216.443,-76.477,25586.727093
1 Jan 2020 06:18:14.000,216.332,-76.665,25412.027349
1 Jan 2020 06:18:44.000,216.209,-76.866,25239.847580
1 Jan 2020 06:19:14.000,216.074,-77.079,25070.354551
1 Jan 2020 06:19:44.000,215.925,-77.305,24903.716101
1 Jan 2020 06:20:14.000,215.762,-77.544,24740.100910
1 Jan 2020 06:20:44.000,215.584,-77.795,24579.678253
1 Jan 2020 06:21:14.000,215.388,-78.059,24422.617727
1 Jan 2020 06:21:44.000,215.174,-78.336,24269.088653
1 Jan 2020 06:22:14.000,214.940,-78.625,24119.261000
1 Jan 2020 06:22:44.000,214.684,-78.926,23973.303183
1 Jan 2020 06:23:14.000,214.404,-79.240,23831.382960
1 Jan 2020 06:23:44.000,214.096,-79.566,23693.666739
1 Jan 2020 06:24:14.000,213.758,-79.903,23560.319187
1 Jan 2020 06:24:44.000,213.386,-80.252,23431.502813
1 Jan 2020 06:25:14.000,212.975,-80.613,23307.377288
1 Jan 2020 06:25:44.000,212.519,-80.984,23188.099994
1 Jan 2020 06:26:14.000,212.013,-81.365,23073.824060
1 Jan 2020 06:26:44.000,211.448,-81.757,22964.698897
1 Jan 2020 06:27:14.000,210.815,-82.159,22860.869464
1 Jan 2020 06:27:44.000,210.100,-82.569,22762.475782
1 Jan 2020 06:28:14.000,209.288,-82.988,22669.652253
1 Jan 2020 06:28:44.000,208.360,-83.414,22582.527942
1 Jan 2020 06:29:14.000,207.289,-83.847,22501.224920
1 Jan 2020 06:29:44.000,206.041,-84.286,22425.858585
1 Jan 2020 06:30:14.000,204.570,-84.729,22356.536993
1 Jan 2020 06:30:44.000,202.813,-85.175,22293.360301
1 Jan 2020 06:31:14.000,200.682,-85.622,22236.420819
1 Jan 2020 06:31:44.000,198.051,-86.068,22185.801876
1 Jan 2020 06:32:14.000,194.736,-86.508,22141.577949
1 Jan 2020 06:32:44.000,190.459,-86.938,22103.814205
1 Jan 2020 06:33:14.000,184.803,-87.349,22072.566137
1 Jan 2020 06:33:44.000,177.149,-87.729,22047.879560
1 Jan 2020 06:34:14.000,166.674,-88.055,22029.789995
1 Jan 2020 06:34:44.000,152.647,-88.294,22018.322783
1 Jan 2020 06:35:14.000,135.428,-88.407,22013.492882
1 Jan 2020 06:35:44.000,117.451,-88.364,22015.304809
1 Jan 2020 06:36:14.000,101.797,-88.178,22023.752600
1 Jan 2020 06:36:44.000,89.747,-87.887,22038.819839
1 Jan 2020 06:37:14.000,80.899,-87.529,22060.479749
1 Jan 2020 06:37:44.000,74.401,-87.131,22088.695313
1 Jan 2020 06:38:14.000,69.530,-86.709,22123.419523
1 Jan 2020 06:38:44.000,65.786,-86.274,22164.595320
1 Jan 2020 06:39:14.000,62.833,-85.831,22212.156257
1 Jan 2020 06:39:44.000,60.451,-85.386,22266.026554
1 Jan 2020 06:40:14.000,58.489,-84.940,22326.121491
1 Jan 2020 06:40:44.000,56.845,-84.497,22392.347922
1 Jan 2020 06:41:14.000,55.444,-84.057,22464.604165
1 Jan 2020 06:41:44.000,54.235,-83.623,22542.781176
1 Jan 2020 06:42:14.000,53.177,-83.195,22626.762512
1 Jan 2020 06:42:44.000,52.242,-82.775,22716.424922
1 Jan 2020 06:43:14.000,51.406,-82.362,22811.638821
1 Jan 2020 06:43:44.000,50.654,-81.958,22912.268983
1 Jan 2020 06:44:14.000,49.970,-81.564,23018.174222
1 Jan 2020 06:44:44.000,49.344,-81.179,23129.209090
1 Jan 2020 06:45:14.000,48.766,-80.805,23245.223570
1 Jan 2020 06:45:44.000,48.231,-80.441,23366.063761
1 Jan 2020 06:46:14.000,47.730,-80.089,23491.572348
1 Jan 2020 06:46:44.000,47.261,-79.747,23621.589069
1 Jan 2020 06:47:14.000,46.817,-79.418,23755.951422
1 Jan 2020 06:47:44.000,46.397,-79.100,23894.494064
1 Jan 2020 06:48:14.000,45.997,-78.794,24037.050768
1 Jan 2020 06:48:44.000,45.613,-78.501,24183.453802
1 Jan 2020 06:49:14.000,45.245,-78.220,24333.534555
1 Jan 2020 06:49:44.000,44.890,-77.951,24487.123897
1 Jan 2020 06:50:14.000,44.547,-77.695,24644.052511
1 Jan 2020 06:50:44.000,44.213,-77.451,24804.151207
1 Jan 2020 06:51:14.000,43.889,-77.219,24967.251215
1 Jan 2020 06:51:44.000,43.571,-77.001,25133.184454
1 Jan 2020 06:52:14.000,43.261,-76.794,25301.783780
1 Jan 2020 06:52:44.000,42.956,-76.600,25472.883557
1 Jan 2020 06:53:14.000,42.655,-76.418,25646.318511
1 Jan 2020 06:53:44.000,42.359,-76.249,25821.925942
1 Jan 2020 06:54:14.000,42.066,-76.091,25999.544552
1 Jan 2020 06:54:34.033,41.871,-75.993,26119.192728
1 Jan 2020 08:23:16.882,182.045,-75.986,26112.798004
1 Jan 2020 08:23:46.000,180.923,-76.097,25978.692263
1 Jan 2020 08:24:16.000,179.736,-76.217,25843.028695
1 Jan 2020 08:24:46.000,178.515,-76.343,25710.018600
1 Jan 2020 08:25:16.000,177.260,-76.474,25579.775305
1 Jan 2020 08:25:46.000,175.967,-76.610,25452.411257
1 Jan 2020 08:26:16.000,174.635,-76.750,25328.037842
1 Jan 2020 08:26:46.000,173.262,-76.895,25206.765198
1 Jan 2020 08:27:16.000,171.846,-77.044,25088.702020
1 Jan 2020 08:27:46.000,170.385,-77.196,24973.955361
1 Jan 2020 08:28:16.000,168.877,-77.352,24862.630194
1 Jan 2020 08:28:46.000,167.320,-77.510,24754.830130
1 Jan 2020 08:29:16.000,165.711,-77.669,24650.655804
1 Jan 2020 08:29:46.000,164.048,-77.831,24550.205592
1 Jan 2020 08:30:16.000,162.330,-77.993,24453.575160
1 Jan 2020 08:30:46.000,160.554,-78.155,24360.857235
1 Jan 2020 08:31:16.000,158.718,-78.317,24272.141388
1 Jan 2020 08:31:46.000,156.821,-78.477,24187.513807
1 Jan 2020 08:32:16.000,154.860,-78.635,24107.056901
1 Jan 2020 08:32:46.000,152.835,-78.790,24030.849812
1 Jan 2020 08:33:16.000,150.745,-78.942,23958.967094
1 Jan 2020 08:33:46.000,148.588,-79.089,23891.479251
1 Jan 2020 08:34:16.000,146.365,-79.231,23828.452354
1 Jan 2020 08:34:46.000,144.076,-79.367,23769.947848
1 Jan 2020 08:35:16.000,141.722,-79.495,23716.022371
1 Jan 2020 08:35:46.000,139.304,-79.616,23666.727470
1 Jan 2020 08:36:16.000,136.825,-79.728,23622.109908
1 Jan 2020 08:36:46.000,134.289,-79.830,23582.210815
1 Jan 2020 08:37:16.000,131.699,-79.921,23547.066034
1 Jan 2020 08:37:46.000,129.059,-80.002,23516.705894
1 Jan 2020 08:38:16.000,126.376,-80.071,23491.155108
1 Jan 2020 08:38:46.000,123.656,-80.127,23470.432699
1 Jan 2020 08:39:16.000,120.905,-80.171,23454.551894
1 Jan 2020 08:39:46.000,118.133,-80.202,23443.520269
1 Jan 2020 08:40:16.000,115.345,-80.219,23437.339437
1 Jan 2020 08:40:46.000,112.551,-80.223,23436.005245
1 Jan 2020 08:41:16.000,109.760,-80.213,23439.507748
1 Jan 2020 08:41:46.000,106.978,-80.190,23447.831235
1 Jan 2020 08:42:16.000,104.215,-80.154,23460.954293
1 Jan 2020 08:42:46.000,101.479,-80.105,23478.849912
1 Jan 2020 08:43:16.000,98.775,-80.044,23501.485462
1 Jan 2020 08:43:46.000,96.111,-79.971,23528.822959
1 Jan 2020 08:44:16.000,93.492,-79.887,23560.819104
1 Jan 2020 08:44:46.000,90.923,-79.792,23597.425441
1 Jan 2020 08:45:16.000,88.409,-79.688,23638.588520
1 Jan 2020 08:45:46.000,85.952,-79.575,23684.250066
1 Jan 2020 08:46:16.000,83.555,-79.454,23734.347256
1 Jan 2020 08:46:46.000,81.219,-79.326,23788.812543
1 Jan 2020 08:47:16.000,78.946,-79.191,23847.574407
1 Jan 2020 08:47:46.000,76.736,-79.051,23910.557208
1 Jan 2020 08:48:16.000,74.590,-78.906,23977.681494
1 Jan 2020 08:48:46.000,72.505,-78.757,24048.864225
1 Jan 2020 08:49:16.000,70.482,-78.605,24124.019001
1 Jan 2020 08:49:46.000,68.519,-78.451,24203.056290
1 Jan 2020 08:50:16.000,66.614,-78.295,24285.883825
1 Jan 2020 08:50:46.000,64.766,-78.138,24372.406196
1 Jan 2020 08:51:16.000,62.973,-77.982,24462.526027
1 Jan 2020 08:51:46.000,61.232,-77.825,24556.143584
1 Jan 2020 08:52:16.000,59.542,-77.670,24653.157151
1 Jan 2020 08:52:46.000,57.900,-77.516,24753.463255
1 Jan 2020 08:53:16.000,56.305,-77.365,24856.956883
1 Jan 2020 08:53:46.000,54.753,-77.215,24963.531689
1 Jan 2020 08:54:16.000,53.243,-77.069,25073.080204
1 Jan 2020 08:54:46.000,51.774,-76.926,25185.494031
1 Jan 2020 08:55:16.000,50.342,-76.787,25300.664035
1 Jan 2020 08:55:46.000,48.945,-76.652,25418.480770
1 Jan 2020 08:56:16.000,47.583,-76.522,25538.833695
1 Jan 2020 08:56:46.000,46.253,-76.396,25661.612764
1 Jan 2020 08:57:16.000,44.953,-76.275,25786.707646
1 Jan 2020 08:57:46.000,43.681,-76.159,25914.008102
1 Jan 2020 08:58:16.000,42.437,-76.049,26043.404131
1 Jan 2020 08:58:31.847,41.790,-75.992,26112.564640
1 Jan 2020 10:35:15.620,138.711,-75.987,26105.800082
1 Jan 2020 10:35:45.000,137.493,-76.091,25979.302586
1 Jan 2020 10:36:15.000,136.224,-76.203,25852.158984
1 Jan 2020 10:36:45.000,134.928,-76.320,25727.169320
1 Jan 2020 10:37:15.000,133.602,-76.442,25604.442195
1 Jan 2020 10:37:45.000,132.245,-76.568,25484.086339
1 Jan 2020 10:38:15.000,130.855,-76.699,25366.210475
1 Jan 2020 10:38:45.000,129.430,-76.834,25250.923161
1 Jan 2020 10:39:15.000,127.969,-76.973,25138.332637
1 Jan 2020 10:39:45.000,126.469,-77.115,25028.546648
1 Jan 2020 10:40:15.000,124.929,-77.260,24921.672276
1 Jan 2020 10:40:45.000,123.347,-77.408,24817.815750
1 Jan 2020 10:41:15.000,121.719,-77.558,24717.082056
1 Jan 2020 10:41:45.000,120.046,-77.710,24619.575555
1 Jan 2020 10:42:15.000,118.323,-77.862,24525.398543
1 Jan 2020 10:42:45.000,116.550,-78.016,24434.651868
1 Jan 2020 10:43:15.000,114.724,-78.169,24347.434514
1 Jan 2020 10:43:45.000,112.844,-78.322,24263.843372
1 Jan 2020 10:44:15.000,110.907,-78.473,24183.973023
1 Jan 2020 10:44:45.000,108.913,-78.623,24107.915513
1 Jan 2020 10:45:15.000,106.859,-78.769,24035.759994
1 Jan 2020 10:45:45.000,104.746,-78.912,23967.593024
1 Jan 2020 10:46:15.000,102.571,-79.051,23903.497542
1 Jan 2020 10:46:45.000,100.336,-79.185,23843.553182
1 Jan 2020 10:47:15.000,98.040,-79.313,23787.835919
1 Jan 2020 10:47:45.000,95.685,-79.434,23736.417852
1 Jan 2020 10:48:15.000,93.271,-79.547,23689.366991
1 Jan 2020 10:48:45.000,90.801,-79.653,23646.746989
1 Jan 2020 10:49:15.000,88.278,-79.749,23608.617234
1 Jan 2020 10:49:45.000,85.704,-79.835,23575.032219
1 Jan 2020 10:50:15.000,83.086,-79.910,23546.041678
1 Jan 2020 10:50:45.000,80.428,-79.975,23521.690345
1 Jan 2020 10:51:15.000,77.735,-80.027,23502.017809
1 Jan 2020 10:51:45.000,75.014,-80.068,23487.058381
1 Jan 2020 10:52:15.000,72.273,-80.096,23476.840978
1 Jan 2020 10:52:45.000,69.519,-80.111,23471.389046
1 Jan 2020 10:53:15.000,66.759,-80.112,23470.720426
1 Jan 2020 10:53:45.000,64.002,-80.101,23474.847339
1 Jan 2020 10:54:15.000,61.255,-80.077,23483.776323
1 Jan 2020 10:54:45.000,58.527,-80.040,23497.508211
1 Jan 2020 10:55:15.000,55.824,-79.990,23516.038120
1 Jan 2020 10:55:45.000,53.153,-79.929,23539.355537
1 Jan 2020 10:56:15.000,50.522,-79.855,23567.444078
1 Jan 2020 10:56:45.000,47.935,-79.771,23600.281928
1 Jan 2020 10:57:15.000,45.398,-79.676,23637.841655
1 Jan 2020 10:57:45.000,42.914,-79.571,23680.090364
1 Jan 2020 10:58:15.000,40.488,-79.458,23726.989788
1 Jan 2020 10:58:45.000,38.122,-79.336,23778.496414
1 Jan 2020 10:59:15.000,35.817,-79.207,23834.561747
1 Jan 2020 10:59:45.000,33.576,-79.071,23895.131932
1 Jan 2020 11:00:15.000,31.399,-78.930,23960.148684
1 Jan 2020 11:00:45.000,29.286,-78.784,24029.548959
1 Jan 2020 11:01:15.000,27.236,-78.634,24103.265254
1 Jan 2020 11:01:45.000,25.250,-78.481,24181.225800
1 Jan 2020 11:02:15.000,23.325,-78.325,24263.354760
1 Jan 2020 11:02:45.000,21.461,-78.168,24349.572435
1 Jan 2020 11:03:15.000,19.656,-78.009,24439.795675
1 Jan 2020 11:03:45.000,17.908,-77.851,24533.937286
1 Jan 2020 11:04:15.000,16.216,-77.693,24631.907445
1 Jan 2020 11:04:45.000,14.577,-77.535,24733.613127
1 Jan 2020 11:05:15.000,12.990,-77.380,24838.958520
1 Jan 2020 11:05:45.000,11.451,-77.227,24947.845236
1 Jan 2020 11:06:15.000,9.961,-77.076,25060.172532
1 Jan 2020 11:06:45.000,8.515,-76.929,25175.837521
1 Jan 2020 11:07:15.000,7.112,-76.785,25294.735378
1 Jan 2020 11:07:45.000,5.751,-76.645,25416.759546
1 Jan 2020 11:08:15.000,4.429,-76.510,25541.802202
1 Jan 2020 11:08:45.000,3.145,-76.379,25669.753390
1 Jan 2020 11:09:15.000,1.896,-76.254,25800.502788
1 Jan 2020 11:09:45.000,0.682,-76.133,25933.938843
1 Jan 2020 11:10:15.000,359.499,-76.019,26069.949206
1 Jan 2020 11:10:22.775,359.198,-75.990,26105.605018
1 Jan 2020 12:39:21.031,137.792,-75.988,26104.218898
1 Jan 2020 12:39:51.000,137.471,-76.137,25926.071371
1 Jan 2020 12:40:21.000,137.146,-76.299,25749.638824
1 Jan 2020 12:40:51.000,136.817,-76.472,25575.263849
1 Jan 2020 12:41:21.000,136.482,-76.657,25403.108055
1 Jan 2020 12:41:51.000,136.140,-76.855,25233.334749
1 Jan 2020 12:42:21.000,135.791,-77.065,25066.108760
1 Jan 2020 12:42:51.000,135.434,-77.288,24901.596239
1 Jan 2020 12:43:21.000,135.067,-77.523,24739.964452
1 Jan 2020 12:43:51.000,134.690,-77.770,24581.381536
1 Jan 2020 12:44:21.000,134.299,-78.029,24426.016249
1 Jan 2020 12:44:51.000,133.894,-78.301,24274.037402
1 Jan 2020 12:45:21.000,133.473,-78.586,24125.614722
1 Jan 2020 12:45:51.000,133.033,-78.882,23980.916778
1 Jan 2020 12:46:21.000,132.572,-79.190,23840.111817
1 Jan 2020 12:46:51.000,132.086,-79.510,23703.367103
1 Jan 2020 12:47:21.000,131.572,-79.842,23570.848535
1 Jan 2020 12:47:51.000,131.026,-80.185,23442.720242
1 Jan 2020 12:48:21.000,130.442,-80.540,23319.143932
1 Jan 2020 12:48:51.000,129.815,-80.905,23200.279388
1 Jan 2020 12:49:21.000,129.137,-81.280,23086.282595
1 Jan 2020 12:49:51.000,128.400,-81.665,22977.306228
1 Jan 2020 12:50:21.000,127.592,-82.060,22873.498932
1 Jan 2020 12:50:51.000,126.701,-82.463,22775.004836
1 Jan 2020 12:51:21.000,125.710,-82.874,22681.962886
1 Jan 2020 12:51:51.000,124.597,-83.293,22594.507067
1 Jan 2020 12:52:21.000,123.335,-83.718,22512.764820
1 Jan 2020 12:52:51.000,121.890,-84.148,22436.857295
1 Jan 2020 12:53:21.000,120.213,-84.582,22366.898691
1 Jan 2020 12:53:51.000,118.243,-85.019,22302.995677
1 Jan 2020 12:54:21.000,115.893,-85.455,22245.247406
1 Jan 2020 12:54:51.000,113.042,-85.888,22193.744398
1 Jan 2020 12:55:21.000,109.521,-86.315,22148.568614
1 Jan 2020 12:55:51.000,105.088,-86.730,22109.792977
1 Jan 2020 12:56:21.000,99.400,-87.123,22077.480983
1 Jan 2020 12:56:51.000,91.989,-87.484,22051.686639
1 Jan 2020 12:57:21.000,82.304,-87.792,22032.453849
1 Jan 2020 12:57:51.000,69.938,-88.022,22019.816464
1 Jan 2020 12:58:21.000,55.195,-88.141,22013.798051
1 Jan 2020 12:58:51.000,39.588,-88.128,22014.411796
1 Jan 2020 12:59:21.000,25.213,-87.986,22021.660404
1 Jan 2020 12:59:51.000,13.361,-87.739,22035.536119
1 Jan 2020 13:00:21.000,4.152,-87.419,22056.020755
1 Jan 2020 13:00:51.000,357.121,-87.050,22083.085785
1 Jan 2020 13:01:21.000,351.722,-86.651,22116.692550
1 Jan 2020 13:01:51.000,347.511,-86.232,22156.792147
1 Jan 2020 13:02:21.000,344.166,-85.803,22203.326089
1 Jan 2020 13:02:51.000,341.460,-85.367,22256.226300
1 Jan 2020 13:03:21.000,339.234,-84.929,22315.415493
1 Jan 2020 13:03:51.000,337.375,-84.492,22380.807652
1 Jan 2020 13:04:21.000,335.802,-84.056,22452.307881
1 Jan 2020 13:04:51.000,334.455,-83.625,22529.813587
1 Jan 2020 13:05:21.000,333.290,-83.199,22613.214406
1 Jan 2020 13:05:51.000,332.273,-82.780,22702.392778
1 Jan 2020 13:06:21.000,331.379,-82.368,22797.224413
1 Jan 2020 13:06:51.000,330.588,-81.964,22897.578986
1 Jan 2020 13:07:21.000,329.882,-81.569,23003.319768
1 Jan 2020 13:07:51.000,329.250,-81.184,23114.305380
1 Jan 2020 13:08:21.000,328.681,-80.808,23230.389451
1 Jan 2020 13:08:51.000,328.167,-80.443,23351.421306
1 Jan 2020 13:09:21.000,327.700,-80.089,23477.246448
1 Jan 2020 13:09:51.000,327.276,-79.746,23607.707025
1 Jan 2020 13:10:21.000,326.888,-79.415,23742.642564
1 Jan 2020 13:10:51.000,326.534,-79.095,23881.889318
1 Jan 2020 13:11:21.000,326.210,-78.788,24025.282323
1 Jan 2020 13:11:51.000,325.912,-78.492,24172.654727
1 Jan 2020 13:12:21.000,325.638,-78.209,24323.838451
1 Jan 2020 13:12:51.000,325.386,-77.938,24478.664553
1 Jan 2020 13:13:21.000,325.154,-77.680,24636.963582
1 Jan 2020 13:13:51.000,324.941,-77.434,24798.565905
1 Jan 2020 13:14:21.000,324.744,-77.201,24963.302011
1 Jan 2020 13:14:51.000,324.563,-76.980,25131.002797
1 Jan 2020 13:15:21.000,324.397,-76.772,25301.500170
1 Jan 2020 13:15:51.000,324.245,-76.577,25474.625955
1 Jan 2020 13:16:21.000,324.105,-76.394,25650.214108
1 Jan 2020 13:16:51.000,323.977,-76.224,25828.099600
1 Jan 2020 13:17:21.000,323.860,-76.066,26008.118929
1 Jan 2020 13:17:36.902,323.803,-75.987,26104.351196
1 Jan 2020 14:44:09.596,163.706,-75.992,26109.369887
1 Jan 2020 14:44:39.000,164.574,-76.120,25954.739652
1 Jan 2020 14:45:09.000,165.490,-76.260,25799.415931
1 Jan 2020 14:45:39.000,166.438,-76.408,25646.695153
1 Jan 2020 14:46:09.000,167.422,-76.563,25496.714533
1 Jan 2020 14:46:39.000,168.443,-76.727,25349.611062
1 Jan 2020 14:47:09.000,169.503,-76.898,25205.521306
1 Jan 2020 14:47:39.000,170.606,-77.077,25064.581177
1 Jan 2020 14:48:09.000,171.755,-77.262,24926.925704
1 Jan 2020 14:48:39.000,172.951,-77.454,24792.688786
1 Jan 2020 14:49:09.000,174.199,-77.652,24662.002669
1 Jan 2020 14:49:39.000,175.503,-77.856,24534.998754
1 Jan 2020 14:50:09.000,176.865,-78.065,24411.805695
1 Jan 2020 14:50:39.000,178.291,-78.279,24292.550206
1 Jan 2020 14:51:09.000,179.784,-78.496,24177.356488
1 Jan 2020 14:51:39.000,181.348,-78.717,24066.345929
1 Jan 2020 14:52:09.000,182.989,-78.940,23959.636798
1 Jan 2020 14:52:39.000,184.712,-79.165,23857.343725
1 Jan 2020 14:53:09.000,186.521,-79.390,23759.578227
1 Jan 2020 14:53:39.000,188.421,-79.615,23666.447122
1 Jan 2020 14:54:09.000,190.419,-79.838,23578.053068
1 Jan 2020 14:54:39.000,192.519,-80.059,23494.494040
1 Jan 2020 14:55:09.000,194.726,-80.276,23415.863024
1 Jan 2020 14:55:39.000,197.045,-80.487,23342.247567
1 Jan 2020 14:56:09.000,199.479,-80.692,23273.730096
1 Jan 2020 14:56:39.000,202.032,-80.889,23210.386716
1 Jan 2020 14:57:09.000,204.706,-81.076,23152.287573
1 Jan 2020 14:57:39.000,207.500,-81.252,23099.496445
1 Jan 2020 14:58:09.000,210.415,-81.416,23052.070519
1 Jan 2020 14:58:39.000,213.445,-81.564,23010.060081
1 Jan 2020 14:59:09.000,216.586,-81.697,22973.508724
1 Jan 2020 14:59:39.000,219.829,-81.813,22942.452583
1 Jan 2020 15:00:09.000,223.162,-81.910,22916.920605
1 Jan 2020 15:00:39.000,226.573,-81.987,22896.934343
1 Jan 2020 15:01:09.000,230.043,-82.043,22882.507863
1 Jan 2020 15:01:39.000,233.556,-82.078,22873.647671
1 Jan 2020 15:02:09.000,237.090,-82.091,22870.352812
1 Jan 2020 15:02:39.000,240.626,-82.082,22872.614665
1 Jan 2020 15:03:09.000,244.143,-82.051,22880.417137
1 Jan 2020 15:03:39.000,247.621,-81.999,22893.736680
1 Jan 2020 15:04:09.000,251.042,-81.926,22912.542390
1 Jan 2020 15:04:39.000,254.389,-81.833,22936.796169
1 Jan 2020 15:05:09.000,257.649,-81.722,22966.452717
1 Jan 2020 15:05:39.000,260.811,-81.594,23001.459928
1 Jan 2020 15:06:09.000,263.866,-81.450,23041.758952
1 Jan 2020 15:06:39.000,266.809,-81.292,23087.284447
1 Jan 2020 15:07:09.000,269.637,-81.121,23137.964824
1 Jan 2020 15:07:39.000,272.348,-80.940,23193.722603
1 Jan 2020 15:08:09.000,274.942,-80.749,23254.474298
1 Jan 2020 15:08:39.000,277.423,-80.550,23320.131283
1 Jan 2020 15:09:09.000,279.792,-80.344,23390.599720
1 Jan 2020 15:09:39.000,282.055,-80.134,23465.780961
1 Jan 2020 15:10:09.000,284.215,-79.920,23545.571864
1 Jan 2020 15:10:39.000,286.278,-79.703,23629.865118
1 Jan 2020 15:11:09.000,288.248,-79.484,23718.549739
1 Jan 2020 15:11:39.000,290.132,-79.265,23811.510725
1 Jan 2020 15:12:09.000,291.934,-79.047,23908.630375
1 Jan 2020 15:12:39.000,293.659,-78.830,24009.787957
1 Jan 2020 15:13:09.000,295.313,-78.615,24114.860186
1 Jan 2020 15:13:39.000,296.899,-78.403,24223.721539
1 Jan 2020 15:14:09.000,298.423,-78.195,24336.244553
1 Jan 2020 15:14:39.000,299.889,-77.991,24452.300125
1 Jan 2020 15:15:09.000,301.301,-77.792,24571.757796
1 Jan 2020 15:15:39.000,302.663,-77.598,24694.486262
1 Jan 2020 15:16:09.000,303.978,-77.410,24820.352689
1 Jan 2020 15:16:39.000,305.250,-77.227,24949.224381
1 Jan 2020 15:17:09.000,306.481,-77.051,25080.968077
1 Jan 2020 15:17:39.000,307.675,-76.882,25215.450413
1 Jan 2020 15:18:09.000,308.834,-76.719,25352.538135
1 Jan 2020 15:18:39.000,309.961,-76.564,25492.098297
1 Jan 2020 15:19:09.000,311.058,-76.416,25633.998449
1 Jan 2020 15:19:39.000,312.127,-76.275,25778.106809
1 Jan 2020 15:20:09.000,313.171,-76.142,25924.292428
1 Jan 2020 15:20:39.000,314.191,-76.017,26072.425339
1 Jan 2020 15:20:46.498,314.442,-75.987,26109.738807
1 Jan 2020 16:56:15.100,211.695,-75.993,26117.137890
1 Jan 2020 16:56:45.000,213.037,-76.090,25999.474484
1 Jan 2020 16:57:15.000,214.411,-76.191,25883.641421
1 Jan 2020 16:57:45.000,215.813,-76.296,25770.128195
1 Jan 2020 16:58:15.000,217.244,-76.404,25659.028288
1 Jan 2020 16:58:45.000,218.706,-76.515,25550.434663
1 Jan 2020 16:59:15.000,220.201,-76.629,25444.439628
1 Jan 2020 16:59:45.000,221.729,-76.746,25341.134706
1 Jan 2020 17:00:15.000,223.291,-76.865,25240.610486
1 Jan 2020 17:00:45.000,224.890,-76.986,25142.956480
1 Jan 2020 17:01:15.000,226.526,-77.108,25048.260971
1 Jan 2020 17:01:45.000,228.201,-77.231,24956.610677
1 Jan 2020 17:02:15.000,229.916,-77.355,24868.091322
1 Jan 2020 17:02:45.000,231.671,-77.479,24782.786370
1 Jan 2020 17:03:15.000,233.468,-77.603,24700.777604
1 Jan 2020 17:03:45.000,235.308,-77.726,24622.144774
1 Jan 2020 17:04:15.000,237.191,-77.848,24546.965425
1 Jan 2020 17:04:45.000,239.119,-77.967,24475.314736
1 Jan 2020 17:05:15.000,241.091,-78.085,24407.265346
1 Jan 2020 17:05:45.000,243.107,-78.199,24342.887193
1 Jan 2020 17:06:15.000,245.169,-78.310,24282.247219
1 Jan 2020 17:06:45.000,247.274,-78.416,24225.409721
1 Jan 2020 17:07:15.000,249.423,-78.518,24172.435416
1 Jan 2020 17:07:45.000,251.614,-78.614,24123.381810
1 Jan 2020 17:08:15.000,253.846,-78.705,24078.302919
1 Jan 2020 17:08:45.000,256.118,-78.789,24037.249124
1 Jan 2020 17:09:15.000,258.426,-78.866,24000.267036
1 Jan 2020 17:09:45.000,260.769,-78.936,23967.399372
1 Jan 2020 17:10:15.000,263.143,-78.998,23938.684777
1 Jan 2020 17:10:45.000,265.545,-79.051,23914.157942
1 Jan 2020 17:11:15.000,267.971,-79.096,23893.849155
1 Jan 2020 17:11:45.000,270.418,-79.131,23877.784454
1 Jan 2020 17:12:15.000,272.879,-79.158,23865.985490
1 Jan 2020 17:12:45.000,275.352,-79.175,23858.469458
1 Jan 2020 17:13:15.000,277.831,-79.182,23855.249051
1 Jan 2020 17:13:45.000,280.312,-79.179,23856.332427
1 Jan 2020 17:14:15.000,282.788,-79.167,23861.723148
1 Jan 2020 17:14:45.000,285.257,-79.145,23871.420211
1 Jan 2020 17:15:15.000,287.711,-79.114,23885.418026
1 Jan 2020 17:15:45.000,290.148,-79.073,23903.706436
1 Jan 2020 17:16:15.000,292.563,-79.023,23926.270741
1 Jan 2020 17:16:45.000,294.952,-78.965,23953.091741
1 Jan 2020 17:17:15.000,297.310,-78.899,23984.145788
1 Jan 2020 17:17:45.000,299.635,-78.824,24019.404940
1 Jan 2020 17:18:15.000,301.924,-78.743,24058.836689
1 Jan 2020 17:18:45.000,304.175,-78.654,24102.404562
1 Jan 2020 17:19:15.000,306.384,-78.559,24150.067886
1 Jan 2020 17:19:45.000,308.551,-78.459,24201.781978
1 Jan 2020 17:20:15.000,310.674,-78.353,24257.498265
1 Jan 2020 17:20:45.000,312.751,-78.243,24317.164408
1 Jan 2020 17:21:15.000,314.784,-78.128,24380.724440
1 Jan 2020 17:21:45.000,316.770,-78.011,24448.119050
1 Jan 2020 17:22:15.000,318.711,-77.890,24519.285150
1 Jan 2020 17:22:45.000,320.606,-77.767,24594.156889
1 Jan 2020 17:23:15.000,322.455,-77.643,24672.665242
1 Jan 2020 17:23:45.000,324.260,-77.518,24754.738307
1 Jan 2020 17:24:15.000,326.022,-77.391,24840.301469
1 Jan 2020 17:24:45.000,327.740,-77.265,24929.277563
1 Jan 2020 17:25:15.000,329.416,-77.139,25021.587036
1 Jan 2020 17:25:45.000,331.052,-77.014,25117.148116
1 Jan 2020 17:26:15.000,332.648,-76.891,25215.876968
1 Jan 2020 17:26:45.000,334.206,-76.769,25317.688086
1 Jan 2020 17:27:15.000,335.727,-76.649,25422.493566
1 Jan 2020 17:27:45.000,337.212,-76.532,25530.204578
1 Jan 2020 17:28:15.000,338.662,-76.418,25640.730655
1 Jan 2020 17:28:45.000,340.080,-76.306,25753.980054
1 Jan 2020 17:29:15.000,341.465,-76.199,25869.859910
1 Jan 2020 17:29:45.000,342.820,-76.095,25988.276372
1 Jan 2020 17:30:15.000,344.146,-75.995,26109.134745
1 Jan 2020 17:30:16.994,344.233,-75.988,26117.252815
1 Jan 2020 19:02:30.939,225.324,-75.992,26120.746914
1 Jan 2020 19:03:00.000,225.993,-76.126,25959.000079
1 Jan 2020 19:03:30.000,226.698,-76.275,25793.855226
1 Jan 2020 19:04:00.000,227.421,-76.434,25630.712234
1 Jan 2020 19:04:30.000,228.163,-76.604,25469.720827
1 Jan 2020 19:05:00.000,228.925,-76.784,25311.032185
1 Jan 2020 19:05:30.000,229.711,-76.974,25154.798776
1 Jan 2020 19:06:00.000,230.522,-77.174,25001.174175
1 Jan 2020 19:06:30.000,231.361,-77.384,24850.312867
1 Jan 2020 19:07:00.000,232.231,-77.605,24702.370026
1 Jan 2020 19:07:30.000,233.135,-77.835,24557.501284
1 Jan 2020 19:08:00.000,234.077,-78.075,24415.862477
1 Jan 2020 19:08:30.000,235.060,-78.324,24277.609097
1 Jan 2020 19:09:00.000,236.090,-78.582,24142.897126
1 Jan 2020 19:09:30.000,237.170,-78.849,24011.881034
1 Jan 2020 19:10:00.000,238.308,-79.124,23884.714593
1 Jan 2020 19:10:30.000,239.508,-79.406,23761.550248
1 Jan 2020 19:11:00.000,240.779,-79.697,23642.538764
1 Jan 2020 19:11:30.000,242.127,-79.993,23527.828852
1 Jan 2020 19:12:00.000,243.563,-80.296,23417.566582
1 Jan 2020 19:12:30.000,245.097,-80.604,23311.895793
1 Jan 2020 19:13:00.000,246.740,-80.915,23210.956461
1 Jan 2020 19:13:30.000,248.506,-81.230,23114.885109
1 Jan 2020 19:14:00.000,250.409,-81.547,23023.814170
1 Jan 2020 19:14:30.000,252.466,-81.864,22937.871566
1 Jan 2020 19:15:00.000,254.696,-82.179,22857.180132
1 Jan 2020 19:15:30.000,257.119,-82.492,22781.857775
1 Jan 2020 19:16:00.000,259.758,-82.799,22712.016166
1 Jan 2020 19:16:30.000,262.637,-83.098,22647.760927
1 Jan 2020 19:17:00.000,265.781,-83.387,22589.191081
1 Jan 2020 19:17:30.000,269.212,-83.662,22536.398665
1 Jan 2020 19:18:00.000,272.954,-83.920,22489.468278
1 Jan 2020 19:18:30.000,277.023,-84.158,22448.477090
1 Jan 2020 19:19:00.000,281.424,-84.370,22413.493972
1 Jan 2020 19:19:30.000,286.154,-84.553,22384.579587
1 Jan 2020 19:20:00.000,291.189,-84.703,22361.786030
1 Jan 2020 19:20:30.000,296.485,-84.815,22345.156586
1 Jan 2020 19:21:00.000,301.976,-84.887,22334.725615
1 Jan 2020 19:21:30.000,307.581,-84.916,22330.518271
1 Jan 2020 19:22:00.000,313.203,-84.902,22332.550488
1 Jan 2020 19:22:30.000,318.745,-84.845,22340.828884
1 Jan 2020 19:23:00.000,324.118,-84.746,22355.350772
1 Jan 2020 19:23:30.000,329.250,-84.608,22376.104009
1 Jan 2020 19:24:00.000,334.087,-84.435,22403.067283
1 Jan 2020 19:24:30.000,338.598,-84.231,22436.210064
1 Jan 2020 19:25:00.000,342.772,-84.000,22475.492774
1 Jan 2020 19:25:30.000,346.609,-83.747,22520.867060
1 Jan 2020 19:26:00.000,350.125,-83.474,22572.275612
1 Jan 2020 19:26:30.000,353.338,-83.186,22629.652982
1 Jan 2020 19:27:00.000,356.271,-82.886,22692.925488
1 Jan 2020 19:27:30.000,358.950,-82.577,22762.011608
1 Jan 2020 19:28:00.000,1.399,-82.262,22836.822315
1 Jan 2020 19:28:30.000,3.640,-81.943,22917.261609
1 Jan 2020 19:29:00.000,5.695,-81.621,23003.226164
1 Jan 2020 19:29:30.000,7.584,-81.299,23094.606793
1 Jan 2020 19:30:00.000,9.324,-80.979,23191.288140
1 Jan 2020 19:30:30.000,10.930,-80.661,23293.149266
1 Jan 2020 19:31:00.000,12.416,-80.346,23400.064061
1 Jan 2020 19:31:30.000,13.796,-80.036,23511.901666
1 Jan 2020 19:32:00.000,15.078,-79.732,23628.527148
1 Jan 2020 19:32:30.000,16.274,-79.435,23749.800885
1 Jan 2020 19:33:00.000,17.391,-79.144,23875.580507
1 Jan 2020 19:33:30.000,18.437,-78.862,24005.720291
1 Jan 2020 19:34:00.000,19.418,-78.588,24140.071798
1 Jan 2020 19:34:30.000,20.341,-78.323,24278.484256
1 Jan 2020 19:35:00.000,21.210,-78.066,24420.804929
1 Jan 2020 19:35:30.000,22.030,-77.820,24566.879469
1 Jan 2020 19:36:00.000,22.805,-77.584,24716.552254
1 Jan 2020 19:36:30.000,23.539,-77.357,24869.667035
1 Jan 2020 19:37:00.000,24.236,-77.141,25026.065952
1 Jan 2020 19:37:30.000,24.897,-76.936,25185.591744
1 Jan 2020 19:38:00.000,25.526,-76.741,25348.086745
1 Jan 2020 19:38:30.000,26.125,-76.557,25513.393452
1 Jan 2020 19:39:00.000,26.697,-76.384,25681.354765
1 Jan 2020 19:39:30.000,27.242,-76.222,25851.814202
1 Jan 2020 19:40:00.000,27.764,-76.071,26024.616099
1 Jan 2020 19:40:16.545,28.042,-75.992,26120.862690
1 Jan 2020 21:06:00.160,207.498,-75.989,26117.618266
1 Jan 2020 21:06:30.000,206.971,-76.132,25945.205273
1 Jan 2020 21:07:00.000,206.417,-76.288,25774.132224
1 Jan 2020 21:07:30.000,205.837,-76.454,25605.481170
1 Jan 2020 21:08:00.000,205.230,-76.631,25439.407324
1 Jan 2020 21:08:30.000,204.594,-76.819,25276.066595
1 Jan 2020 21:09:00.000,203.926,-77.017,25115.615371
1 Jan 2020 21:09:30.000,203.224,-77.226,24958.210296
1 Jan 2020 21:10:00.000,202.485,-77.445,24804.008029
1 Jan 2020 21:10:30.000,201.706,-77.674,24653.164979
1 Jan 2020 21:11:00.000,200.883,-77.913,24505.836748
1 Jan 2020 21:11:30.000,200.013,-78.162,24362.178977
1 Jan 2020 21:12:00.000,199.091,-78.420,24222.345311
1 Jan 2020 21:12:30.000,198.111,-78.686,24086.488225
1 Jan 2020 21:13:00.000,197.070,-78.961,23954.758396
1 Jan 2020 21:13:30.000,195.960,-79.244,23827.304338
1 Jan 2020 21:14:00.000,194.775,-79.535,23704.272036
1 Jan 2020 21:14:30.000,193.507,-79.831,23585.804324
1 Jan 2020 21:15:00.000,192.146,-80.134,23472.041451
1 Jan 2020 21:15:30.000,190.684,-80.442,23363.119223
1 Jan 2020 21:16:00.000,189.108,-80.753,23259.169579
1 Jan 2020 21:16:30.000,187.407,-81.068,23160.319923
1 Jan 2020 21:17:00.000,185.565,-81.383,23066.692721
1 Jan 2020 21:17:30.000,183.568,-81.699,22978.404897
1 Jan 2020 21:18:00.000,181.398,-82.014,22895.568167
1 Jan 2020 21:18:30.000,179.035,-82.325,22818.287521
1 Jan 2020 21:19:00.000,176.459,-82.630,22746.661582
1 Jan 2020 21:19:30.000,173.648,-82.927,22680.782049
1 Jan 2020 21:20:00.000,170.580,-83.214,22620.733331
1 Jan 2020 21:20:30.000,167.235,-83.487,22566.592087
1 Jan 2020 21:21:00.000,163.592,-83.743,22518.427429
1 Jan 2020 21:21:30.000,159.640,-83.978,22476.299839
1 Jan 2020 21:22:00.000,155.372,-84.189,22440.261459
1 Jan 2020 21:22:30.000,150.795,-84.371,22410.355724
1 Jan 2020 21:23:00.000,145.932,-84.521,22386.617124
1 Jan 2020 21:23:30.000,140.823,-84.635,22369.071265
1 Jan 2020 21:24:00.000,135.526,-84.710,22357.734420
1 Jan 2020 21:24:30.000,130.115,-84.745,22352.613687
1 Jan 2020 21:25:00.000,124.676,-84.738,22353.706901
1 Jan 2020 21:25:30.000,119.296,-84.689,22361.002649
1 Jan 2020 21:26:00.000,114.057,-84.600,22374.480294
1 Jan 2020 21:26:30.000,109.026,-84.474,22394.110089
1 Jan 2020 21:27:00.000,104.256,-84.314,22419.853303
1 Jan 2020 21:27:30.000,99.779,-84.123,22451.662389
1 Jan 2020 21:28:00.000,95.610,-83.905,22489.481260
1 Jan 2020 21:28:30.000,91.750,-83.665,22533.245267
1 Jan 2020 21:29:00.000,88.191,-83.405,22582.881847
1 Jan 2020 21:29:30.000,84.917,-83.131,22638.310584
1 Jan 2020 21:30:00.000,81.907,-82.844,22699.443599
1 Jan 2020 21:30:30.000,79.141,-82.547,22766.185900
1 Jan 2020 21:31:00.000,76.595,-82.244,22838.435900
1 Jan 2020 21:31:30.000,74.249,-81.937,22916.085232
1 Jan 2020 21:32:00.000,72.082,-81.627,22999.019994
1 Jan 2020 21:32:30.000,70.076,-81.316,23087.120612
1 Jan 2020 21:33:00.000,68.215,-81.005,23180.262395
1 Jan 2020 21:33:30.000,66.482,-80.697,23278.315951
1 Jan 2020 21:34:00.000,64.864,-80.392,23381.147617
1 Jan 2020 21:34:30.000,63.350,-80.092,23488.620096
1 Jan 2020 21:35:00.000,61.929,-79.796,23600.592006
1 Jan 2020 21:35:30.000,60.591,-79.507,23716.919576
1 Jan 2020 21:36:00.000,59.327,-79.224,23837.456197
1 Jan 2020 21:36:30.000,58.131,-78.949,23962.053020
1 Jan 2020 21:37:00.000,56.995,-78.681,24090.559334
1 Jan 2020 21:37:30.000,55.913,-78.422,24222.822923
1 Jan 2020 21:38:00.000,54.881,-78.171,24358.690415
1 Jan 2020 21:38:30.000,53.894,-77.930,24498.007614
1 Jan 2020 21:39:00.000,52.946,-77.697,24640.620087
1 Jan 2020 21:39:30.000,52.036,-77.474,24786.372349
1 Jan 2020 21:40:00.000,51.158,-77.261,24935.109801
1 Jan 2020 21:40:30.000,50.311,-77.058,25086.677892
1 Jan 2020 21:41:00.000,49.491,-76.865,25240.922628
1 Jan 2020 21:41:30.000,48.696,-76.681,25397.690801
1 Jan 2020 21:42:00.000,47.923,-76.508,25556.830196
1 Jan 2020 21:42:30.000,47.171,-76.345,25718.189778
1 Jan 2020 21:43:00.000,46.437,-76.193,25881.619868
1 Jan 2020 21:43:30.000,45.721,-76.050,26046.972299
1 Jan 2020 21:43:42.651,45.423,-75.993,26117.239425
1 Jan 2020 23:16:09.391,163.267,-75.986,26109.896758
1 Jan 2020 23:16:39.000,161.955,-76.084,25991.034473
1 Jan 2020 23:17:09.000,160.598,-76.187,25873.012648
1 Jan 2020 23:17:39.000,159.209,-76.294,25757.509304
1 Jan 2020 23:18:09.000,157.790,-76.405,25644.617866
1 Jan 2020 23:18:39.000,156.337,-76.518,25534.430806
1 Jan 2020 23:19:09.000,154.851,-76.635,25427.039501
1 Jan 2020 23:19:39.000,153.329,-76.753,25322.534086
1 Jan 2020 23:20:09.000,151.770,-76.874,25221.003304
1 Jan 2020 23:20:39.000,150.173,-76.997,25122.534358
1 Jan 2020 23:21:09.000,148.537,-77.121,25027.212747
1 Jan 2020 23:21:39.000,146.861,-77.246,24935.121911
1 Jan 2020 23:22:09.000,145.143,-77.372,24846.343880
1 Jan 2020 23:22:39.000,143.383,-77.497,24760.957883
1 Jan 2020 23:23:09.000,141.579,-77.622,24679.041014
1 Jan 2020 23:23:39.000,139.731,-77.745,24600.667855
1 Jan 2020 23:24:09.000,137.838,-77.867,24525.910320
1 Jan 2020 23:24:39.000,135.900,-77.987,24454.837489
1 Jan 2020 23:25:09.000,133.917,-78.104,24387.515451
1 Jan 2020 23:25:39.000,131.888,-78.217,24324.007018
1 Jan 2020 23:26:09.000,129.814,-78.327,24264.372102
1 Jan 2020 23:26:39.000,127.696,-78.432,24208.666766
1 Jan 2020 23:27:09.000,125.534,-78.532,24156.943622
1 Jan 2020 23:27:39.000,123.330,-78.627,24109.251562
1 Jan 2020 23:28:09.000,121.085,-78.715,24065.635633
1 Jan 2020 23:28:39.000,118.802,-78.796,24026.136911
1 Jan 2020 23:29:09.000,116.483,-78.870,23990.792399
1 Jan 2020 23:29:39.000,114.131,-78.937,23959.634851
1 Jan 2020 23:30:09.000,111.749,-78.995,23932.692975
1 Jan 2020 23:30:39.000,109.341,-79.045,23909.990907
1 Jan 2020 23:31:09.000,106.910,-79.085,23891.548447
1 Jan 2020 23:31:39.000,104.462,-79.117,23877.380930
1 Jan 2020 23:32:09.000,102.000,-79.139,23867.499183
1 Jan 2020 23:32:39.000,99.530,-79.152,23861.909494
1 Jan 2020 23:33:09.000,97.056,-79.155,23860.613593
1 Jan 2020 23:33:39.000,94.583,-79.148,23863.608670
1 Jan 2020 23:34:09.000,92.116,-79.132,23870.887341
1 Jan 2020 23:34:39.000,89.659,-79.107,23882.437710
1 Jan 2020 23:35:09.000,87.217,-79.072,23898.243394
1 Jan 2020 23:35:39.000,84.796,-79.028,23918.283572
1 Jan 2020 23:36:09.000,82.397,-78.975,23942.533044
1 Jan 2020 23:36:39.000,80.026,-78.914,23970.962309
1 Jan 2020 23:37:09.000,77.686,-78.846,24003.537722
1 Jan 2020 23:37:39.000,75.380,-78.769,24040.221305
1 Jan 2020 23:38:09.000,73.111,-78.686,24080.971268
1 Jan 2020 23:38:39.000,70.880,-78.596,24125.741856
1 Jan 2020 23:39:09.000,68.689,-78.501,24174.483541
1 Jan 2020 23:39:39.000,66.541,-78.400,24227.143156
1 Jan 2020 23:40:09.000,64.435,-78.294,24283.664029
1 Jan 2020 23:40:39.000,62.374,-78.185,24343.986137
1 Jan 2020 23:41:09.000,60.356,-78.071,24408.046381
1 Jan 2020 23:41:39.000,58.383,-77.955,24475.778237
1 Jan 2020 23:42:09.000,56.454,-77.836,24547.112665
1 Jan 2020 23:42:39.000,54.569,-77.715,24621.977782
1 Jan 2020 23:43:09.000,52.727,-77.593,24700.299146
1 Jan 2020 23:43:39.000,50.928,-77.470,24781.999921
1 Jan 2020 23:44:09.000,49.171,-77.346,24867.001045
1 Jan 2020 23:44:39.000,47.454,-77.223,24955.221396
1 Jan 2020 23:45:09.000,45.777,-77.100,25046.577958
1 Jan 2020 23:45:39.000,44.138,-76.979,25140.985980
1 Jan 2020 23:46:09.000,42.537,-76.858,25238.359345
1 Jan 2020 23:46:39.000,40.972,-76.740,25338.609922
1 Jan 2020 23:47:09.000,39.441,-76.624,25441.648914
1 Jan 2020 23:47:39.000,37.944,-76.510,25547.386223
1 Jan 2020 23:48:09.000,36.479,-76.399,25655.730788
1 Jan 2020 23:48:39.000,35.045,-76.291,25766.590729
1 Jan 2020 23:49:09.000,33.641,-76.187,25879.873484
1 Jan 2020 23:49:39.000,32.265,-76.086,25995.485944
1 Jan 2020 23:50:08.111,30.956,-75.992,26109.809733
2 Jan 2020 01:25:29.288,134.354,-75.987,26104.490603
2 Jan 2020 01:25:59.000,133.365,-76.110,25956.188070
2 Jan 2020 01:26:29.000,132.343,-76.243,25808.346329
2 Jan 2020 01:26:59.000,131.297,-76.383,25662.544728
2 Jan 2020 01:27:29.000,130.223,-76.530,25518.915306
2 Jan 2020 01:27:59.000,129.121,-76.685,25377.591012
2 Jan 2020 01:28:29.000,127.987,-76.848,25238.705548
2 Jan 2020 01:28:59.000,126.819,-77.018,25102.393192
2 Jan 2020 01:29:29.000,125.615,-77.194,24968.788617
2 Jan 2020 01:29:59.000,124.371,-77.377,24838.026691
2 Jan 2020 01:30:29.000,123.085,-77.567,24710.242264
2 Jan 2020 01:30:59.000,121.753,-77.762,24585.569946
2 Jan 2020 01:31:29.000,120.371,-77.964,24464.143627
2 Jan 2020 01:31:59.000,118.937,-78.170,24346.097193
2 Jan 2020 01:32:29.000,117.445,-78.380,24231.562800
2 Jan 2020 01:32:59.000,115.891,-78.595,24120.671583
2 Jan 2020 01:33:29.000,114.271,-78.813,24013.553119
2 Jan 2020 01:33:59.000,112.579,-79.034,23910.335132
2 Jan 2020 01:34:29.000,110.812,-79.256,23811.143185
2 Jan 2020 01:34:59.000,108.963,-79.480,23716.100367
2 Jan 2020 01:35:29.000,107.026,-79.703,23625.326793
2 Jan 2020 01:35:59.000,104.997,-79.925,23538.939990
2 Jan 2020 01:36:29.000,102.869,-80.146,23457.053485
2 Jan 2020 01:36:59.000,100.638,-80.363,23379.777203
2 Jan 2020 01:37:29.000,98.297,-80.575,23307.216948
2 Jan 2020 01:37:59.000,95.843,-80.782,23239.474074
2 Jan 2020 01:38:29.000,93.270,-80.981,23176.645155
2 Jan 2020 01:38:59.000,90.578,-81.170,23118.821563
2 Jan 2020 01:39:29.000,87.762,-81.350,23066.089591
2 Jan 2020 01:39:59.000,84.825,-81.517,23018.529483
2 Jan 2020 01:40:29.000,81.769,-81.670,22976.215605
2 Jan 2020 01:40:59.000,78.597,-81.807,22939.216056
2 Jan 2020 01:41:29.000,75.319,-81.927,22907.592420
2 Jan 2020 01:41:59.000,71.943,-82.029,22881.399495
2 Jan 2020 01:42:29.000,68.485,-82.111,22860.685232
2 Jan 2020 01:42:59.000,64.959,-82.172,22845.490313
2 Jan 2020 01:43:29.000,61.386,-82.211,22835.848158
2 Jan 2020 01:43:59.000,57.786,-82.227,22831.784749
2 Jan 2020 01:44:29.000,54.180,-82.221,22833.318526
2 Jan 2020 01:44:59.000,50.590,-82.192,22840.460347
2 Jan 2020 01:45:29.000,47.040,-82.141,22853.213313
2 Jan 2020 01:45:59.000,43.547,-82.068,22871.572931
2 Jan 2020 01:46:29.000,40.132,-81.974,22895.527025
2 Jan 2020 01:46:59.000,36.808,-81.861,22925.055806
2 Jan 2020 01:47:29.000,33.590,-81.729,22960.131949
2 Jan 2020 01:47:59.000,30.485,-81.581,23000.720802
2 Jan 2020 01:48:29.000,27.502,-81.417,23046.780110
2 Jan 2020 01:48:59.000,24.643,-81.240,23098.260774
2 Jan 2020 01:49:29.000,21.911,-81.051,23155.106647
2 Jan 2020 01:49:59.000,19.306,-80.851,23217.254836
2 Jan 2020 01:50:29.000,16.824,-80.644,23284.635934
2 Jan 2020 01:50:59.000,14.464,-80.428,23357.174422
2 Jan 2020 01:51:29.000,12.220,-80.208,23434.788314
2 Jan 2020 01:51:59.000,10.089,-79.983,23517.390360
2 Jan 2020 01:52:29.000,8.064,-79.755,23604.887729
2 Jan 2020 01:52:59.000,6.140,-79.526,23697.182466
2 Jan 2020 01:53:29.000,4.312,-79.296,23794.171801
2 Jan 2020 01:53:59.000,2.573,-79.066,23895.748463
2 Jan 2020 01:54:29.000,0.919,-78.838,24001.801231
2 Jan 2020 01:54:59.000,359.345,-78.612,24112.214352
2 Jan 2020 01:55:29.000,357.844,-78.390,24226.869201
2 Jan 2020 01:55:59.000,356.413,-78.171,24345.643716
2 Jan 2020 01:56:29.000,355.047,-77.957,24468.412931
2 Jan 2020 01:56:59.000,353.742,-77.748,24595.049285
2 Jan 2020 01:57:29.000,352.493,-77.545,24725.422922
2 Jan 2020 01:57:59.000,351.297,-77.347,24859.401986
2 Jan 2020 01:58:29.000,350.151,-77.157,24996.852908
2 Jan 2020 01:58:59.000,349.051,-76.974,25137.640967
2 Jan 2020 01:59:29.000,347.995,-76.797,25281.629395
2 Jan 2020 01:59:59.000,346.979,-76.629,25428.681361
2 Jan 2020 02:00:29.000,346.001,-76.468,25578.659065
2 Jan 2020 02:00:59.000,345.059,-76.316,25731.424244
2 Jan 2020 02:01:29.000,344.150,-76.172,25886.838396
2 Jan 2020 02:01:59.000,343.272,-76.037,26044.762977
2 Jan 2020 02:02:10.179,342.953,-75.988,26104.223439
2 Jan 2020 03:28:37.915,144.221,-75.990,26105.400628
2 Jan 2020 03:29:07.000,144.352,-76.136,25929.950082
2 Jan 2020 03:29:37.000,144.499,-76.300,25751.005390
2 Jan 2020 03:30:07.000,144.658,-76.475,25574.278075
2 Jan 2020 03:30:37.000,144.830,-76.663,25399.932218
2 Jan 2020 03:31:07.000,145.017,-76.864,25228.133318
2 Jan 2020 03:31:37.000,145.219,-77.077,25059.048089
2 Jan 2020 03:32:07.000,145.437,-77.303,24892.844255
2 Jan 2020 03:32:37.000,145.673,-77.541,24729.690309
2 Jan 2020 03:33:07.000,145.928,-77.791,24569.755267
2 Jan 2020 03:33:37.000,146.204,-78.055,24413.208386
2 Jan 2020 03:34:07.000,146.502,-78.330,24260.218566
2 Jan 2020 03:34:37.000,146.826,-78.618,24110.955274
2 Jan 2020 03:35:07.000,147.177,-78.918,23965.586329
2 Jan 2020 03:35:37.000,147.559,-79.230,23824.278800
2 Jan 2020 03:36:07.000,147.975,-79.553,23687.198317
2 Jan 2020 03:36:37.000,148.429,-79.888,23554.508666
2 Jan 2020 03:37:07.000,148.925,-80.235,23426.371378
2 Jan 2020 03:37:37.000,149.471,-80.592,23302.945046
2 Jan 2020 03:38:07.000,150.072,-80.960,23184.385875
2 Jan 2020 03:38:37.000,150.737,-81.337,23070.845708
2 Jan 2020 03:39:07.000,151.475,-81.725,22962.472575
2 Jan 2020 03:39:37.000,152.300,-82.121,22859.409953
2 Jan 2020 03:40:07.000,153.226,-82.525,22761.796283
2 Jan 2020 03:40:37.000,154.272,-82.937,22669.764291
2 Jan 2020 03:41:07.000,155.463,-83.355,22583.441274
2 Jan 2020 03:41:37.000,156.829,-83.778,22502.947452
2 Jan 2020 03:42:07.000,158.410,-84.206,22428.396285
2 Jan 2020 03:42:37.000,160.259,-84.636,22359.893821
2 Jan 2020 03:43:07.000,162.447,-85.066,22297.538136
2 Jan 2020 03:43:37.000,165.068,-85.495,22241.419404
2 Jan 2020 03:44:07.000,168.254,-85.917,22191.618760
2 Jan 2020 03:44:37.000,172.182,-86.330,22148.208451
2 Jan 2020 03:45:07.000,177.100,-86.725,22111.251378
2 Jan 2020 03:45:37.000,183.334,-87.094,22080.800746
2 Jan 2020 03:46:07.000,191.280,-87.422,22056.900072
2 Jan 2020 03:46:37.000,201.313,-87.690,22039.582578
2 Jan 2020 03:47:07.000,213.515,-87.873,22028.871316
2 Jan 2020 03:47:37.000,227.282,-87.948,22024.778979
2 Jan 2020 03:48:07.000,241.234,-87.901,22027.307853
2 Jan 2020 03:48:37.000,253.885,-87.741,22036.449786
2 Jan 2020 03:49:07.000,264.435,-87.491,22052.186228
2 Jan 2020 03:49:37.000,272.846,-87.175,22074.488336
2 Jan 2020 03:50:07.000,279.456,-86.815,22103.317101
2 Jan 2020 03:50:37.000,284.669,-86.426,22138.623607
2 Jan 2020 03:51:07.000,288.831,-86.018,22180.348978
2 Jan 2020 03:51:37.000,292.205,-85.598,22228.425052
2 Jan 2020 03:52:07.000,294.985,-85.173,22282.774438
2 Jan 2020 03:52:37.000,297.309,-84.744,22343.310920
2 Jan 2020 03:53:07.000,299.282,-84.316,22409.939967
2 Jan 2020 03:53:37.000,300.977,-83.889,22482.558639
2 Jan 2020 03:54:07.000,302.451,-83.467,22561.056752
2 Jan 2020 03:54:37.000,303.747,-83.049,22645.316853
2 Jan 2020 03:55:07.000,304.897,-82.638,22735.214801
2 Jan 2020 03:55:37.000,305.928,-82.234,22830.620250
2 Jan 2020 03:56:07.000,306.858,-81.839,22931.397338
2 Jan 2020 03:56:37.000,307.704,-81.451,23037.404371
2 Jan 2020 03:57:07.000,308.480,-81.074,23148.495507
2 Jan 2020 03:57:37.000,309.195,-80.706,23264.520462
2 Jan 2020 03:58:07.000,309.858,-80.348,23385.325177
2 Jan 2020 03:58:37.000,310.477,-80.002,23510.752296
2 Jan 2020 03:59:07.000,311.057,-79.666,23640.641622
2 Jan 2020 03:59:37.000,311.604,-79.341,23774.830818
2 Jan 2020 04:00:07.000,312.121,-79.028,23913.154815
2 Jan 2020 04:00:37.000,312.613,-78.727,24055.447746
2 Jan 2020 04:01:07.000,313.082,-78.438,24201.542329
2 Jan 2020 04:01:37.000,313.532,-78.161,24351.270488
2 Jan 2020 04:02:07.000,313.964,-77.896,24504.463708
2 Jan 2020 04:02:37.000,314.382,-77.644,24660.953359
2 Jan 2020 04:03:07.000,314.786,-77.403,24820.571009
2 Jan 2020 04:03:37.000,315.178,-77.175,24983.148708
2 Jan 2020 04:04:07.000,315.559,-76.959,25148.519256
2 Jan 2020 04:04:37.000,315.932,-76.756,25316.516445
2 Jan 2020 04:05:07.000,316.297,-76.565,25486.975617
2 Jan 2020 04:05:37.000,316.655,-76.386,25659.732545
2 Jan 2020 04:06:07.000,317.006,-76.219,25834.625595
2 Jan 2020 04:06:37.000,317.353,-76.063,26011.494581
2 Jan 2020 04:06:52.849,317.535,-75.986,26105.677625
2 Jan 2020 05:36:01.042,180.143,-75.993,26112.263347
2 Jan 2020 05:36:31.000,181.328,-76.105,25976.908739
2 Jan 2020 05:37:01.000,182.547,-76.222,25843.907773
2 Jan 2020 05:37:31.000,183.798,-76.345,25713.560986
2 Jan 2020 05:38:01.000,185.085,-76.473,25585.978750
2 Jan 2020 05:38:31.000,186.408,-76.606,25461.270486
2 Jan 2020 05:39:01.000,187.770,-76.743,25339.544490
2 Jan 2020 05:39:31.000,189.173,-76.884,25220.907749
2 Jan 2020 05:40:01.000,190.618,-77.028,25105.465750
2 Jan 2020 05:40:31.000,192.107,-77.176,24993.322290
2 Jan 2020 05:41:01.000,193.642,-77.326,24884.579050
2 Jan 2020 05:41:31.000,195.226,-77.478,24779.336294
2 Jan 2020 05:42:01.000,196.860,-77.633,24677.691300
2 Jan 2020 05:42:31.000,198.546,-77.788,24579.739061
2 Jan 2020 05:43:01.000,200.286,-77.944,24485.571848
2 Jan 2020 05:43:31.000,202.081,-78.099,24395.278996
2 Jan 2020 05:44:01.000,203.935,-78.254,24308.946688
2 Jan 2020 05:44:31.000,205.847,-78.407,24226.657747
2 Jan 2020 05:45:01.000,207.820,-78.558,24148.491252
2 Jan 2020 05:45:31.000,209.853,-78.705,24074.523039
2 Jan 2020 05:46:01.000,211.949,-78.849,24004.824425
2 Jan 2020 05:46:31.000,214.108,-78.989,23939.462741
2 Jan 2020 05:47:01.000,216.328,-79.123,23878.500959
2 Jan 2020 05:47:31.000,218.610,-79.250,23821.997515
2 Jan 2020 05:48:01.000,220.952,-79.371,23770.006137
2 Jan 2020 05:48:31.000,223.353,-79.483,23722.575586
2 Jan 2020 05:49:01.000,225.809,-79.587,23679.749942
2 Jan 2020 05:49:31.000,228.318,-79.682,23641.567806
2 Jan 2020 05:50:01.000,230.876,-79.767,23608.062635
2 Jan 2020 05:50:31.000,233.478,-79.840,23579.262527
2 Jan 2020 05:51:01.000,236.118,-79.903,23555.190132
2 Jan 2020 05:51:31.000,238.791,-79.954,23535.862583
2 Jan 2020 05:52:01.000,241.490,-79.992,23521.291406
2 Jan 2020 05:52:31.000,244.208,-80.018,23511.482656
2 Jan 2020 05:53:01.000,246.937,-80.032,23506.436630
2 Jan 2020 05:53:31.000,249.670,-80.032,23506.148063
2 Jan 2020 05:54:01.000,252.400,-80.020,23510.606096
2 Jan 2020 05:54:31.000,255.118,-79.996,23519.794322
2 Jan 2020 05:55:01.000,257.818,-79.958,23533.690835
2 Jan 2020 05:55:31.000,260.492,-79.909,23552.268349
2 Jan 2020 05:56:01.000,263.135,-79.849,23575.494162
2 Jan 2020 05:56:31.000,265.740,-79.777,23603.330438
2 Jan 2020 05:57:01.000,268.302,-79.695,23635.734224
2 Jan 2020 05:57:31.000,270.818,-79.603,23672.657619
2 Jan 2020 05:58:01.000,273.282,-79.502,23714.047925
2 Jan 2020 05:58:31.000,275.692,-79.392,23759.847810
2 Jan 2020 05:59:01.000,278.047,-79.275,23809.995583
2 Jan 2020 05:59:31.000,280.343,-79.151,23864.425011
2 Jan 2020 06:00:01.000,282.581,-79.021,23923.066054
2 Jan 2020 06:00:31.000,284.760,-78.886,23985.844721
2 Jan 2020 06:01:01.000,286.879,-78.747,24052.683359
2 Jan 2020 06:01:31.000,288.940,-78.603,24123.500873
2 Jan 2020 06:02:01.000,290.943,-78.457,24198.212941
2 Jan 2020 06:02:31.000,292.889,-78.309,24276.732236
2 Jan 2020 06:03:01.000,294.779,-78.159,24358.968807
2 Jan 2020 06:03:31.000,296.616,-78.009,24444.829671
2 Jan 2020 06:04:01.000,298.401,-77.858,24534.219964
2 Jan 2020 06:04:31.000,300.135,-77.708,24627.042551
2 Jan 2020 06:05:01.000,301.821,-77.558,24723.198386
2 Jan 2020 06:05:31.000,303.461,-77.410,24822.586730
2 Jan 2020 06:06:01.000,305.056,-77.264,24925.105354
2 Jan 2020 06:06:31.000,306.609,-77.121,25030.650741
2 Jan 2020 06:07:01.000,308.122,-76.980,25139.118286
2 Jan 2020 06:07:31.000,309.596,-76.843,25250.402477
2 Jan 2020 06:08:01.000,311.033,-76.709,25364.397084
2 Jan 2020 06:08:31.000,312.436,-76.579,25480.995565
2 Jan 2020 06:09:01.000,313.806,-76.453,25600.090303
2 Jan 2020 06:09:31.000,315.144,-76.332,25721.574153
2 Jan 2020 06:10:01.000,316.453,-76.215,25845.339673
2 Jan 2020 06:10:31.000,317.734,-76.104,25971.279497
2 Jan 2020 06:11:01.000,318.989,-75.998,26099.286468
2 Jan 2020 06:11:04.064,319.115,-75.987,26112.471760
2 Jan 2020 07:47:46.327,222.139,-75.993,26119.094707
2 Jan 2020 07:48:16.000,223.346,-76.100,25989.116796
2 Jan 2020 07:48:46.000,224.592,-76.214,25859.722672
2 Jan 2020 07:49:16.000,225.866,-76.333,25732.466051
2 Jan 2020 07:49:46.000,227.169,-76.457,25607.458076
2 Jan 2020 07:50:16.000,228.503,-76.586,25484.810101
2 Jan 2020 07:50:46.000,229.870,-76.720,25364.633548
2 Jan 2020 07:51:16.000,231.272,-76.859,25247.039754
2 Jan 2020 07:51:46.000,232.711,-77.001,25132.139806
2 Jan 2020 07:52:16.000,234.188,-77.147,25020.044370
2 Jan 2020 07:52:46.000,235.706,-77.297,24910.863514
2 Jan 2020 07:53:16.000,237.268,-77.449,24804.706516
2 Jan 2020 07:53:46.000,238.874,-77.604,24701.681464
2 Jan 2020 07:54:16.000,240.529,-77.761,24601.895886
2 Jan 2020 07:54:46.000,242.233,-77.919,24505.455279
2 Jan 2020 07:55:16.000,243.989,-78.078,24412.463739
2 Jan 2020 07:55:46.000,245.800,-78.238,24323.023526
2 Jan 2020 07:56:16.000,247.667,-78.397,24237.234839
2 Jan 2020 07:56:46.000,249.592,-78.555,24155.195582
2 Jan 2020 07:57:16.000,251.578,-78.711,24077.001131
2 Jan 2020 07:57:46.000,253.625,-78.865,24002.743968
2 Jan 2020 07:58:16.000,255.736,-79.015,23932.513983
2 Jan 2020 07:58:46.000,257.911,-79.161,23866.397413
2 Jan 2020 07:59:16.000,260.150,-79.302,23804.477168
2 Jan 2020 07:59:46.000,262.455,-79.438,23746.832455
2 Jan 2020 08:00:16.000,264.823,-79.566,23693.538555
2 Jan 2020 08:00:46.000,267.255,-79.687,23644.666600
2 Jan 2020 08:01:16.000,269.748,-79.800,23600.283285
2 Jan 2020 08:01:46.000,272.299,-79.903,23560.450969
2 Jan 2020 08:02:16.000,274.905,-79.996,23525.227007
2 Jan 2020 08:02:46.000,277.561,-80.078,23494.663894
2 Jan 2020 08:03:16.000,280.262,-80.149,23468.809007
2 Jan 2020 08:03:46.000,283.002,-80.207,23447.704452
2 Jan 2020 08:04:16.000,285.774,-80.252,23431.386920
