STKdata/stk_70fov_4leo/Satellite-MEO_Satellite10206-To-Satellite-LEO_Satellite10000 AER.csv

"Time (UTCG)","Azimuth (deg)","Elevation (deg)","Range (km)"
1 Jan 2020 00:43:18.990,282.492,-75.982,26102.210187
1 Jan 2020 00:43:48.000,280.666,-76.061,26005.848562
1 Jan 2020 00:44:18.000,278.735,-76.142,25911.503905
1 Jan 2020 00:44:48.000,276.764,-76.222,25822.697841
1 Jan 2020 00:45:18.000,274.752,-76.299,25739.568962
1 Jan 2020 00:45:48.000,272.700,-76.375,25662.247378
1 Jan 2020 00:46:18.000,270.610,-76.447,25590.854090
1 Jan 2020 00:46:48.000,268.483,-76.515,25525.501010
1 Jan 2020 00:47:18.000,266.321,-76.578,25466.289752
1 Jan 2020 00:47:48.000,264.126,-76.636,25413.311727
1 Jan 2020 00:48:18.000,261.902,-76.689,25366.647623
1 Jan 2020 00:48:48.000,259.651,-76.735,25326.366989
1 Jan 2020 00:49:18.000,257.376,-76.774,25292.528235
1 Jan 2020 00:49:48.000,255.082,-76.807,25265.177897
1 Jan 2020 00:50:18.000,252.772,-76.832,25244.350760
1 Jan 2020 00:50:48.000,250.450,-76.849,25230.069608
1 Jan 2020 00:51:18.000,248.120,-76.858,25222.345095
1 Jan 2020 00:51:48.000,245.788,-76.859,25221.175806
1 Jan 2020 00:52:18.000,243.456,-76.853,25226.548074
1 Jan 2020 00:52:48.000,241.130,-76.839,25238.436172
1 Jan 2020 00:53:18.000,238.814,-76.816,25256.802386
1 Jan 2020 00:53:48.000,236.511,-76.787,25281.597208
1 Jan 2020 00:54:18.000,234.225,-76.750,25312.759454
1 Jan 2020 00:54:48.000,231.961,-76.707,25350.216658
1 Jan 2020 00:55:18.000,229.720,-76.658,25393.885307
1 Jan 2020 00:55:48.000,227.507,-76.602,25443.671211
1 Jan 2020 00:56:18.000,225.324,-76.542,25499.469966
1 Jan 2020 00:56:48.000,223.173,-76.477,25561.167114
1 Jan 2020 00:57:18.000,221.056,-76.408,25628.638993
1 Jan 2020 00:57:48.000,218.974,-76.335,25701.752975
1 Jan 2020 00:58:18.000,216.929,-76.260,25780.368033
1 Jan 2020 00:58:48.000,214.921,-76.183,25864.335274
1 Jan 2020 00:59:18.000,212.951,-76.105,25953.498604
1 Jan 2020 00:59:48.000,211.019,-76.025,26047.694787
1 Jan 2020 01:00:04.658,209.963,-75.981,26102.109398
1 Jan 2020 02:17:34.973,319.332,-75.987,26105.795178
1 Jan 2020 02:18:04.000,317.421,-76.051,26027.012885
1 Jan 2020 02:18:34.000,315.414,-76.115,25950.722845
1 Jan 2020 02:19:04.000,313.374,-76.178,25879.791074
1 Jan 2020 02:19:34.000,311.303,-76.237,25814.351452
1 Jan 2020 02:20:04.000,309.202,-76.293,25754.529630
1 Jan 2020 02:20:34.000,307.073,-76.345,25700.442500
1 Jan 2020 02:21:04.000,304.918,-76.392,25652.197995
1 Jan 2020 02:21:34.000,302.739,-76.435,25609.894273
1 Jan 2020 02:22:04.000,300.540,-76.472,25573.619598
1 Jan 2020 02:22:34.000,298.322,-76.503,25543.451908
1 Jan 2020 02:23:04.000,296.089,-76.529,25519.458479
1 Jan 2020 02:23:34.000,293.845,-76.548,25501.695721
1 Jan 2020 02:24:04.000,291.592,-76.560,25490.208813
1 Jan 2020 02:24:34.000,289.335,-76.565,25485.031605
1 Jan 2020 02:25:04.000,287.077,-76.564,25486.186453
1 Jan 2020 02:25:34.000,284.822,-76.556,25493.684149
1 Jan 2020 02:26:04.000,282.573,-76.541,25507.523772
1 Jan 2020 02:26:34.000,280.335,-76.519,25527.692847
1 Jan 2020 02:27:04.000,278.110,-76.491,25554.167307
1 Jan 2020 02:27:34.000,275.902,-76.457,25586.911625
1 Jan 2020 02:28:04.000,273.714,-76.417,25625.879043
1 Jan 2020 02:28:34.000,271.550,-76.372,25671.011484
1 Jan 2020 02:29:04.000,269.411,-76.322,25722.240226
1 Jan 2020 02:29:34.000,267.300,-76.267,25779.485916
1 Jan 2020 02:30:04.000,265.220,-76.209,25842.658965
1 Jan 2020 02:30:34.000,263.172,-76.147,25911.659915
1 Jan 2020 02:31:04.000,261.158,-76.082,25986.379978
1 Jan 2020 02:31:34.000,259.178,-76.015,26066.700900
1 Jan 2020 02:31:47.813,258.279,-75.984,26105.532964
1 Jan 2020 03:47:26.261,25.270,-75.993,26112.299839
1 Jan 2020 03:47:56.000,24.152,-76.148,25927.872536
1 Jan 2020 03:48:26.000,22.986,-76.315,25744.973936
1 Jan 2020 03:48:56.000,21.777,-76.495,25565.498195
1 Jan 2020 03:49:26.000,20.522,-76.686,25389.710249
1 Jan 2020 03:49:56.000,19.216,-76.888,25217.876180
1 Jan 2020 03:50:26.000,17.854,-77.100,25050.262653
1 Jan 2020 03:50:56.000,16.430,-77.323,24887.136301
1 Jan 2020 03:51:26.000,14.939,-77.555,24728.762829
1 Jan 2020 03:51:56.000,13.374,-77.795,24575.407241
1 Jan 2020 03:52:26.000,11.728,-78.044,24427.331663
1 Jan 2020 03:52:56.000,9.994,-78.299,24284.795491
1 Jan 2020 03:53:26.000,8.163,-78.559,24148.054305
1 Jan 2020 03:53:56.000,6.227,-78.824,24017.358987
1 Jan 2020 03:54:26.000,4.178,-79.091,23892.954596
1 Jan 2020 03:54:56.000,2.005,-79.360,23775.080243
1 Jan 2020 03:55:26.000,359.699,-79.628,23663.966868
1 Jan 2020 03:55:56.000,357.250,-79.893,23559.837105
1 Jan 2020 03:56:26.000,354.651,-80.152,23462.904070
1 Jan 2020 03:56:56.000,351.891,-80.405,23373.370240
1 Jan 2020 03:57:26.000,348.964,-80.647,23291.427032
1 Jan 2020 03:57:56.000,345.865,-80.876,23217.252988
1 Jan 2020 03:58:26.000,342.593,-81.089,23151.013442
1 Jan 2020 03:58:56.000,339.148,-81.284,23092.859421
1 Jan 2020 03:59:26.000,335.538,-81.457,23042.927111
1 Jan 2020 03:59:56.000,331.773,-81.605,23001.336645
1 Jan 2020 04:00:26.000,327.873,-81.727,22968.191737
1 Jan 2020 04:00:56.000,323.860,-81.818,22943.578989
1 Jan 2020 04:01:26.000,319.765,-81.879,22927.567453
1 Jan 2020 04:01:56.000,315.620,-81.907,22920.208102
1 Jan 2020 04:02:26.000,311.463,-81.902,22921.533629
1 Jan 2020 04:02:56.000,307.330,-81.863,22931.558279
1 Jan 2020 04:03:26.000,303.259,-81.792,22950.277605
1 Jan 2020 04:03:56.000,299.283,-81.691,22977.668739
1 Jan 2020 04:04:26.000,295.429,-81.559,23013.690402
1 Jan 2020 04:04:56.000,291.721,-81.402,23058.283310
1 Jan 2020 04:05:26.000,288.175,-81.219,23111.370138
1 Jan 2020 04:05:56.000,284.803,-81.016,23172.856574
1 Jan 2020 04:06:26.000,281.609,-80.794,23242.631517
1 Jan 2020 04:06:56.000,278.596,-80.557,23320.567963
1 Jan 2020 04:07:26.000,275.759,-80.307,23406.523143
1 Jan 2020 04:07:56.000,273.095,-80.048,23500.340193
1 Jan 2020 04:08:26.000,270.595,-79.781,23601.848436
1 Jan 2020 04:08:56.000,268.251,-79.510,23710.864604
1 Jan 2020 04:09:26.000,266.055,-79.236,23827.193037
1 Jan 2020 04:09:56.000,263.996,-78.962,23950.627723
1 Jan 2020 04:10:26.000,262.065,-78.690,24080.952560
1 Jan 2020 04:10:56.000,260.254,-78.421,24217.942505
1 Jan 2020 04:11:26.000,258.552,-78.156,24361.364800
1 Jan 2020 04:11:56.000,256.952,-77.898,24510.978908
1 Jan 2020 04:12:26.000,255.445,-77.647,24666.538972
1 Jan 2020 04:12:56.000,254.026,-77.404,24827.793716
1 Jan 2020 04:13:26.000,252.685,-77.170,24994.487577
1 Jan 2020 04:13:56.000,251.419,-76.947,25166.361539
1 Jan 2020 04:14:26.000,250.220,-76.734,25343.154230
1 Jan 2020 04:14:56.000,249.084,-76.533,25524.601512
1 Jan 2020 04:15:26.000,248.006,-76.344,25710.438925
1 Jan 2020 04:15:56.000,246.981,-76.167,25900.401201
1 Jan 2020 04:16:26.000,246.006,-76.003,26094.223165
1 Jan 2020 04:16:28.800,245.917,-75.988,26112.499308
1 Jan 2020 05:27:51.182,57.090,-75.996,26118.879056
1 Jan 2020 05:28:21.000,57.398,-76.177,25904.410781
1 Jan 2020 05:28:51.000,57.732,-76.377,25691.760908
1 Jan 2020 05:29:21.000,58.092,-76.593,25482.528407
1 Jan 2020 05:29:51.000,58.482,-76.827,25276.999982
1 Jan 2020 05:30:21.000,58.904,-77.079,25075.464760
1 Jan 2020 05:30:51.000,59.361,-77.348,24878.213746
1 Jan 2020 05:31:21.000,59.856,-77.635,24685.539217
1 Jan 2020 05:31:51.000,60.394,-77.938,24497.733750
1 Jan 2020 05:32:21.000,60.981,-78.259,24315.090750
1 Jan 2020 05:32:51.000,61.621,-78.596,24137.901759
1 Jan 2020 05:33:21.000,62.321,-78.949,23966.456879
1 Jan 2020 05:33:51.000,63.091,-79.318,23801.043538
1 Jan 2020 05:34:21.000,63.938,-79.703,23641.945260
1 Jan 2020 05:34:51.000,64.876,-80.102,23489.441665
1 Jan 2020 05:35:21.000,65.918,-80.514,23343.805836
1 Jan 2020 05:35:51.000,67.080,-80.939,23205.304242
1 Jan 2020 05:36:21.000,68.384,-81.375,23074.195318
1 Jan 2020 05:36:51.000,69.855,-81.821,22950.728035
1 Jan 2020 05:37:21.000,71.526,-82.275,22835.141673
1 Jan 2020 05:37:51.000,73.436,-82.735,22727.663128
1 Jan 2020 05:38:21.000,75.635,-83.198,22628.506714
1 Jan 2020 05:38:51.000,78.188,-83.662,22537.872572
1 Jan 2020 05:39:21.000,81.175,-84.122,22455.946167
1 Jan 2020 05:39:51.000,84.697,-84.573,22382.896198
1 Jan 2020 05:40:21.000,88.881,-85.008,22318.874249
1 Jan 2020 05:40:51.000,93.875,-85.420,22264.013554
1 Jan 2020 05:41:21.000,99.844,-85.797,22218.428573
1 Jan 2020 05:41:51.000,106.938,-86.125,22182.213567
1 Jan 2020 05:42:21.000,115.232,-86.389,22155.442429
1 Jan 2020 05:42:51.000,124.636,-86.571,22138.168026
1 Jan 2020 05:43:21.000,134.812,-86.656,22130.421990
1 Jan 2020 05:43:51.000,145.189,-86.636,22132.214230
1 Jan 2020 05:44:21.000,155.130,-86.513,22143.533052
1 Jan 2020 05:44:51.000,164.143,-86.298,22164.345217
1 Jan 2020 05:45:21.000,171.991,-86.008,22194.596026
1 Jan 2020 05:45:51.000,178.661,-85.661,22234.209863
1 Jan 2020 05:46:21.000,184.265,-85.270,22283.090601
1 Jan 2020 05:46:51.000,188.965,-84.850,22341.122359
1 Jan 2020 05:47:21.000,192.921,-84.410,22408.169844
1 Jan 2020 05:47:51.000,196.274,-83.957,22484.079805
1 Jan 2020 05:48:21.000,199.140,-83.498,22568.681612
1 Jan 2020 05:48:51.000,201.612,-83.036,22661.788540
1 Jan 2020 05:49:21.000,203.764,-82.576,22763.198241
1 Jan 2020 05:49:51.000,205.653,-82.121,22872.694821
1 Jan 2020 05:50:21.000,207.327,-81.673,22990.049428
1 Jan 2020 05:50:51.000,208.821,-81.233,23115.021800
1 Jan 2020 05:51:21.000,210.165,-80.804,23247.360718
1 Jan 2020 05:51:51.000,211.383,-80.386,23386.806350
1 Jan 2020 05:52:21.000,212.495,-79.982,23533.090705
1 Jan 2020 05:52:51.000,213.515,-79.591,23685.938982
1 Jan 2020 05:53:21.000,214.457,-79.215,23845.070965
1 Jan 2020 05:53:51.000,215.332,-78.854,24010.201078
1 Jan 2020 05:54:21.000,216.150,-78.509,24181.040956
1 Jan 2020 05:54:51.000,216.917,-78.180,24357.299417
1 Jan 2020 05:55:21.000,217.640,-77.867,24538.683632
1 Jan 2020 05:55:51.000,218.325,-77.571,24724.899993
1 Jan 2020 05:56:21.000,218.977,-77.292,24915.654903
1 Jan 2020 05:56:51.000,219.600,-77.031,25110.655841
1 Jan 2020 05:57:21.000,220.198,-76.786,25309.610743
1 Jan 2020 05:57:51.000,220.774,-76.558,25512.230532
1 Jan 2020 05:58:21.000,221.330,-76.348,25718.228392
1 Jan 2020 05:58:51.000,221.869,-76.154,25927.320579
1 Jan 2020 05:59:18.178,222.345,-75.993,26119.182629
1 Jan 2020 07:12:15.455,74.164,-75.998,26122.483619
1 Jan 2020 07:12:45.000,75.771,-76.112,25984.512997
1 Jan 2020 07:13:15.000,77.457,-76.232,25849.275763
1 Jan 2020 07:13:45.000,79.197,-76.355,25719.136818
1 Jan 2020 07:14:15.000,80.993,-76.480,25594.293742
1 Jan 2020 07:14:45.000,82.848,-76.607,25474.938317
1 Jan 2020 07:15:15.000,84.763,-76.734,25361.255680
1 Jan 2020 07:15:45.000,86.737,-76.861,25253.424411
1 Jan 2020 07:16:15.000,88.773,-76.987,25151.614729
1 Jan 2020 07:16:45.000,90.871,-77.111,25055.988602
1 Jan 2020 07:17:15.000,93.029,-77.231,24966.698900
1 Jan 2020 07:17:45.000,95.249,-77.347,24883.888619
1 Jan 2020 07:18:15.000,97.527,-77.457,24807.690862
1 Jan 2020 07:18:45.000,99.863,-77.561,24738.227348
1 Jan 2020 07:19:15.000,102.253,-77.657,24675.608475
1 Jan 2020 07:19:45.000,104.694,-77.745,24619.932657
1 Jan 2020 07:20:15.000,107.182,-77.824,24571.285758
1 Jan 2020 07:20:45.000,109.713,-77.892,24529.741090
1 Jan 2020 07:21:15.000,112.280,-77.950,24495.358412
1 Jan 2020 07:21:45.000,114.878,-77.996,24468.184073
1 Jan 2020 07:22:15.000,117.500,-78.030,24448.250661
1 Jan 2020 07:22:45.000,120.139,-78.052,24435.576793
1 Jan 2020 07:23:15.000,122.788,-78.061,24430.167190
1 Jan 2020 07:23:45.000,125.439,-78.058,24432.012362
1 Jan 2020 07:24:15.000,128.084,-78.042,24441.088850
1 Jan 2020 07:24:45.000,130.717,-78.014,24457.359277
1 Jan 2020 07:25:15.000,133.331,-77.974,24480.772557
1 Jan 2020 07:25:45.000,135.918,-77.923,24511.264055
1 Jan 2020 07:26:15.000,138.473,-77.860,24548.755999
1 Jan 2020 07:26:45.000,140.990,-77.788,24593.157791
1 Jan 2020 07:27:15.000,143.465,-77.706,24644.366451
1 Jan 2020 07:27:45.000,145.893,-77.616,24702.267163
1 Jan 2020 07:28:15.000,148.272,-77.518,24766.733502
1 Jan 2020 07:28:45.000,150.598,-77.413,24837.628431
1 Jan 2020 07:29:15.000,152.869,-77.303,24914.804621
1 Jan 2020 07:29:45.000,155.085,-77.188,24998.105145
1 Jan 2020 07:30:15.000,157.245,-77.070,25087.364241
1 Jan 2020 07:30:45.000,159.348,-76.948,25182.407519
1 Jan 2020 07:31:15.000,161.395,-76.826,25283.053319
1 Jan 2020 07:31:45.000,163.387,-76.702,25389.112942
1 Jan 2020 07:32:15.000,165.324,-76.579,25500.391445
1 Jan 2020 07:32:45.000,167.208,-76.457,25616.688317
1 Jan 2020 07:33:15.000,169.041,-76.336,25737.798309
1 Jan 2020 07:33:45.000,170.824,-76.218,25863.511432
1 Jan 2020 07:34:15.000,172.560,-76.104,25993.614569
1 Jan 2020 07:34:43.816,174.184,-75.997,26122.514527
1 Jan 2020 08:52:55.144,65.736,-75.995,26120.701746
1 Jan 2020 08:53:25.000,67.791,-76.036,26070.903306
1 Jan 2020 08:53:55.000,69.876,-76.072,26026.519023
1 Jan 2020 08:54:25.000,71.980,-76.105,25987.885101
1 Jan 2020 08:54:55.000,74.101,-76.134,25955.073897
1 Jan 2020 08:55:25.000,76.236,-76.157,25928.147728
1 Jan 2020 08:55:55.000,78.382,-76.176,25907.158600
1 Jan 2020 08:56:25.000,80.538,-76.189,25892.148095
1 Jan 2020 08:56:55.000,82.699,-76.198,25883.147039
1 Jan 2020 08:57:25.000,84.863,-76.200,25880.175491
1 Jan 2020 08:57:55.000,87.028,-76.198,25883.242633
1 Jan 2020 08:58:25.000,89.189,-76.190,25892.346747
1 Jan 2020 08:58:55.000,91.344,-76.176,25907.475153
1 Jan 2020 08:59:25.000,93.490,-76.158,25928.604357
1 Jan 2020 08:59:55.000,95.624,-76.134,25955.700095
1 Jan 2020 09:00:25.000,97.744,-76.106,25988.717482
1 Jan 2020 09:00:55.000,99.847,-76.073,26027.601198
1 Jan 2020 09:01:25.000,101.931,-76.036,26072.285793
1 Jan 2020 09:01:53.964,103.922,-75.997,26120.861023
1 Jan 2020 10:19:41.625,351.193,-75.988,26114.610566
1 Jan 2020 10:20:11.000,352.643,-76.117,25959.786096
1 Jan 2020 10:20:41.000,354.169,-76.255,25805.305729
1 Jan 2020 10:21:11.000,355.744,-76.401,25654.741177
1 Jan 2020 10:21:41.000,357.371,-76.552,25508.332012
1 Jan 2020 10:22:11.000,359.054,-76.710,25366.316485
1 Jan 2020 10:22:41.000,0.796,-76.872,25228.930894
1 Jan 2020 10:23:11.000,2.601,-77.038,25096.408939
1 Jan 2020 10:23:41.000,4.472,-77.207,24968.980828
1 Jan 2020 10:24:11.000,6.412,-77.379,24846.873351
1 Jan 2020 10:24:41.000,8.426,-77.551,24730.307947
1 Jan 2020 10:25:11.000,10.515,-77.723,24619.500739
1 Jan 2020 10:25:41.000,12.682,-77.894,24514.661549
1 Jan 2020 10:26:11.000,14.930,-78.063,24415.992987
1 Jan 2020 10:26:41.000,17.261,-78.227,24323.690147
1 Jan 2020 10:27:11.000,19.675,-78.386,24237.939044
1 Jan 2020 10:27:41.000,22.172,-78.538,24158.916341
1 Jan 2020 10:28:11.000,24.751,-78.682,24086.788443
1 Jan 2020 10:28:41.000,27.410,-78.815,24021.710655
1 Jan 2020 10:29:11.000,30.146,-78.938,23963.826798
1 Jan 2020 10:29:41.000,32.954,-79.048,23913.267994
1 Jan 2020 10:30:11.000,35.827,-79.143,23870.152384
1 Jan 2020 10:30:41.000,38.758,-79.224,23834.584445
1 Jan 2020 10:31:11.000,41.737,-79.288,23806.654440
1 Jan 2020 10:31:41.000,44.753,-79.335,23786.438044
1 Jan 2020 10:32:11.000,47.796,-79.364,23773.995791
1 Jan 2020 10:32:41.000,50.852,-79.375,23769.372881
1 Jan 2020 10:33:11.000,53.909,-79.368,23772.598941
1 Jan 2020 10:33:41.000,56.954,-79.342,23783.687756
1 Jan 2020 10:34:11.000,59.974,-79.298,23802.637364
1 Jan 2020 10:34:41.000,62.958,-79.237,23829.429979
1 Jan 2020 10:35:11.000,65.893,-79.158,23864.032207
1 Jan 2020 10:35:41.000,68.770,-79.064,23906.394916
1 Jan 2020 10:36:11.000,71.581,-78.955,23956.453968
1 Jan 2020 10:36:41.000,74.318,-78.833,24014.130276
1 Jan 2020 10:37:11.000,76.975,-78.699,24079.330301
1 Jan 2020 10:37:41.000,79.548,-78.554,24151.946710
1 Jan 2020 10:38:11.000,82.035,-78.400,24231.858278
1 Jan 2020 10:38:41.000,84.433,-78.239,24318.931453
1 Jan 2020 10:39:11.000,86.742,-78.071,24413.020386
1 Jan 2020 10:39:41.000,88.963,-77.899,24513.967783
1 Jan 2020 10:40:11.000,91.096,-77.723,24621.605836
1 Jan 2020 10:40:41.000,93.144,-77.546,24735.756158
1 Jan 2020 10:41:11.000,95.109,-77.369,24856.231762
1 Jan 2020 10:41:41.000,96.993,-77.192,24982.837045
1 Jan 2020 10:42:11.000,98.801,-77.018,25115.368764
1 Jan 2020 10:42:41.000,100.534,-76.846,25253.616815
1 Jan 2020 10:43:11.000,102.197,-76.679,25397.365267
1 Jan 2020 10:43:41.000,103.793,-76.516,25546.392058
1 Jan 2020 10:44:11.000,105.325,-76.360,25700.471302
1 Jan 2020 10:44:41.000,106.796,-76.210,25859.372963
1 Jan 2020 10:45:11.000,108.210,-76.068,26022.863792
1 Jan 2020 10:45:27.501,108.965,-75.993,26114.661066
1 Jan 2020 11:57:30.206,310.812,-75.984,26107.792014
1 Jan 2020 11:58:00.000,310.993,-76.166,25891.899177
1 Jan 2020 11:58:30.000,311.173,-76.367,25677.376661
1 Jan 2020 11:59:00.000,311.352,-76.587,25466.007227
1 Jan 2020 11:59:30.000,311.530,-76.824,25258.078626
1 Jan 2020 12:00:00.000,311.709,-77.080,25053.881795
1 Jan 2020 12:00:30.000,311.889,-77.355,24853.710355
1 Jan 2020 12:01:00.000,312.070,-77.648,24657.860066
1 Jan 2020 12:01:30.000,312.253,-77.959,24466.627915
1 Jan 2020 12:02:00.000,312.440,-78.289,24280.312614
1 Jan 2020 12:02:30.000,312.631,-78.638,24099.212077
1 Jan 2020 12:03:00.000,312.828,-79.005,23923.623802
1 Jan 2020 12:03:30.000,313.032,-79.390,23753.843686
1 Jan 2020 12:04:00.000,313.245,-79.792,23590.165088
1 Jan 2020 12:04:30.000,313.470,-80.213,23432.877530
1 Jan 2020 12:05:00.000,313.709,-80.651,23282.266804
1 Jan 2020 12:05:30.000,313.965,-81.105,23138.612076
1 Jan 2020 12:06:00.000,314.243,-81.575,23002.185924
1 Jan 2020 12:06:30.000,314.549,-82.062,22873.252822
1 Jan 2020 12:07:00.000,314.889,-82.563,22752.067686
1 Jan 2020 12:07:30.000,315.273,-83.078,22638.875542
1 Jan 2020 12:08:00.000,315.714,-83.607,22533.908857
1 Jan 2020 12:08:30.000,316.230,-84.148,22437.387245
1 Jan 2020 12:09:00.000,316.849,-84.700,22349.515845
1 Jan 2020 12:09:30.000,317.608,-85.262,22270.484723
1 Jan 2020 12:10:00.000,318.571,-85.833,22200.466812
1 Jan 2020 12:10:30.000,319.839,-86.412,22139.617467
1 Jan 2020 12:11:00.000,321.597,-86.995,22088.073222
1 Jan 2020 12:11:30.000,324.205,-87.581,22045.951268
1 Jan 2020 12:12:00.000,328.478,-88.163,22013.348094
1 Jan 2020 12:12:30.000,336.649,-88.730,21990.339236
1 Jan 2020 12:13:00.000,356.620,-89.235,21976.978638
1 Jan 2020 12:13:30.000,48.920,-89.451,21973.298356
1 Jan 2020 12:14:00.000,92.843,-89.127,21979.308188
1 Jan 2020 12:14:30.000,108.580,-88.599,21994.995724
1 Jan 2020 12:15:00.000,115.447,-88.026,22020.326459
1 Jan 2020 12:15:30.000,119.184,-87.442,22055.243809
1 Jan 2020 12:16:00.000,121.513,-86.856,22099.669818
1 Jan 2020 12:16:30.000,123.096,-86.273,22153.505502
1 Jan 2020 12:17:00.000,124.237,-85.696,22216.631692
1 Jan 2020 12:17:30.000,125.096,-85.127,22288.909328
1 Jan 2020 12:18:00.000,125.763,-84.566,22370.181090
1 Jan 2020 12:18:30.000,126.293,-84.016,22460.271932
1 Jan 2020 12:19:00.000,126.722,-83.478,22558.990461
1 Jan 2020 12:19:30.000,127.074,-82.952,22666.129365
1 Jan 2020 12:20:00.000,127.365,-82.440,22781.467671
1 Jan 2020 12:20:30.000,127.608,-81.941,22904.771287
1 Jan 2020 12:21:00.000,127.812,-81.458,23035.794640
1 Jan 2020 12:21:30.000,127.983,-80.991,23174.281079
1 Jan 2020 12:22:00.000,128.126,-80.540,23319.965390
1 Jan 2020 12:22:30.000,128.245,-80.106,23472.574190
1 Jan 2020 12:23:00.000,128.344,-79.690,23631.827335
1 Jan 2020 12:23:30.000,128.424,-79.291,23797.439357
1 Jan 2020 12:24:00.000,128.489,-78.910,23969.119457
1 Jan 2020 12:24:30.000,128.539,-78.547,24146.574223
1 Jan 2020 12:25:00.000,128.575,-78.202,24329.507531
1 Jan 2020 12:25:30.000,128.600,-77.877,24517.621747
1 Jan 2020 12:26:00.000,128.614,-77.569,24710.618602
1 Jan 2020 12:26:30.000,128.617,-77.281,24908.199989
1 Jan 2020 12:27:00.000,128.611,-77.011,25110.069050
1 Jan 2020 12:27:30.000,128.595,-76.759,25315.929472
1 Jan 2020 12:28:00.000,128.571,-76.526,25525.488141
1 Jan 2020 12:28:30.000,128.538,-76.312,25738.454333
1 Jan 2020 12:29:00.000,128.497,-76.115,25954.540530
1 Jan 2020 12:29:20.993,128.463,-75.988,26107.456431
1 Jan 2020 13:41:08.371,290.280,-75.982,26102.884183
1 Jan 2020 13:41:38.000,289.019,-76.126,25930.390730
1 Jan 2020 13:42:08.000,287.688,-76.281,25759.990680
1 Jan 2020 13:42:38.000,286.299,-76.444,25594.115686
1 Jan 2020 13:43:08.000,284.847,-76.615,25433.008344
1 Jan 2020 13:43:38.000,283.330,-76.794,25276.908635
1 Jan 2020 13:44:08.000,281.743,-76.979,25126.053239
1 Jan 2020 13:44:38.000,280.082,-77.169,24980.674547
1 Jan 2020 13:45:08.000,278.342,-77.364,24841.000952
1 Jan 2020 13:45:38.000,276.519,-77.562,24707.254488
1 Jan 2020 13:46:08.000,274.609,-77.762,24579.651091
1 Jan 2020 13:46:38.000,272.607,-77.963,24458.399514
1 Jan 2020 13:47:08.000,270.511,-78.163,24343.700296
1 Jan 2020 13:47:38.000,268.315,-78.361,24235.745747
1 Jan 2020 13:48:08.000,266.019,-78.555,24134.717884
1 Jan 2020 13:48:38.000,263.618,-78.744,24040.788445
1 Jan 2020 13:49:08.000,261.113,-78.926,23954.117881
1 Jan 2020 13:49:38.000,258.502,-79.099,23874.854422
1 Jan 2020 13:50:08.000,255.788,-79.261,23803.134010
1 Jan 2020 13:50:38.000,252.974,-79.411,23739.078584
1 Jan 2020 13:51:08.000,250.064,-79.546,23682.796136
1 Jan 2020 13:51:38.000,247.066,-79.666,23634.379865
1 Jan 2020 13:52:08.000,243.988,-79.768,23593.908043
1 Jan 2020 13:52:38.000,240.841,-79.852,23561.442995
1 Jan 2020 13:53:08.000,237.639,-79.916,23537.031143
1 Jan 2020 13:53:38.000,234.396,-79.959,23520.702593
1 Jan 2020 13:54:08.000,231.127,-79.981,23512.471134
1 Jan 2020 13:54:38.000,227.849,-79.981,23512.333855
1 Jan 2020 13:55:08.000,224.579,-79.960,23520.271361
1 Jan 2020 13:55:38.000,221.333,-79.918,23536.247824
1 Jan 2020 13:56:08.000,218.126,-79.856,23560.211145
1 Jan 2020 13:56:38.000,214.972,-79.773,23592.093256
1 Jan 2020 13:57:08.000,211.884,-79.673,23631.810485
1 Jan 2020 13:57:38.000,208.873,-79.556,23679.264059
1 Jan 2020 13:58:08.000,205.947,-79.423,23734.340406
1 Jan 2020 13:58:38.000,203.112,-79.276,23796.912057
1 Jan 2020 13:59:08.000,200.372,-79.118,23866.838105
1 Jan 2020 13:59:38.000,197.731,-78.949,23943.964958
1 Jan 2020 14:00:08.000,195.189,-78.771,24028.127220
1 Jan 2020 14:00:38.000,192.746,-78.587,24119.147959
1 Jan 2020 14:01:08.000,190.400,-78.398,24216.840286
1 Jan 2020 14:01:38.000,188.150,-78.205,24321.007694
1 Jan 2020 14:02:08.000,185.991,-78.010,24431.445028
1 Jan 2020 14:02:38.000,183.921,-77.814,24547.939495
1 Jan 2020 14:03:08.000,181.935,-77.620,24670.270860
1 Jan 2020 14:03:38.000,180.029,-77.427,24798.213254
1 Jan 2020 14:04:08.000,178.198,-77.237,24931.535352
1 Jan 2020 14:04:38.000,176.439,-77.052,25070.001331
1 Jan 2020 14:05:08.000,174.746,-76.872,25213.371642
1 Jan 2020 14:05:38.000,173.116,-76.697,25361.403754
1 Jan 2020 14:06:08.000,171.545,-76.529,25513.853104
1 Jan 2020 14:06:38.000,170.028,-76.369,25670.472809
1 Jan 2020 14:07:08.000,168.561,-76.216,25831.015729
1 Jan 2020 14:07:38.000,167.141,-76.072,25995.234125
1 Jan 2020 14:07:57.327,166.250,-75.983,26102.858185
1 Jan 2020 15:25:14.313,282.315,-75.983,26102.828423
1 Jan 2020 15:25:44.000,280.290,-76.028,26046.757779
1 Jan 2020 15:26:14.000,278.220,-76.070,25995.770677
1 Jan 2020 15:26:44.000,276.127,-76.109,25950.571035
1 Jan 2020 15:27:14.000,274.014,-76.143,25911.232762
1 Jan 2020 15:27:44.000,271.884,-76.173,25877.819676
1 Jan 2020 15:28:14.000,269.738,-76.197,25850.385194
1 Jan 2020 15:28:44.000,267.580,-76.217,25828.972313
1 Jan 2020 15:29:14.000,265.413,-76.231,25813.613124
1 Jan 2020 15:29:44.000,263.240,-76.239,25804.328893
1 Jan 2020 15:30:14.000,261.063,-76.242,25801.129913
1 Jan 2020 15:30:44.000,258.886,-76.239,25804.015465
1 Jan 2020 15:31:14.000,256.711,-76.231,25812.973818
1 Jan 2020 15:31:44.000,254.543,-76.217,25827.982265
1 Jan 2020 15:32:14.000,252.384,-76.198,25849.007233
1 Jan 2020 15:32:44.000,250.237,-76.174,25876.004417
1 Jan 2020 15:33:14.000,248.104,-76.144,25908.918958
1 Jan 2020 15:33:44.000,245.988,-76.111,25947.685730
1 Jan 2020 15:34:14.000,243.892,-76.072,25992.229364
1 Jan 2020 15:34:44.000,241.817,-76.030,26042.464890
1 Jan 2020 15:35:14.000,239.766,-75.985,26098.297848
1 Jan 2020 15:35:16.249,239.613,-75.982,26102.706283
1 Jan 2020 16:53:16.003,348.029,-75.989,26108.021243
1 Jan 2020 16:53:46.000,346.269,-76.092,25983.649370
1 Jan 2020 16:54:16.000,344.465,-76.197,25863.652755
1 Jan 2020 16:54:46.000,342.615,-76.304,25748.248346
1 Jan 2020 16:55:16.000,340.717,-76.412,25637.636767
1 Jan 2020 16:55:46.000,338.772,-76.521,25532.014072
1 Jan 2020 16:56:16.000,336.777,-76.630,25431.571118
1 Jan 2020 16:56:46.000,334.732,-76.737,25336.492803
1 Jan 2020 16:57:16.000,332.638,-76.843,25246.957942
1 Jan 2020 16:57:46.000,330.493,-76.945,25163.137831
1 Jan 2020 16:58:16.000,328.300,-77.044,25085.196149
1 Jan 2020 16:58:46.000,326.059,-77.139,25013.288186
1 Jan 2020 16:59:16.000,323.771,-77.228,24947.560158
1 Jan 2020 16:59:46.000,321.440,-77.310,24888.148905
1 Jan 2020 17:00:16.000,319.066,-77.386,24835.180857
1 Jan 2020 17:00:46.000,316.655,-77.454,24788.771810
1 Jan 2020 17:01:16.000,314.210,-77.513,24749.026335
1 Jan 2020 17:01:46.000,311.735,-77.562,24716.037285
1 Jan 2020 17:02:16.000,309.235,-77.602,24689.885493
1 Jan 2020 17:02:46.000,306.716,-77.632,24670.639210
1 Jan 2020 17:03:16.000,304.184,-77.651,24658.353926
1 Jan 2020 17:03:46.000,301.644,-77.659,24653.072076
1 Jan 2020 17:04:16.000,299.103,-77.656,24654.822878
1 Jan 2020 17:04:46.000,296.567,-77.642,24663.622075
1 Jan 2020 17:05:16.000,294.043,-77.618,24679.472030
1 Jan 2020 17:05:46.000,291.536,-77.582,24702.361628
1 Jan 2020 17:06:16.000,289.052,-77.537,24732.266353
1 Jan 2020 17:06:46.000,286.597,-77.481,24769.148510
1 Jan 2020 17:07:16.000,284.175,-77.417,24812.957057
1 Jan 2020 17:07:46.000,281.792,-77.343,24863.628369
1 Jan 2020 17:08:16.000,279.451,-77.262,24921.086210
1 Jan 2020 17:08:46.000,277.156,-77.174,24985.242179
1 Jan 2020 17:09:16.000,274.909,-77.080,25055.996253
1 Jan 2020 17:09:46.000,272.713,-76.980,25133.236697
1 Jan 2020 17:10:16.000,270.570,-76.876,25216.841366
1 Jan 2020 17:10:46.000,268.480,-76.769,25306.677705
1 Jan 2020 17:11:16.000,266.444,-76.659,25402.603441
1 Jan 2020 17:11:46.000,264.463,-76.547,25504.467164
1 Jan 2020 17:12:16.000,262.536,-76.435,25612.109140
1 Jan 2020 17:12:46.000,260.663,-76.322,25725.361093
1 Jan 2020 17:13:16.000,258.843,-76.211,25844.048067
1 Jan 2020 17:13:46.000,257.076,-76.101,25967.988233
1 Jan 2020 17:14:16.000,255.359,-75.994,26096.993723
1 Jan 2020 17:14:18.461,255.220,-75.985,26107.796740
1 Jan 2020 18:27:40.589,39.492,-75.994,26114.790472
1 Jan 2020 18:28:10.000,38.854,-76.166,25910.702735
1 Jan 2020 18:28:40.000,38.184,-76.357,25705.363374
1 Jan 2020 18:29:10.000,37.491,-76.565,25503.160657
1 Jan 2020 18:29:40.000,36.772,-76.788,25304.376207
1 Jan 2020 18:30:10.000,36.023,-77.028,25109.294467
1 Jan 2020 18:30:40.000,35.240,-77.284,24918.202197
1 Jan 2020 18:31:10.000,34.419,-77.556,24731.387916
1 Jan 2020 18:31:40.000,33.555,-77.844,24549.141281
1 Jan 2020 18:32:10.000,32.642,-78.147,24371.752102
1 Jan 2020 18:32:40.000,31.673,-78.466,24199.510832
1 Jan 2020 18:33:10.000,30.640,-78.799,24032.705902
1 Jan 2020 18:33:40.000,29.534,-79.146,23871.624108
1 Jan 2020 18:34:10.000,28.345,-79.507,23716.549376
1 Jan 2020 18:34:40.000,27.059,-79.880,23567.761563
1 Jan 2020 18:35:10.000,25.663,-80.265,23425.536314
1 Jan 2020 18:35:40.000,24.138,-80.660,23290.142640
1 Jan 2020 18:36:10.000,22.463,-81.064,23161.842711
1 Jan 2020 18:36:40.000,20.615,-81.475,23040.890476
1 Jan 2020 18:37:10.000,18.562,-81.891,22927.530298
1 Jan 2020 18:37:40.000,16.270,-82.310,22821.996567
1 Jan 2020 18:38:10.000,13.695,-82.729,22724.511300
1 Jan 2020 18:38:40.000,10.788,-83.143,22635.283794
1 Jan 2020 18:39:10.000,7.489,-83.550,22554.509147
1 Jan 2020 18:39:40.000,3.732,-83.943,22482.367651
1 Jan 2020 18:40:10.000,359.444,-84.317,22419.022967
1 Jan 2020 18:40:40.000,354.552,-84.663,22364.621669
1 Jan 2020 18:41:10.000,348.997,-84.973,22319.292137
1 Jan 2020 18:41:40.000,342.746,-85.238,22283.144022
1 Jan 2020 18:42:10.000,335.824,-85.445,22256.267113
1 Jan 2020 18:42:40.000,328.336,-85.587,22238.731054
1 Jan 2020 18:43:10.000,320.477,-85.655,22230.584822
1 Jan 2020 18:43:40.000,312.512,-85.644,22231.856394
1 Jan 2020 18:44:10.000,304.731,-85.555,22242.552552
1 Jan 2020 18:44:40.000,297.387,-85.394,22262.658877
1 Jan 2020 18:45:10.000,290.651,-85.169,22292.139917
1 Jan 2020 18:45:40.000,284.604,-84.890,22330.939149
1 Jan 2020 18:46:10.000,279.256,-84.567,22378.979774
1 Jan 2020 18:46:40.000,274.564,-84.210,22436.164977
1 Jan 2020 18:47:10.000,270.464,-83.829,22502.378770
1 Jan 2020 18:47:40.000,266.882,-83.429,22577.486193
1 Jan 2020 18:48:10.000,263.747,-83.016,22661.334968
1 Jan 2020 18:48:40.000,260.994,-82.597,22753.755922
1 Jan 2020 18:49:10.000,258.567,-82.175,22854.564317
1 Jan 2020 18:49:40.000,256.417,-81.753,22963.560179
1 Jan 2020 18:50:10.000,254.503,-81.334,23080.530515
1 Jan 2020 18:50:40.000,252.792,-80.921,23205.249749
1 Jan 2020 18:51:10.000,251.255,-80.515,23337.481283
1 Jan 2020 18:51:40.000,249.869,-80.119,23476.977813
1 Jan 2020 18:52:10.000,248.613,-79.734,23623.483770
1 Jan 2020 18:52:40.000,247.471,-79.360,23776.735631
1 Jan 2020 18:53:10.000,246.429,-79.000,23936.463248
1 Jan 2020 18:53:40.000,245.475,-78.653,24102.391216
1 Jan 2020 18:54:10.000,244.599,-78.321,24274.238802
1 Jan 2020 18:54:40.000,243.792,-78.004,24451.722593
1 Jan 2020 18:55:10.000,243.047,-77.702,24634.556346
1 Jan 2020 18:55:40.000,242.357,-77.417,24822.452140
1 Jan 2020 18:56:10.000,241.717,-77.148,25015.121200
1 Jan 2020 18:56:40.000,241.122,-76.895,25212.274665
1 Jan 2020 18:57:10.000,240.568,-76.659,25413.624626
1 Jan 2020 18:57:40.000,240.052,-76.439,25618.883417
1 Jan 2020 18:58:10.000,239.569,-76.237,25827.766224
1 Jan 2020 18:58:40.000,239.117,-76.051,26039.990265
1 Jan 2020 18:58:50.516,238.966,-75.990,26115.118198
1 Jan 2020 20:10:07.824,64.376,-75.997,26120.685213
1 Jan 2020 20:10:37.000,65.202,-76.160,25926.075045
1 Jan 2020 20:11:07.000,66.096,-76.342,25729.589148
1 Jan 2020 20:11:37.000,67.039,-76.537,25537.045555
1 Jan 2020 20:12:07.000,68.036,-76.746,25348.715946
1 Jan 2020 20:12:37.000,69.091,-76.968,25164.872252
1 Jan 2020 20:13:07.000,70.210,-77.202,24985.786014
1 Jan 2020 20:13:37.000,71.398,-77.448,24811.727424
1 Jan 2020 20:14:07.000,72.662,-77.705,24642.965689
1 Jan 2020 20:14:37.000,74.009,-77.972,24479.766579
1 Jan 2020 20:15:07.000,75.447,-78.249,24322.392704
1 Jan 2020 20:15:37.000,76.984,-78.535,24171.102361
1 Jan 2020 20:16:07.000,78.630,-78.827,24026.148371
1 Jan 2020 20:16:37.000,80.396,-79.126,23887.778091
1 Jan 2020 20:17:07.000,82.292,-79.429,23756.230963
1 Jan 2020 20:17:37.000,84.332,-79.734,23631.738496
1 Jan 2020 20:18:07.000,86.527,-80.039,23514.522994
1 Jan 2020 20:18:37.000,88.892,-80.343,23404.796309
1 Jan 2020 20:19:07.000,91.440,-80.642,23302.759703
1 Jan 2020 20:19:37.000,94.185,-80.935,23208.601493
1 Jan 2020 20:20:07.000,97.139,-81.217,23122.496974
1 Jan 2020 20:20:37.000,100.314,-81.485,23044.607106
1 Jan 2020 20:21:07.000,103.716,-81.737,22975.078190
1 Jan 2020 20:21:37.000,107.349,-81.968,22914.040144
1 Jan 2020 20:22:07.000,111.210,-82.175,22861.606344
1 Jan 2020 20:22:37.000,115.286,-82.354,22817.872693
1 Jan 2020 20:23:07.000,119.559,-82.502,22782.917405
1 Jan 2020 20:23:37.000,123.996,-82.614,22756.799931
1 Jan 2020 20:24:07.000,128.559,-82.690,22739.560982
1 Jan 2020 20:24:37.000,133.199,-82.727,22731.222131
1 Jan 2020 20:25:07.000,137.863,-82.725,22731.785787
1 Jan 2020 20:25:37.000,142.497,-82.683,22741.234959
1 Jan 2020 20:26:07.000,147.048,-82.602,22759.533506
1 Jan 2020 20:26:37.000,151.470,-82.485,22786.626350
1 Jan 2020 20:27:07.000,155.726,-82.334,22822.439674
1 Jan 2020 20:27:37.000,159.786,-82.153,22866.881542
1 Jan 2020 20:28:07.000,163.633,-81.945,22919.842351
1 Jan 2020 20:28:37.000,167.257,-81.713,22981.195596
1 Jan 2020 20:29:07.000,170.657,-81.462,23050.798243
1 Jan 2020 20:29:37.000,173.836,-81.195,23128.492066
1 Jan 2020 20:30:07.000,176.804,-80.916,23214.104199
1 Jan 2020 20:30:37.000,179.571,-80.627,23307.448286
1 Jan 2020 20:31:07.000,182.151,-80.331,23408.324932
1 Jan 2020 20:31:37.000,184.557,-80.032,23516.523495
1 Jan 2020 20:32:07.000,186.803,-79.732,23631.822616
1 Jan 2020 20:32:37.000,188.902,-79.432,23753.991380
1 Jan 2020 20:33:07.000,190.868,-79.135,23882.790578
1 Jan 2020 20:33:37.000,192.713,-78.843,24017.972895
1 Jan 2020 20:34:07.000,194.447,-78.556,24159.285168
1 Jan 2020 20:34:37.000,196.081,-78.277,24306.468554
1 Jan 2020 20:35:07.000,197.625,-78.005,24459.259689
1 Jan 2020 20:35:37.000,199.087,-77.743,24617.391599
1 Jan 2020 20:36:07.000,200.474,-77.492,24780.594830
1 Jan 2020 20:36:37.000,201.795,-77.251,24948.597258
1 Jan 2020 20:37:07.000,203.055,-77.021,25121.126374
1 Jan 2020 20:37:37.000,204.260,-76.803,25297.909011
1 Jan 2020 20:38:07.000,205.416,-76.598,25478.672264
1 Jan 2020 20:38:37.000,206.527,-76.405,25663.144112
1 Jan 2020 20:39:07.000,207.597,-76.225,25851.053985
1 Jan 2020 20:39:37.000,208.631,-76.059,26042.133280
1 Jan 2020 20:39:49.221,209.043,-75.994,26120.818044
1 Jan 2020 21:54:51.456,77.778,-75.997,26122.535673
1 Jan 2020 21:55:21.000,79.665,-76.073,26029.806504
1 Jan 2020 21:55:51.000,81.621,-76.149,25941.052700
1 Jan 2020 21:56:21.000,83.616,-76.224,25857.884898
1 Jan 2020 21:56:51.000,85.650,-76.296,25780.433538
1 Jan 2020 21:57:21.000,87.720,-76.365,25708.820282
1 Jan 2020 21:57:51.000,89.826,-76.430,25643.157426
1 Jan 2020 21:58:21.000,91.965,-76.491,25583.547915
1 Jan 2020 21:58:51.000,94.136,-76.547,25530.084219
1 Jan 2020 21:59:21.000,96.335,-76.598,25482.848425
1 Jan 2020 21:59:51.000,98.561,-76.643,25441.911771
1 Jan 2020 22:00:21.000,100.810,-76.682,25407.334272
1 Jan 2020 22:00:51.000,103.078,-76.714,25379.164724
1 Jan 2020 22:01:21.000,105.361,-76.739,25357.440075
1 Jan 2020 22:01:51.000,107.657,-76.757,25342.185545
1 Jan 2020 22:02:21.000,109.961,-76.767,25333.414433
1 Jan 2020 22:02:51.000,112.268,-76.770,25331.128040
1 Jan 2020 22:03:21.000,114.575,-76.765,25335.315735
1 Jan 2020 22:03:51.000,116.877,-76.752,25345.954867
1 Jan 2020 22:04:21.000,119.172,-76.733,25363.010964
1 Jan 2020 22:04:51.000,121.454,-76.706,25386.437847
1 Jan 2020 22:05:21.000,123.719,-76.672,25416.177868
1 Jan 2020 22:05:51.000,125.966,-76.632,25452.162031
1 Jan 2020 22:06:21.000,128.190,-76.586,25494.310459
1 Jan 2020 22:06:51.000,130.388,-76.535,25542.532622
1 Jan 2020 22:07:21.000,132.559,-76.478,25596.727741
1 Jan 2020 22:07:51.000,134.699,-76.417,25656.785196
1 Jan 2020 22:08:21.000,136.807,-76.352,25722.585069
1 Jan 2020 22:08:51.000,138.881,-76.283,25793.998230
1 Jan 2020 22:09:21.000,140.920,-76.212,25870.887396
1 Jan 2020 22:09:51.000,142.924,-76.139,25953.107276
1 Jan 2020 22:10:21.000,144.891,-76.065,26040.505191
1 Jan 2020 22:10:47.727,146.613,-75.998,26122.599253
1 Jan 2020 23:28:17.900,37.162,-75.992,26118.758998
1 Jan 2020 23:28:47.000,39.059,-76.061,26034.907021
1 Jan 2020 23:29:17.000,41.049,-76.130,25953.515674
1 Jan 2020 23:29:47.000,43.074,-76.198,25877.402910
1 Jan 2020 23:30:17.000,45.131,-76.263,25806.711485
1 Jan 2020 23:30:47.000,47.221,-76.325,25741.576310
1 Jan 2020 23:31:17.000,49.342,-76.383,25682.123886
1 Jan 2020 23:31:47.000,51.492,-76.437,25628.472097
1 Jan 2020 23:32:17.000,53.668,-76.486,25580.729324
1 Jan 2020 23:32:47.000,55.868,-76.530,25538.994309
1 Jan 2020 23:33:17.000,58.091,-76.568,25503.355679
1 Jan 2020 23:33:47.000,60.331,-76.600,25473.891558
1 Jan 2020 23:34:17.000,62.587,-76.625,25450.669346
1 Jan 2020 23:34:47.000,64.855,-76.644,25433.745262
1 Jan 2020 23:35:17.000,67.130,-76.656,25423.164230
1 Jan 2020 23:35:47.000,69.410,-76.661,25418.959655
1 Jan 2020 23:36:17.000,71.691,-76.659,25421.153297
1 Jan 2020 23:36:47.000,73.967,-76.649,25429.755100
1 Jan 2020 23:37:17.000,76.237,-76.633,25444.763262
1 Jan 2020 23:37:47.000,78.495,-76.609,25466.164179
1 Jan 2020 23:38:17.000,80.738,-76.579,25493.932523
1 Jan 2020 23:38:47.000,82.964,-76.543,25528.031424
1 Jan 2020 23:39:17.000,85.167,-76.500,25568.412364
1 Jan 2020 23:39:47.000,87.346,-76.452,25615.015781
1 Jan 2020 23:40:17.000,89.497,-76.399,25667.771072
1 Jan 2020 23:40:47.000,91.619,-76.341,25726.596953
1 Jan 2020 23:41:17.000,93.709,-76.279,25791.401911
1 Jan 2020 23:41:47.000,95.765,-76.214,25862.084145
1 Jan 2020 23:42:17.000,97.786,-76.146,25938.532612
1 Jan 2020 23:42:47.000,99.770,-76.076,26020.627046
1 Jan 2020 23:43:17.000,101.717,-76.004,26108.238526
1 Jan 2020 23:43:20.563,101.945,-75.995,26119.003674
2 Jan 2020 00:58:40.698,332.904,-75.986,26112.149620
2 Jan 2020 00:59:10.000,333.955,-76.141,25927.453975
2 Jan 2020 00:59:40.000,335.067,-76.312,25741.424322
2 Jan 2020 01:00:10.000,336.220,-76.495,25558.762026
2 Jan 2020 01:00:40.000,337.417,-76.690,25379.734053
2 Jan 2020 01:01:10.000,338.664,-76.897,25204.608793
2 Jan 2020 01:01:40.000,339.965,-77.115,25033.655507
2 Jan 2020 01:02:10.000,341.327,-77.344,24867.143721
2 Jan 2020 01:02:40.000,342.754,-77.583,24705.342339
2 Jan 2020 01:03:10.000,344.253,-77.832,24548.519887
2 Jan 2020 01:03:40.000,345.833,-78.090,24396.942324
2 Jan 2020 01:04:10.000,347.500,-78.355,24250.873202
2 Jan 2020 01:04:40.000,349.263,-78.626,24110.572579
2 Jan 2020 01:05:10.000,351.132,-78.903,23976.296132
2 Jan 2020 01:05:40.000,353.117,-79.184,23848.294018
2 Jan 2020 01:06:10.000,355.227,-79.467,23726.810765
2 Jan 2020 01:06:40.000,357.474,-79.750,23612.083000
2 Jan 2020 01:07:10.000,359.869,-80.032,23504.339313
2 Jan 2020 01:07:40.000,2.423,-80.310,23403.799026
2 Jan 2020 01:08:10.000,5.148,-80.581,23310.671029
2 Jan 2020 01:08:40.000,8.053,-80.843,23225.153369
2 Jan 2020 01:09:10.000,11.147,-81.093,23147.431351
2 Jan 2020 01:09:40.000,14.434,-81.328,23077.677199
2 Jan 2020 01:10:10.000,17.917,-81.545,23016.048903
2 Jan 2020 01:10:40.000,21.592,-81.740,22962.689670
2 Jan 2020 01:11:10.000,25.450,-81.909,22917.726631
2 Jan 2020 01:11:40.000,29.474,-82.051,22881.270449
2 Jan 2020 01:12:10.000,33.640,-82.162,22853.414569
2 Jan 2020 01:12:40.000,37.917,-82.240,22834.234766
2 Jan 2020 01:13:10.000,42.267,-82.283,22823.788520
2 Jan 2020 01:13:40.000,46.647,-82.290,22822.114805
2 Jan 2020 01:14:10.000,51.014,-82.261,22829.233866
2 Jan 2020 01:14:40.000,55.322,-82.196,22845.146950
2 Jan 2020 01:15:10.000,59.532,-82.097,22869.836514
2 Jan 2020 01:15:40.000,63.609,-81.966,22903.266230
2 Jan 2020 01:16:10.000,67.524,-81.806,22945.381341
2 Jan 2020 01:16:40.000,71.259,-81.618,22996.108626
2 Jan 2020 01:17:10.000,74.799,-81.408,23055.357413
2 Jan 2020 01:17:40.000,78.138,-81.177,23123.019773
2 Jan 2020 01:18:10.000,81.276,-80.929,23198.971403
2 Jan 2020 01:18:40.000,84.217,-80.667,23283.071756
2 Jan 2020 01:19:10.000,86.967,-80.395,23375.165715
2 Jan 2020 01:19:40.000,89.534,-80.114,23475.083880
2 Jan 2020 01:20:10.000,91.931,-79.829,23582.643805
2 Jan 2020 01:20:40.000,94.167,-79.541,23697.650206
2 Jan 2020 01:21:10.000,96.255,-79.252,23819.897027
2 Jan 2020 01:21:40.000,98.204,-78.965,23949.167718
2 Jan 2020 01:22:10.000,100.027,-78.681,24085.236407
2 Jan 2020 01:22:40.000,101.732,-78.402,24227.869161
2 Jan 2020 01:23:10.000,103.330,-78.129,24376.823929
2 Jan 2020 01:23:40.000,104.830,-77.863,24531.853050
2 Jan 2020 01:24:10.000,106.238,-77.607,24692.703175
2 Jan 2020 01:24:40.000,107.564,-77.360,24859.116420
2 Jan 2020 01:25:10.000,108.813,-77.123,25030.831240
2 Jan 2020 01:25:40.000,109.992,-76.897,25207.583548
2 Jan 2020 01:26:10.000,111.106,-76.684,25389.106316
2 Jan 2020 01:26:40.000,112.161,-76.482,25575.132075
2 Jan 2020 01:27:10.000,113.161,-76.293,25765.392430
2 Jan 2020 01:27:40.000,114.111,-76.118,25959.618994
2 Jan 2020 01:28:03.142,114.812,-75.991,26111.984156
2 Jan 2020 02:39:21.509,301.995,-75.983,26105.604730
2 Jan 2020 02:39:51.000,301.629,-76.161,25894.554288
2 Jan 2020 02:40:21.000,301.229,-76.359,25683.010552
2 Jan 2020 02:40:51.000,300.799,-76.574,25474.927265
2 Jan 2020 02:41:21.000,300.337,-76.806,25270.589698
2 Jan 2020 02:41:51.000,299.840,-77.055,25070.285373
2 Jan 2020 02:42:21.000,299.303,-77.321,24874.303515
2 Jan 2020 02:42:51.000,298.723,-77.604,24682.934443
2 Jan 2020 02:43:21.000,298.095,-77.904,24496.468589
2 Jan 2020 02:43:51.000,297.413,-78.220,24315.197024
2 Jan 2020 02:44:21.000,296.672,-78.553,24139.408765
2 Jan 2020 02:44:51.000,295.863,-78.900,23969.391194
2 Jan 2020 02:45:21.000,294.978,-79.263,23805.428826
2 Jan 2020 02:45:51.000,294.005,-79.640,23647.802082
2 Jan 2020 02:46:21.000,292.934,-80.031,23496.787293
2 Jan 2020 02:46:51.000,291.749,-80.434,23352.654069
2 Jan 2020 02:47:21.000,290.431,-80.849,23215.665237
2 Jan 2020 02:47:51.000,288.959,-81.273,23086.075421
2 Jan 2020 02:48:21.000,287.307,-81.706,22964.129641
2 Jan 2020 02:48:51.000,285.443,-82.145,22850.063081
2 Jan 2020 02:49:21.000,283.326,-82.587,22744.098433
2 Jan 2020 02:49:51.000,280.908,-83.031,22646.445709
2 Jan 2020 02:50:21.000,278.130,-83.472,22557.300673
2 Jan 2020 02:50:51.000,274.919,-83.906,22476.844363
2 Jan 2020 02:51:21.000,271.189,-84.328,22405.241033
2 Jan 2020 02:51:51.000,266.839,-84.731,22342.637823
2 Jan 2020 02:52:21.000,261.762,-85.106,22289.163560
2 Jan 2020 02:52:51.000,255.856,-85.444,22244.928356
2 Jan 2020 02:53:21.000,249.051,-85.731,22210.022222
2 Jan 2020 02:53:51.000,241.352,-85.956,22184.514922
2 Jan 2020 02:54:21.000,232.891,-86.105,22168.455348
2 Jan 2020 02:54:51.000,223.948,-86.168,22161.871330
2 Jan 2020 02:55:21.000,214.919,-86.140,22164.769184
2 Jan 2020 02:55:51.000,206.226,-86.024,22177.133850
2 Jan 2020 02:56:21.000,198.200,-85.828,22198.928972
2 Jan 2020 02:56:51.000,191.028,-85.564,22230.096998
2 Jan 2020 02:57:21.000,184.758,-85.246,22270.559745
2 Jan 2020 02:57:51.000,179.344,-84.886,22320.218808
2 Jan 2020 02:58:21.000,174.691,-84.495,22378.956327
2 Jan 2020 02:58:51.000,170.692,-84.082,22446.635339
2 Jan 2020 02:59:21.000,167.242,-83.654,22523.101226
2 Jan 2020 02:59:51.000,164.250,-83.218,22608.182293
2 Jan 2020 03:00:21.000,161.638,-82.777,22701.691045
2 Jan 2020 03:00:51.000,159.341,-82.337,22803.424660
2 Jan 2020 03:01:21.000,157.308,-81.900,22913.167041
2 Jan 2020 03:01:51.000,155.494,-81.468,23030.689398
2 Jan 2020 03:02:21.000,153.866,-81.043,23155.751778
2 Jan 2020 03:02:51.000,152.394,-80.628,23288.103511
2 Jan 2020 03:03:21.000,151.055,-80.223,23427.485521
2 Jan 2020 03:03:51.000,149.830,-79.831,23573.630771
2 Jan 2020 03:04:21.000,148.702,-79.452,23726.265590
2 Jan 2020 03:04:51.000,147.658,-79.086,23885.111047
2 Jan 2020 03:05:21.000,146.687,-78.735,24049.883000
2 Jan 2020 03:05:51.000,145.780,-78.399,24220.294628
2 Jan 2020 03:06:21.000,144.927,-78.079,24396.056397
2 Jan 2020 03:06:51.000,144.123,-77.775,24576.877214
2 Jan 2020 03:07:21.000,143.360,-77.487,24762.465271
2 Jan 2020 03:07:51.000,142.635,-77.215,24952.528830
2 Jan 2020 03:08:21.000,141.942,-76.960,25146.777258
2 Jan 2020 03:08:51.000,141.278,-76.722,25344.920427
2 Jan 2020 03:09:21.000,140.638,-76.500,25546.671192
2 Jan 2020 03:09:51.000,140.021,-76.295,25751.744681
2 Jan 2020 03:10:21.000,139.422,-76.107,25959.859085
2 Jan 2020 03:10:41.744,139.019,-75.986,26105.394234
2 Jan 2020 04:23:49.350,285.296,-75.982,26102.195520
2 Jan 2020 04:24:19.000,283.644,-76.092,25968.872723
2 Jan 2020 04:24:49.000,281.920,-76.207,25838.916960
2 Jan 2020 04:25:19.000,280.143,-76.324,25714.127456
2 Jan 2020 04:25:49.000,278.310,-76.443,25594.694260
2 Jan 2020 04:26:19.000,276.422,-76.562,25480.801220
2 Jan 2020 04:26:49.000,274.477,-76.682,25372.625164
2 Jan 2020 04:27:19.000,272.474,-76.801,25270.335971
2 Jan 2020 04:27:49.000,270.414,-76.917,25174.094841
2 Jan 2020 04:28:19.000,268.296,-77.031,25084.054402
2 Jan 2020 04:28:49.000,266.121,-77.141,25000.357900
2 Jan 2020 04:29:19.000,263.890,-77.247,24923.138470
2 Jan 2020 04:29:49.000,261.605,-77.346,24852.519120
2 Jan 2020 04:30:19.000,259.269,-77.439,24788.611335
2 Jan 2020 04:30:49.000,256.884,-77.524,24731.515152
2 Jan 2020 04:31:19.000,254.455,-77.600,24681.318555
2 Jan 2020 04:31:49.000,251.985,-77.667,24638.096961
2 Jan 2020 04:32:19.000,249.479,-77.725,24601.913239
2 Jan 2020 04:32:49.000,246.944,-77.771,24572.816819
2 Jan 2020 04:33:19.000,244.384,-77.807,24550.843848
2 Jan 2020 04:33:49.000,241.807,-77.831,24536.016897
2 Jan 2020 04:34:19.000,239.218,-77.844,24528.344819
2 Jan 2020 04:34:49.000,236.625,-77.845,24527.822831
2 Jan 2020 04:35:19.000,234.035,-77.834,24534.432306
2 Jan 2020 04:35:49.000,231.454,-77.812,24548.141019
2 Jan 2020 04:36:19.000,228.889,-77.778,24568.903256
2 Jan 2020 04:36:49.000,226.346,-77.733,24596.660055
2 Jan 2020 04:37:19.000,223.831,-77.678,24631.339384
2 Jan 2020 04:37:49.000,221.349,-77.613,24672.856613
2 Jan 2020 04:38:19.000,218.904,-77.539,24721.114833
2 Jan 2020 04:38:49.000,216.502,-77.457,24776.005308
2 Jan 2020 04:39:19.000,214.144,-77.368,24837.408055
2 Jan 2020 04:39:49.000,211.834,-77.272,24905.192055
2 Jan 2020 04:40:19.000,209.575,-77.170,24979.216279
2 Jan 2020 04:40:49.000,207.367,-77.064,25059.329991
2 Jan 2020 04:41:19.000,205.211,-76.953,25145.373439
2 Jan 2020 04:41:49.000,203.108,-76.841,25237.178492
2 Jan 2020 04:42:19.000,201.059,-76.726,25334.569444
2 Jan 2020 04:42:49.000,199.062,-76.610,25437.363084
2 Jan 2020 04:43:19.000,197.116,-76.494,25545.370224
2 Jan 2020 04:43:49.000,195.221,-76.379,25658.395788
2 Jan 2020 04:44:19.000,193.376,-76.265,25776.239602
2 Jan 2020 04:44:49.000,191.579,-76.153,25898.697038
2 Jan 2020 04:45:19.000,189.827,-76.045,26025.559633
2 Jan 2020 04:45:36.658,188.817,-75.982,26102.207128
2 Jan 2020 06:03:41.977,297.157,-75.984,26104.204333
2 Jan 2020 06:04:11.000,295.167,-76.026,26053.117397
2 Jan 2020 06:04:41.000,293.088,-76.065,26005.851702
2 Jan 2020 06:05:11.000,290.988,-76.100,25964.306080
2 Jan 2020 06:05:41.000,288.870,-76.131,25928.559068
2 Jan 2020 06:06:11.000,286.737,-76.157,25898.679296
2 Jan 2020 06:06:41.000,284.591,-76.178,25874.725188
2 Jan 2020 06:07:11.000,282.435,-76.194,25856.744836
2 Jan 2020 06:07:41.000,280.271,-76.205,25844.775629
2 Jan 2020 06:08:11.000,278.103,-76.210,25838.844221
2 Jan 2020 06:08:41.000,275.934,-76.210,25838.966398
2 Jan 2020 06:09:11.000,273.766,-76.204,25845.147024
2 Jan 2020 06:09:41.000,271.603,-76.193,25857.379958
2 Jan 2020 06:10:11.000,269.448,-76.177,25875.648170
2 Jan 2020 06:10:41.000,267.304,-76.155,25899.923761
2 Jan 2020 06:11:11.000,265.173,-76.128,25930.168089
2 Jan 2020 06:11:41.000,263.058,-76.097,25966.331932
2 Jan 2020 06:12:11.000,260.961,-76.061,26008.355768
2 Jan 2020 06:12:41.000,258.886,-76.022,26056.169705
2 Jan 2020 06:13:07.978,257.038,-75.983,26104.046957
2 Jan 2020 07:30:42.054,11.317,-75.992,26110.397564
2 Jan 2020 07:31:12.000,9.881,-76.126,25948.355249
2 Jan 2020 07:31:42.000,8.398,-76.270,25789.616011
2 Jan 2020 07:32:12.000,6.865,-76.420,25634.719668
2 Jan 2020 07:32:42.000,5.281,-76.578,25483.910185
2 Jan 2020 07:33:12.000,3.640,-76.742,25337.430566
2 Jan 2020 07:33:42.000,1.940,-76.911,25195.522230
2 Jan 2020 07:34:12.000,0.177,-77.085,25058.424365
2 Jan 2020 07:34:42.000,358.345,-77.263,24926.373029
2 Jan 2020 07:35:12.000,356.442,-77.444,24799.601244
2 Jan 2020 07:35:42.000,354.465,-77.627,24678.337014
2 Jan 2020 07:36:12.000,352.408,-77.811,24562.803378
2 Jan 2020 07:36:42.000,350.269,-77.994,24453.217406
2 Jan 2020 07:37:12.000,348.044,-78.175,24349.789253
2 Jan 2020 07:37:42.000,345.732,-78.353,24252.721874
2 Jan 2020 07:38:12.000,343.330,-78.526,24162.209380
2 Jan 2020 07:38:42.000,340.837,-78.692,24078.436771
2 Jan 2020 07:39:12.000,338.253,-78.851,24001.578981
2 Jan 2020 07:39:42.000,335.580,-79.000,23931.799997
2 Jan 2020 07:40:12.000,332.821,-79.137,23869.252467
2 Jan 2020 07:40:42.000,329.979,-79.262,23814.076385
2 Jan 2020 07:41:12.000,327.060,-79.373,23766.398802
2 Jan 2020 07:41:42.000,324.072,-79.468,23726.333052
2 Jan 2020 07:42:12.000,321.025,-79.546,23693.978315
2 Jan 2020 07:42:42.000,317.929,-79.606,23669.418869
2 Jan 2020 07:43:12.000,314.797,-79.648,23652.723814
2 Jan 2020 07:43:42.000,311.643,-79.669,23643.946676
2 Jan 2020 07:44:12.000,308.480,-79.671,23643.125080
2 Jan 2020 07:44:42.000,305.323,-79.653,23650.280600
2 Jan 2020 07:45:12.000,302.187,-79.616,23665.418635
2 Jan 2020 07:45:42.000,299.086,-79.559,23688.528451
2 Jan 2020 07:46:12.000,296.033,-79.483,23719.583010
2 Jan 2020 07:46:42.000,293.039,-79.390,23758.539480
2 Jan 2020 07:47:12.000,290.115,-79.281,23805.339263
2 Jan 2020 07:47:42.000,287.270,-79.157,23859.908485
2 Jan 2020 07:48:12.000,284.510,-79.019,23922.157972
2 Jan 2020 07:48:42.000,281.840,-78.869,23991.984367
2 Jan 2020 07:49:12.000,279.264,-78.708,24069.270264
2 Jan 2020 07:49:42.000,276.784,-78.539,24153.884918
2 Jan 2020 07:50:12.000,274.400,-78.363,24245.685098
2 Jan 2020 07:50:42.000,272.112,-78.181,24344.515027
2 Jan 2020 07:51:12.000,269.919,-77.996,24450.208251
2 Jan 2020 07:51:42.000,267.819,-77.808,24562.587669
2 Jan 2020 07:52:12.000,265.808,-77.619,24681.466503
2 Jan 2020 07:52:42.000,263.884,-77.430,24806.649322
2 Jan 2020 07:53:12.000,262.044,-77.243,24937.931969
2 Jan 2020 07:53:42.000,260.282,-77.059,25075.103671
2 Jan 2020 07:54:12.000,258.597,-76.879,25217.946979
2 Jan 2020 07:54:42.000,256.983,-76.704,25366.238760
2 Jan 2020 07:55:12.000,255.437,-76.535,25519.750962
2 Jan 2020 07:55:42.000,253.956,-76.372,25678.251625
2 Jan 2020 07:56:12.000,252.535,-76.217,25841.504533
2 Jan 2020 07:56:42.000,251.171,-76.070,26009.271474
2 Jan 2020 07:56:59.714,250.391,-75.987,26110.354181
2 Jan 2020 09:08:55.593,50.372,-75.996,26117.205749
2 Jan 2020 09:09:25.000,50.259,-76.176,25903.621700
2 Jan 2020 09:09:55.000,50.148,-76.377,25688.596400
2 Jan 2020 09:10:25.000,50.043,-76.597,25476.746056
2 Jan 2020 09:10:55.000,49.941,-76.835,25268.359193
2 Jan 2020 09:11:25.000,49.844,-77.092,25063.727480
2 Jan 2020 09:11:55.000,49.751,-77.367,24863.145233
2 Jan 2020 09:12:25.000,49.663,-77.660,24666.908854
2 Jan 2020 09:12:55.000,49.578,-77.972,24475.315919
2 Jan 2020 09:13:25.000,49.497,-78.303,24288.665675
2 Jan 2020 09:13:55.000,49.420,-78.653,24107.256496
2 Jan 2020 09:14:25.000,49.347,-79.021,23931.386267
2 Jan 2020 09:14:55.000,49.277,-79.407,23761.351198
2 Jan 2020 09:15:25.000,49.211,-79.811,23597.444622
2 Jan 2020 09:15:55.000,49.148,-80.233,23439.956986
2 Jan 2020 09:16:25.000,49.089,-80.672,23289.173267
2 Jan 2020 09:16:55.000,49.033,-81.127,23145.372860
2 Jan 2020 09:17:25.000,48.981,-81.600,23008.828161
2 Jan 2020 09:17:55.000,48.931,-82.087,22879.803111
2 Jan 2020 09:18:25.000,48.884,-82.591,22758.552926
2 Jan 2020 09:18:55.000,48.841,-83.108,22645.321374
2 Jan 2020 09:19:25.000,48.799,-83.639,22540.340506
2 Jan 2020 09:19:55.000,48.761,-84.183,22443.828989
2 Jan 2020 09:20:25.000,48.724,-84.738,22355.991531
2 Jan 2020 09:20:55.000,48.689,-85.304,22277.016684
2 Jan 2020 09:21:25.000,48.654,-85.881,22207.076387
2 Jan 2020 09:21:55.000,48.619,-86.465,22146.324614
2 Jan 2020 09:22:25.000,48.581,-87.057,22094.896831
2 Jan 2020 09:22:55.000,48.535,-87.656,22052.908425
2 Jan 2020 09:23:25.000,48.470,-88.259,22020.454401
2 Jan 2020 09:23:55.000,48.350,-88.866,21997.608585
2 Jan 2020 09:24:25.000,47.971,-89.476,21984.423271
2 Jan 2020 09:24:55.000,232.865,-89.913,21980.928593
2 Jan 2020 09:25:25.000,229.190,-89.303,21987.132509
2 Jan 2020 09:25:55.000,228.951,-88.694,22003.020732
2 Jan 2020 09:26:25.000,228.870,-88.087,22028.556690
2 Jan 2020 09:26:55.000,228.836,-87.485,22063.681964
2 Jan 2020 09:27:25.000,228.822,-86.889,22108.316593
2 Jan 2020 09:27:55.000,228.821,-86.298,22162.359758
2 Jan 2020 09:28:25.000,228.828,-85.716,22225.690023
2 Jan 2020 09:28:55.000,228.842,-85.143,22298.166778
2 Jan 2020 09:29:25.000,228.861,-84.579,22379.630748
2 Jan 2020 09:29:55.000,228.886,-84.027,22469.905274
2 Jan 2020 09:30:25.000,228.914,-83.487,22568.796738
2 Jan 2020 09:30:55.000,228.947,-82.959,22676.096697
2 Jan 2020 09:31:25.000,228.984,-82.446,22791.582455
2 Jan 2020 09:31:55.000,229.024,-81.947,22915.018663
2 Jan 2020 09:32:25.000,229.069,-81.463,23046.157759
2 Jan 2020 09:32:55.000,229.117,-80.996,23184.742438
2 Jan 2020 09:33:25.000,229.169,-80.544,23330.506114
2 Jan 2020 09:33:55.000,229.225,-80.110,23483.174340
2 Jan 2020 09:34:25.000,229.285,-79.693,23642.466295
2 Jan 2020 09:34:55.000,229.349,-79.294,23808.094821
2 Jan 2020 09:35:25.000,229.416,-78.913,23979.769195
2 Jan 2020 09:35:55.000,229.487,-78.550,24157.195084
2 Jan 2020 09:36:25.000,229.563,-78.206,24340.075817
2 Jan 2020 09:36:55.000,229.642,-77.880,24528.113311
2 Jan 2020 09:37:25.000,229.725,-77.573,24721.009247
2 Jan 2020 09:37:55.000,229.813,-77.285,24918.464646
2 Jan 2020 09:38:25.000,229.905,-77.015,25120.182429
2 Jan 2020 09:38:55.000,230.001,-76.763,25325.866871
2 Jan 2020 09:39:25.000,230.102,-76.530,25535.224509
2 Jan 2020 09:39:55.000,230.207,-76.316,25747.964678
2 Jan 2020 09:40:25.000,230.317,-76.119,25963.799996
2 Jan 2020 09:40:46.128,230.398,-75.991,26117.506616
2 Jan 2020 10:52:42.074,70.363,-75.998,26121.981479
2 Jan 2020 10:53:12.000,71.690,-76.139,25951.919357
2 Jan 2020 10:53:42.000,73.076,-76.290,25785.800594
2 Jan 2020 10:54:12.000,74.520,-76.449,25624.292151
2 Jan 2020 10:54:42.000,76.027,-76.614,25467.631797
2 Jan 2020 10:55:12.000,77.599,-76.786,25316.054252
2 Jan 2020 10:55:42.000,79.241,-76.964,25169.790484
2 Jan 2020 10:56:12.000,80.956,-77.146,25029.066733
2 Jan 2020 10:56:42.000,82.749,-77.331,24894.104781
2 Jan 2020 10:57:12.000,84.623,-77.519,24765.119630
2 Jan 2020 10:57:42.000,86.581,-77.708,24642.319750
2 Jan 2020 10:58:12.000,88.628,-77.897,24525.906017
2 Jan 2020 10:58:42.000,90.766,-78.085,24416.070708
2 Jan 2020 10:59:12.000,92.998,-78.269,24312.997485
2 Jan 2020 10:59:42.000,95.325,-78.449,24216.859396
2 Jan 2020 11:00:12.000,97.749,-78.623,24127.818903
2 Jan 2020 11:00:42.000,100.270,-78.789,24046.026914
2 Jan 2020 11:01:12.000,102.886,-78.946,23971.621904
2 Jan 2020 11:01:42.000,105.595,-79.092,23904.729857
2 Jan 2020 11:02:12.000,108.393,-79.224,23845.462655
2 Jan 2020 11:02:42.000,111.274,-79.343,23793.918155
2 Jan 2020 11:03:12.000,114.231,-79.446,23750.179412
2 Jan 2020 11:03:42.000,117.254,-79.533,23714.314574
2 Jan 2020 11:04:12.000,120.332,-79.601,23686.375961
2 Jan 2020 11:04:42.000,123.453,-79.650,23666.400147
2 Jan 2020 11:05:12.000,126.604,-79.680,23654.407609
2 Jan 2020 11:05:42.000,129.769,-79.690,23650.402758
2 Jan 2020 11:06:12.000,132.935,-79.680,23654.373656
2 Jan 2020 11:06:42.000,136.087,-79.650,23666.292250
2 Jan 2020 11:07:12.000,139.210,-79.601,23686.114480
2 Jan 2020 11:07:42.000,142.292,-79.534,23713.780469
2 Jan 2020 11:08:12.000,145.321,-79.448,23749.214891
2 Jan 2020 11:08:42.000,148.285,-79.346,23792.327345
2 Jan 2020 11:09:12.000,151.178,-79.229,23843.012898
2 Jan 2020 11:09:42.000,153.990,-79.099,23901.152388
2 Jan 2020 11:10:12.000,156.718,-78.956,23966.613367
2 Jan 2020 11:10:42.000,159.357,-78.803,24039.250554
2 Jan 2020 11:11:12.000,161.906,-78.640,24118.906587
2 Jan 2020 11:11:42.000,164.364,-78.470,24205.412915
2 Jan 2020 11:12:12.000,166.731,-78.295,24298.590044
2 Jan 2020 11:12:42.000,169.009,-78.115,24398.249117
2 Jan 2020 11:13:12.000,171.200,-77.933,24504.192228
2 Jan 2020 11:13:42.000,173.306,-77.749,24616.213368
2 Jan 2020 11:14:12.000,175.331,-77.565,24734.099421
2 Jan 2020 11:14:42.000,177.278,-77.382,24857.630335
2 Jan 2020 11:15:12.000,179.151,-77.202,24986.580886
2 Jan 2020 11:15:42.000,180.955,-77.024,25120.720839
2 Jan 2020 11:16:12.000,182.692,-76.852,25259.815871
2 Jan 2020 11:16:42.000,184.367,-76.684,25403.628312
2 Jan 2020 11:17:12.000,185.984,-76.522,25551.917853
2 Jan 2020 11:17:42.000,187.546,-76.367,25704.442458
2 Jan 2020 11:18:12.000,189.058,-76.219,25860.958083
2 Jan 2020 11:18:42.000,190.522,-76.079,26021.220651
2 Jan 2020 11:19:00.524,191.404,-75.996,26121.942999
2 Jan 2020 12:36:34.460,77.009,-75.997,26121.837208
2 Jan 2020 12:37:04.000,79.033,-76.039,26069.335775
2 Jan 2020 12:37:34.000,81.111,-76.079,26021.691299
2 Jan 2020 12:38:04.000,83.210,-76.115,25979.843163
2 Jan 2020 12:38:34.000,85.328,-76.146,25943.860821
2 Jan 2020 12:39:04.000,87.461,-76.172,25913.803559
2 Jan 2020 12:39:34.000,89.608,-76.194,25889.720224
2 Jan 2020 12:40:04.000,91.766,-76.210,25871.649179
2 Jan 2020 12:40:34.000,93.931,-76.221,25859.617891
2 Jan 2020 12:41:04.000,96.100,-76.227,25853.642996
2 Jan 2020 12:41:34.000,98.272,-76.227,25853.730180
2 Jan 2020 12:42:04.000,100.442,-76.221,25859.874160
2 Jan 2020 12:42:34.000,102.607,-76.210,25872.058687
2 Jan 2020 12:43:04.000,104.765,-76.194,25890.256632
2 Jan 2020 12:43:34.000,106.913,-76.172,25914.430088
2 Jan 2020 12:44:04.000,109.047,-76.146,25944.530529
2 Jan 2020 12:44:34.000,111.166,-76.115,25980.499003
2 Jan 2020 12:45:04.000,113.266,-76.079,26022.266442
2 Jan 2020 12:45:34.000,115.347,-76.040,26069.753673
2 Jan 2020 12:46:03.495,117.370,-75.998,26121.931028
2 Jan 2020 14:04:09.469,8.991,-75.990,26116.503379
2 Jan 2020 14:04:39.000,10.691,-76.095,25989.430953
2 Jan 2020 14:05:09.000,12.462,-76.204,25864.591690
2 Jan 2020 14:05:39.000,14.280,-76.317,25744.245689
2 Jan 2020 14:06:09.000,16.147,-76.431,25628.599671
2 Jan 2020 14:06:39.000,18.063,-76.546,25517.856261
2 Jan 2020 14:07:09.000,20.031,-76.662,25412.213356
2 Jan 2020 14:07:39.000,22.051,-76.777,25311.863351
2 Jan 2020 14:08:09.000,24.123,-76.891,25216.993022
2 Jan 2020 14:08:39.000,26.248,-77.003,25127.782045
2 Jan 2020 14:09:09.000,28.426,-77.111,25044.402891
2 Jan 2020 14:09:39.000,30.655,-77.215,24967.020029
2 Jan 2020 14:10:09.000,32.936,-77.314,24895.789203
2 Jan 2020 14:10:39.000,35.265,-77.407,24830.857123
2 Jan 2020 14:11:09.000,37.642,-77.493,24772.360353
2 Jan 2020 14:11:39.000,40.062,-77.572,24720.425070
2 Jan 2020 14:12:09.000,42.521,-77.642,24675.166427
2 Jan 2020 14:12:39.000,45.017,-77.702,24636.687997
2 Jan 2020 14:13:09.000,47.543,-77.753,24605.081460
2 Jan 2020 14:13:39.000,50.094,-77.793,24580.425934
2 Jan 2020 14:14:09.000,52.665,-77.821,24562.787778
2 Jan 2020 14:14:39.000,55.249,-77.839,24552.220234
2 Jan 2020 14:15:09.000,57.839,-77.845,24548.763200
2 Jan 2020 14:15:39.000,60.429,-77.839,24552.442956
2 Jan 2020 14:16:09.000,63.011,-77.821,24563.272152
2 Jan 2020 14:16:39.000,65.580,-77.792,24581.249691
2 Jan 2020 14:17:09.000,68.128,-77.752,24606.360751
2 Jan 2020 14:17:39.000,70.649,-77.700,24638.576957
2 Jan 2020 14:18:09.000,73.138,-77.639,24677.856189
2 Jan 2020 14:18:39.000,75.590,-77.568,24724.143274
2 Jan 2020 14:19:09.000,77.999,-77.488,24777.369953
2 Jan 2020 14:19:39.000,80.362,-77.400,24837.455282
2 Jan 2020 14:20:09.000,82.675,-77.305,24904.306157
2 Jan 2020 14:20:39.000,84.936,-77.203,24977.817207
2 Jan 2020 14:21:09.000,87.142,-77.096,25057.872074
2 Jan 2020 14:21:39.000,89.292,-76.985,25144.343406
2 Jan 2020 14:22:09.000,91.385,-76.870,25237.093547
2 Jan 2020 14:22:39.000,93.420,-76.753,25335.975288
2 Jan 2020 14:23:09.000,95.398,-76.634,25440.831794
2 Jan 2020 14:23:39.000,97.318,-76.515,25551.498234
2 Jan 2020 14:24:09.000,99.182,-76.396,25667.801760
2 Jan 2020 14:24:39.000,100.991,-76.278,25789.562303
2 Jan 2020 14:25:09.000,102.745,-76.162,25916.593226
2 Jan 2020 14:25:39.000,104.447,-76.049,26048.702184
2 Jan 2020 14:25:54.024,105.279,-75.994,26116.708307
2 Jan 2020 15:39:02.950,319.127,-75.985,26109.652129
2 Jan 2020 15:39:32.000,319.698,-76.156,25906.373458
2 Jan 2020 15:40:02.000,320.306,-76.349,25699.246173
2 Jan 2020 15:40:32.000,320.934,-76.558,25495.236420
2 Jan 2020 15:41:02.000,321.585,-76.784,25294.626577
2 Jan 2020 15:41:32.000,322.262,-77.027,25097.701967
2 Jan 2020 15:42:02.000,322.969,-77.286,24904.750359
2 Jan 2020 15:42:32.000,323.710,-77.562,24716.061419
2 Jan 2020 15:43:02.000,324.489,-77.854,24531.926091
2 Jan 2020 15:43:32.000,325.313,-78.162,24352.635621
2 Jan 2020 15:44:02.000,326.187,-78.486,24178.482058
2 Jan 2020 15:44:32.000,327.118,-78.826,24009.755579
2 Jan 2020 15:45:02.000,328.116,-79.180,23846.744891
2 Jan 2020 15:45:32.000,329.190,-79.549,23689.735987
2 Jan 2020 15:46:02.000,330.352,-79.931,23539.010950
2 Jan 2020 15:46:32.000,331.617,-80.326,23394.847819
2 Jan 2020 15:47:02.000,333.000,-80.733,23257.518142
2 Jan 2020 15:47:32.000,334.523,-81.150,23127.286774
2 Jan 2020 15:48:02.000,336.211,-81.575,23004.410486
2 Jan 2020 15:48:32.000,338.094,-82.008,22889.136586
2 Jan 2020 15:49:02.000,340.208,-82.445,22781.702538
2 Jan 2020 15:49:32.000,342.598,-82.884,22682.333511
2 Jan 2020 15:50:02.000,345.321,-83.322,22591.242042
2 Jan 2020 15:50:32.000,348.442,-83.754,22508.626523
2 Jan 2020 15:51:02.000,352.044,-84.177,22434.670590
2 Jan 2020 15:51:32.000,356.218,-84.582,22369.541253
2 Jan 2020 15:52:02.000,1.070,-84.963,22313.388424
